Time ,D (m),gndAlt,velLL X  ,velLL Y  ,velLL Z  ,Roll ,Pitch,Yaw  ,Body Accel X,Body Accel Y,Body Accel Z,Accel Mag,accel_roll,accel_pitch,Ground Roll,Ground Pitch,Ground Elevation ,onGround ,IMU highDynamics,Nav Alt,Nav velLL X,Nav velLL Y,Nav velLL Z,Accel Update Count,Nav Roll,Nav Pitch,Nav Yaw,Gyro Bias X (deg/s),Gyro Bias Y (deg/s),Gyro Bias Z (deg/s),Accel Bias X (g),Accel Bias Y (g),Accel Bias Z (g),Roll Error,Pitch Error,Yaw Error,Vel N Error,Vel E Error,Vel D Error,Alt Error (m),VN Stdev,VE Stdev,VD Stdev,Accel Bias X Stdev,Accel Bias Y Stdev,Accel Bias Z Stdev,Alt Stdev,Ctrl rollCmd,Ctrl pitchCmd,Ctrl Vx int err,Ctrl Vy int err,Ctrl Vz int err,Ctrl VLLxCmd,Ctrl VLLyCmd,Ctrl VLLzCmd,Ctrl hCmd,controlAltitude,takeOff,crashLand,onGround,
0.500000,-0.000711,0.101886,-0.004715,0.008182,0.002361,12.274452,7.202645,60.046250,0.070806,-0.119112,0.000344,0.138569,12.274452,7.202645,0.000000,14.036243,-0.001172,1.000000,0.000000,0.000000,0.000000,0.000000,0.000000,0.000000,0.000000,0.000000,0.000000,0.000000,0.000000,0.000000,0.000000,0.000000,0.000000,0.000000,0.000000,0.000000,0.000000,0.000000,0.000000,0.000000,0.000000,0.000000,0.000000,0.000000,0.000000,0.000000,0.000000,0.000000,0.000000,0.000000,0.000000,0.000000,0.000000,0.000000,0.000000,0.000000,0.000000,0.000000,0.000000,1.000000,
1.000000,0.000455,0.101886,-0.004838,0.008398,0.002423,12.275242,7.200997,60.053535,-0.048743,0.082021,-0.000291,0.095412,12.275242,7.200997,0.000000,14.036243,-0.002338,1.000000,0.000000,0.000000,0.000000,0.000000,0.000000,0.000000,0.000000,0.000000,0.000000,0.000000,0.000000,0.000000,0.000000,0.000000,0.000000,0.000000,0.000000,0.000000,0.000000,0.000000,0.000000,0.000000,0.000000,0.000000,0.000000,0.000000,0.000000,0.000000,0.000000,0.000000,0.000000,0.000000,0.000000,0.000000,0.000000,0.000000,0.000000,0.000000,0.000000,0.000000,0.000000,1.000000,
1.500000,0.001622,0.101886,-0.004723,0.008201,0.002366,12.276321,7.199543,60.060762,-0.049583,0.083459,-0.000328,0.097077,12.276321,7.199543,0.000000,14.036243,-0.003505,1.000000,0.000000,0.000000,0.000000,0.000000,0.000000,0.000000,9.934529,7.614302,0.000000,0.022061,0.080229,-0.034580,0.027307,-0.034417,-0.067818,0.000000,0.000000,0.000000,0.000000,0.000000,0.000000,-0.000000,0.333333,0.333333,0.333333,0.018603,0.022912,0.005565,3.333333,0.000000,0.000000,0.000000,0.000000,0.000000,0.000000,0.000000,0.000000,0.000000,0.000000,0.000000,0.000000,1.000000,
2.000000,0.002759,0.101928,-0.004767,0.008281,0.002389,12.277547,7.197319,60.070936,0.042799,-0.072070,0.000167,0.083820,12.277547,7.197319,0.000000,14.036243,-0.004685,1.000000,0.000000,-0.040401,-0.017502,0.210767,0.088254,41.000000,9.744447,7.199007,-0.110677,0.022061,0.080229,-0.034580,0.027290,-0.034473,-0.067821,-2.533080,0.001623,-60.181345,-0.008053,0.210800,0.085994,0.037656,0.286185,0.299769,0.244712,0.018603,0.022912,0.005565,2.359979,-3.061160,-0.227393,0.000000,0.000000,0.000000,0.000000,0.000000,-0.000000,0.000000,0.000000,0.000000,0.000000,1.000000,
2.500000,0.003937,0.101929,-0.004782,0.008310,0.002397,12.278887,7.195028,60.081568,-0.063675,0.107270,-0.000401,0.124746,12.278887,7.195028,0.000000,14.036243,-0.005863,1.000000,0.000000,-0.162822,-0.123091,0.384568,0.211280,55.000000,9.754745,7.174901,-1.343662,0.022061,0.080229,-0.034580,0.028141,-0.036726,-0.068103,-2.524093,-0.020152,-61.425042,-0.104475,0.387348,0.208889,0.158899,0.310712,0.317627,0.210897,0.018161,0.022117,0.005552,0.261978,-5.602700,-1.772825,0.000000,0.000000,0.000000,0.000000,0.000000,-0.000000,0.000000,0.000000,0.000000,0.000000,1.000000,
3.000000,0.005116,0.101929,-0.004492,0.007809,0.002252,12.280215,7.192819,60.091895,0.284658,-0.479746,0.001595,0.557843,12.280215,7.192819,0.000000,14.036243,-0.007042,1.000000,0.000000,-0.272236,-0.210349,0.502734,0.226861,71.000000,9.705851,7.126774,-1.339414,0.022061,0.080229,-0.034580,0.028141,-0.036726,-0.068103,-2.574362,-0.066040,-61.431327,-0.188954,0.507513,0.224465,0.267135,0.434323,0.433316,0.229341,0.018161,0.022117,0.005552,0.313820,-7.337017,-3.053629,0.000000,0.000000,0.000000,0.000000,0.000000,-0.000000,0.000000,0.000000,0.000000,0.000000,1.000000,
3.500000,0.006294,0.101929,-0.004713,0.008197,0.002364,12.281461,7.190718,60.101679,0.042623,-0.071862,0.000186,0.083552,12.281461,7.190718,0.000000,14.036243,-0.008220,1.000000,0.000000,-0.137600,-0.172231,0.241463,0.091135,119.000000,9.643677,7.108822,3.649562,0.022061,0.080229,-0.034580,0.022887,-0.023861,-0.067390,-2.637724,-0.081922,-56.451900,-0.177567,0.230011,0.088714,0.131320,0.321249,0.341642,0.189258,0.016532,0.019039,0.005451,0.231001,-3.519506,-2.501896,0.000000,0.000000,0.000000,0.000000,0.000000,-0.000000,0.000000,0.000000,0.000000,0.000000,1.000000,
4.000000,0.007473,0.101929,-0.004539,0.007897,0.002277,12.282785,7.188408,60.112342,0.284492,-0.479861,0.001550,0.557857,12.282785,7.188408,0.000000,14.036243,-0.009398,1.000000,0.000000,-0.183111,-0.233257,0.291270,0.090709,169.000000,9.683954,7.148289,3.655717,0.022061,0.080229,-0.034580,0.022887,-0.023860,-0.067390,-2.598860,-0.040136,-56.456628,-0.242175,0.275804,0.088414,0.175654,0.388564,0.429569,0.212394,0.016532,0.019039,0.005451,0.301564,-4.258816,-3.401364,0.000000,0.000000,0.000000,0.000000,0.000000,-0.000000,0.000000,0.000000,0.000000,0.000000,1.000000,
4.500000,0.008651,0.101929,-0.004791,0.008340,0.002405,12.284101,7.185984,60.123384,-0.063397,0.106981,-0.000364,0.124355,12.284101,7.185984,0.000000,14.036243,-0.010576,1.000000,0.000000,-0.174097,-0.151653,0.139207,0.043380,217.000000,9.744949,7.195765,2.198129,0.022061,0.080229,-0.034580,0.018656,-0.017766,-0.067279,-2.539152,0.009720,-57.925048,-0.147773,0.133288,0.041103,0.165461,0.301014,0.328422,0.170682,0.014741,0.016209,0.005238,0.230477,-2.033311,-2.208172,0.000000,0.000000,0.000000,0.000000,0.000000,-0.000000,0.000000,0.000000,0.000000,0.000000,1.000000,
5.000000,0.009829,0.101928,-0.004612,0.008031,0.002315,12.285339,7.183824,60.133354,0.179095,-0.302342,0.000996,0.351407,12.285339,7.183824,0.000000,14.036243,-0.011754,1.000000,0.000000,-0.193439,-0.199908,0.168145,0.034406,267.000000,9.725157,7.175305,2.202087,0.022061,0.080229,-0.034580,0.018656,-0.017767,-0.067279,-2.560249,-0.008549,-57.931310,-0.196631,0.160340,0.032009,0.183625,0.356961,0.398896,0.195629,0.014741,0.016209,0.005238,0.300033,-2.451124,-2.912545,0.000000,0.000000,0.000000,0.000000,0.000000,-0.000000,0.000000,0.000000,0.000000,0.000000,1.000000,
5.500000,0.011006,0.101928,-0.004733,0.008246,0.002377,12.286589,7.181701,60.143228,0.042720,-0.072148,0.000202,0.083847,12.286589,7.181701,0.000000,14.036243,-0.012932,1.000000,0.000000,-0.123729,-0.160778,0.049010,-0.025215,315.000000,9.710696,7.160177,2.391872,0.022061,0.080229,-0.034580,0.016326,-0.013977,-0.067006,-2.575934,-0.021602,-57.751173,-0.153428,0.042258,-0.027529,0.112737,0.289118,0.312975,0.160124,0.012976,0.014185,0.004934,0.229142,-0.714907,-2.345820,0.000000,0.000000,0.000000,0.000000,0.000000,-0.000000,0.000000,0.000000,0.000000,0.000000,1.000000,
6.000000,0.012185,0.101928,-0.004828,0.008415,0.002426,12.287971,7.179383,60.154037,-0.062561,0.105702,-0.000423,0.122829,12.287971,7.179383,0.000000,14.036243,-0.014110,1.000000,0.000000,-0.107436,-0.197406,0.058694,-0.039552,365.000000,9.762280,7.201433,2.396734,0.022061,0.080229,-0.034580,0.016326,-0.013976,-0.067005,-2.525680,0.022007,-57.757135,-0.190005,0.050387,-0.041972,0.095266,0.341024,0.373666,0.185126,0.012976,0.014185,0.004934,0.295366,-0.848028,-2.878374,0.000000,0.000000,0.000000,0.000000,0.000000,-0.000000,0.000000,0.000000,0.000000,0.000000,1.000000,
6.500000,0.013364,0.101928,-0.004829,0.008419,0.002426,12.289264,7.177025,60.164806,-0.062917,0.106349,-0.000368,0.123567,12.289264,7.177025,0.000000,14.036243,-0.015290,1.000000,0.000000,-0.035500,-0.189216,-0.006914,-0.115256,413.000000,9.827754,7.244918,2.118507,0.022061,0.080229,-0.034580,0.015083,-0.012070,-0.066117,-2.461573,0.067784,-58.046053,-0.179629,-0.013904,-0.117557,0.022151,0.281767,0.301021,0.154389,0.011232,0.012631,0.004575,0.227225,0.105385,-2.763533,0.000000,0.000000,0.000000,0.000000,0.000000,-0.000000,0.000000,0.000000,0.000000,0.000000,1.000000,
7.000000,0.014543,0.101928,-0.004745,0.008277,0.002385,12.290619,7.174735,60.175464,0.042894,-0.072535,0.000218,0.084269,12.290619,7.174735,0.000000,14.036243,-0.016469,1.000000,0.000000,0.027743,-0.223315,-0.001530,-0.136685,463.000000,9.771912,7.192780,2.123625,0.022061,0.080229,-0.034580,0.015083,-0.012071,-0.066117,-2.518796,0.017984,-58.051815,-0.213560,-0.009804,-0.139071,-0.042271,0.329853,0.355640,0.178391,0.011232,0.012631,0.004575,0.291188,0.029217,-3.263164,0.000000,0.000000,0.000000,0.000000,0.000000,-0.000000,0.000000,0.000000,0.000000,0.000000,1.000000,
7.500000,0.015722,0.101929,-0.004821,0.008414,0.002424,12.291918,7.172497,60.185826,-0.025426,0.043015,-0.000188,0.049968,12.291918,7.172497,0.000000,14.036243,-0.017648,1.000000,0.000000,-0.015027,0.106830,-0.038825,-0.105648,511.000000,9.736898,7.161864,15.791740,0.022061,0.080229,-0.034580,0.007114,-0.013709,-0.067367,-2.555160,-0.010731,-44.394042,0.122650,-0.008287,-0.107970,-0.000680,0.270947,0.295901,0.149929,0.009678,0.011386,0.004205,0.225606,0.577982,1.572508,0.000000,0.000000,0.000000,0.000000,0.000000,-0.000000,0.000000,0.000000,0.000000,0.000000,1.000000,
8.000000,0.016900,0.101928,-0.004506,0.007867,0.002266,12.293298,7.170310,60.196185,0.247030,-0.418087,0.001376,0.485616,12.293298,7.170310,0.000000,14.036243,-0.018825,1.000000,0.000000,0.042693,0.115355,-0.030621,-0.124590,561.000000,9.794810,7.211157,15.795975,0.022061,0.080229,-0.034580,0.007114,-0.013708,-0.067367,-2.498534,0.040791,-44.400117,0.128639,0.001936,-0.126917,-0.059578,0.309897,0.354462,0.172492,0.009678,0.011386,0.004205,0.287705,0.455843,1.697137,0.000000,0.000000,0.000000,0.000000,0.000000,-0.000000,0.000000,0.000000,0.000000,0.000000,1.000000,
8.500000,0.018079,0.101928,-0.004551,0.007948,0.002290,12.294615,7.168133,60.206377,-0.065910,0.111595,-0.000207,0.129605,12.294615,7.168133,0.000000,14.036243,-0.020004,1.000000,0.000000,0.044400,0.000279,0.002526,-0.093059,609.000000,9.720131,7.142980,11.689528,0.022061,0.080229,-0.034580,0.009779,-0.013535,-0.067876,-2.574452,-0.025129,-48.516866,0.009242,0.002530,-0.095429,-0.062464,0.260951,0.293633,0.145547,0.008466,0.010083,0.003858,0.224039,-0.030167,0.011171,0.000000,0.000000,0.000000,0.000000,0.000000,-0.000000,0.000000,0.000000,0.000000,0.000000,1.000000,
9.000000,0.019257,0.101929,-0.004672,0.008164,0.002352,12.295866,7.165856,60.216782,-0.064346,0.108994,-0.000342,0.126571,12.295866,7.165856,0.000000,14.036243,-0.021183,1.000000,0.000000,0.094821,-0.004140,0.009654,-0.107939,659.000000,9.808139,7.216953,11.693425,0.022061,0.080229,-0.034580,0.009779,-0.013534,-0.067875,-2.487651,0.051059,-48.523066,0.003373,0.008614,-0.110285,-0.114064,0.297541,0.346487,0.166676,0.008466,0.010083,0.003858,0.284148,-0.129537,-0.050234,0.000000,0.000000,0.000000,0.000000,0.000000,-0.000000,0.000000,0.000000,0.000000,0.000000,1.000000,
9.500000,0.020437,0.101929,-0.004535,0.007927,0.002283,12.297136,7.163630,60.227042,0.246837,-0.418284,0.001349,0.485687,12.297136,7.163630,0.000000,14.036243,-0.022362,1.000000,0.000000,0.135974,-0.006185,0.004769,-0.019420,707.000000,9.767240,7.177992,8.325610,0.022061,0.080229,-0.034580,0.010622,-0.013252,-0.069287,-2.529857,0.014329,-51.901238,0.002301,0.003823,-0.021698,-0.156396,0.092908,0.129838,0.066094,0.006179,0.007951,0.003147,0.136827,-0.068873,-0.085294,0.000000,0.000000,0.000000,0.000000,0.000000,-0.000000,0.000000,0.000000,0.000000,0.000000,1.000000,
10.000000,0.021615,0.101929,-0.004768,0.008339,0.002401,12.298477,7.161250,60.237983,-0.063131,0.107027,-0.000362,0.124259,12.298477,7.161250,0.000000,14.036243,-0.023541,1.000000,0.000000,0.147759,-0.015300,0.011074,-0.027252,757.000000,9.788990,7.192430,8.330443,0.022061,0.080229,-0.034580,0.010621,-0.013252,-0.069287,-2.509492,0.031111,-51.907314,-0.007646,0.008740,-0.029526,-0.169360,0.134367,0.190183,0.091201,0.006179,0.007951,0.003147,0.149298,-0.157725,-0.216814,0.000000,0.000000,0.000000,0.000000,0.000000,-0.000000,0.000000,0.000000,0.000000,0.000000,1.000000,
10.500000,-0.591108,0.792906,-0.299001,0.663626,-1.427796,-4.424438,-4.036319,59.297022,0.695936,-0.764219,0.027431,1.033978,-4.424438,-4.036319,0.000000,14.036243,-0.101571,0.000000,1.000000,0.943840,-0.322271,0.614551,-1.514256,760.000000,-6.810354,-3.976151,8.234531,0.022061,0.080229,-0.034580,0.010555,-0.013191,-0.069539,-2.492911,0.013284,-51.059041,0.321958,0.481639,-0.085267,-0.361660,0.347145,0.178652,0.065353,0.005594,0.007340,0.002969,0.117734,-9.991656,-5.358176,0.149676,-0.244174,-0.001239,0.000000,0.000000,-1.500000,0.000000,0.000000,1.000000,0.000000,1.000000,
11.000000,-1.289374,1.546220,0.019006,0.231794,-1.365049,-3.560714,-2.317105,59.192435,0.399056,-0.615625,0.071439,0.737118,-3.560714,-2.317105,0.000000,14.036243,-0.156786,0.000000,1.000000,1.698435,-0.003514,0.174385,-1.504608,760.000000,-6.109021,-2.355306,8.059098,0.022061,0.080229,-0.034580,0.010555,-0.013191,-0.069539,-2.491244,0.006916,-51.136417,0.166330,0.037345,-0.138720,-0.417595,0.152165,0.226681,0.090897,0.005594,0.007340,0.002969,0.130284,-4.250634,-0.928993,0.225509,-0.439413,0.003452,0.000000,0.000000,-1.500000,0.000000,0.000000,1.000000,0.000000,0.000000,
11.500000,-2.018504,2.282852,0.190299,0.094848,-1.448034,-0.053644,-1.432094,59.213287,0.244017,-0.011226,0.091709,0.260923,-0.053644,-1.432094,0.000000,14.036243,-0.164353,0.000000,0.000000,2.556996,0.016162,0.015711,-1.504195,760.000000,-2.568757,-1.448663,23.928996,0.022061,0.080229,-0.034580,0.010496,-0.012788,-0.071180,-2.495829,0.007115,-35.284694,-0.006533,-0.189796,-0.055414,-0.547545,0.096393,0.161189,0.065421,0.004998,0.006107,0.002769,0.107144,-1.954338,-0.714239,0.251903,-0.471365,0.003320,0.000000,0.000000,-1.500000,0.000000,0.000000,1.000000,0.000000,0.000000,
12.000000,-2.728106,2.988509,0.268221,0.110089,-1.429463,0.181215,-0.569797,59.252068,0.093859,0.029982,2.460596,2.462568,0.181215,-0.569797,0.000000,14.036243,-0.160416,0.000000,0.000000,3.306247,0.061849,0.031204,-1.545442,768.000000,-2.229152,-0.270429,23.670130,0.022061,0.080229,-0.034580,0.010487,-0.012759,-0.071187,-2.424099,0.296604,-35.581650,0.001614,-0.232911,-0.102307,-0.587129,0.132374,0.224967,0.090386,0.004998,0.006107,0.002769,0.120816,-2.210012,0.062115,0.231036,-0.483269,0.002487,0.000000,0.000000,-1.500000,0.000000,0.000000,1.000000,0.000000,0.000000,
12.500000,-3.446046,3.695988,0.250350,-0.022776,-1.463745,-2.118193,0.669030,59.251796,-0.119004,-0.363403,2.413283,2.443391,-2.118193,0.669030,0.000000,14.036243,-0.149988,0.000000,0.000000,4.011739,0.104966,0.122764,-1.551129,768.000000,-4.547808,0.977134,38.579804,0.022061,0.080229,-0.034580,0.008671,-0.014634,-0.071797,-2.426181,0.294533,-20.671166,-0.140888,-0.043575,-0.073862,-0.574894,0.103117,0.129674,0.065151,0.004362,0.005581,0.002608,0.100790,-3.948310,0.955101,0.166745,-0.578134,-0.001210,0.000000,0.000000,-1.500000,0.000000,0.000000,1.000000,0.000000,0.000000,
13.000000,-4.148763,4.373845,0.219943,-0.142639,-1.420183,-0.567441,0.124724,59.296852,-0.025071,-0.095489,2.418510,2.420525,-0.567441,0.124724,0.000000,14.036243,-0.125155,0.000000,0.000000,4.762547,0.052902,0.009886,-1.550601,768.000000,-3.002110,0.440274,38.641473,0.022061,0.080229,-0.034580,0.008671,-0.014634,-0.071797,-2.429147,0.298279,-20.654893,-0.199509,-0.075971,-0.116929,-0.622713,0.161190,0.187728,0.089827,0.004362,0.005581,0.002608,0.115265,-2.368223,0.320870,0.128576,-0.607466,-0.001037,0.000000,0.000000,-1.500000,0.000000,0.000000,1.000000,0.000000,0.000000,
13.500000,-4.873323,5.071596,0.111876,-0.117508,-1.478651,0.779503,1.808662,59.330215,-0.312971,0.135992,2.511449,2.534526,0.779503,1.808662,0.000000,14.036243,-0.098323,0.000000,1.000000,5.501921,0.125980,-0.032600,-1.554466,768.000000,-1.642010,2.131944,52.606663,0.022061,0.080229,-0.034580,0.006494,-0.013285,-0.072902,-2.435728,0.298795,-6.723548,-0.057230,0.042959,-0.061703,-0.637895,0.094569,0.127814,0.064860,0.003941,0.005260,0.002465,0.096811,-1.625160,1.768860,0.034924,-0.582522,-0.002931,0.000000,0.000000,-1.500000,0.000000,0.000000,1.000000,0.000000,0.000000,
14.000000,-5.584452,5.768730,0.024392,-0.079268,-1.439512,0.238255,0.415394,59.348712,-0.072429,0.042580,2.486211,2.487630,0.238255,0.415394,0.000000,14.036243,-0.084304,0.000000,1.000000,6.253471,0.025067,0.010403,-1.552212,768.000000,-2.179790,0.743973,52.677501,0.022061,0.080229,-0.034580,0.006494,-0.013285,-0.072902,-2.435786,0.302930,-6.670975,-0.074235,0.045397,-0.098775,-0.678071,0.136065,0.185638,0.089119,0.003941,0.005260,0.002465,0.111767,-2.255578,0.384583,0.001088,-0.579457,-0.001358,0.000000,0.000000,-1.500000,0.000000,0.000000,1.000000,0.000000,0.000000,
14.500000,-6.301856,6.479211,0.031844,0.000356,-1.463097,1.306459,-0.221899,59.372709,0.037284,0.224972,2.450958,2.461544,1.306459,-0.221899,0.000000,14.036243,-0.077361,0.000000,0.000000,7.034538,0.010464,-0.043584,-1.553376,768.000000,-1.111758,0.096591,55.742632,0.022061,0.080229,-0.034580,0.006301,-0.011764,-0.073541,-2.438118,0.307422,-3.630035,0.024997,-0.042757,-0.076662,-0.741881,0.091371,0.126684,0.064661,0.003820,0.005036,0.002351,0.094261,-1.296950,0.172010,-0.003381,-0.539446,-0.001707,0.000000,0.000000,-1.500000,0.000000,0.000000,1.000000,0.000000,0.000000,
15.000000,-7.005469,7.184121,0.052721,0.063709,-1.426349,0.374458,-0.094643,59.402769,0.015180,0.064029,2.496562,2.497429,0.374458,-0.094643,0.000000,14.036243,-0.078643,0.000000,0.000000,7.785262,0.021662,0.017863,-1.550865,768.000000,-2.044187,0.224833,55.760506,0.022061,0.080229,-0.034580,0.006301,-0.011764,-0.073541,-2.439329,0.309757,-3.641987,0.025052,-0.049625,-0.110579,-0.788762,0.131787,0.181451,0.088669,0.003820,0.005036,0.002351,0.109530,-2.207420,0.370866,-0.012106,-0.536719,-0.000959,0.000000,0.000000,-1.500000,0.000000,0.000000,1.000000,0.000000,0.000000,
15.500000,-7.719360,7.900996,0.046941,0.046761,-1.425323,-0.296918,0.446968,59.421911,-0.077552,-0.051684,0.036959,0.100257,-0.296918,0.446968,0.000000,14.036243,-0.081632,0.000000,0.000000,8.501454,0.025521,0.038464,-1.509761,768.000000,-2.738360,0.752149,56.070850,0.022061,0.080229,-0.034580,0.006205,-0.012006,-0.073963,-2.440502,0.310794,-3.351040,-0.001263,-0.022153,-0.084091,-0.791004,0.090525,0.126393,0.064540,0.003748,0.004707,0.002254,0.092602,-2.623608,0.504111,-0.029669,-0.561654,-0.000120,0.000000,0.000000,-1.500000,0.000000,0.000000,1.000000,0.000000,0.000000,
16.000000,-8.422786,8.605885,0.035450,0.033165,-1.384602,-0.038714,0.296313,59.426439,-0.051191,-0.007104,-0.010835,0.052805,-0.038714,0.296313,0.000000,14.036243,-0.083096,0.000000,0.000000,9.255170,0.004003,0.021178,-1.500658,768.000000,-2.483067,0.593038,56.076090,0.022061,0.080229,-0.034580,0.006205,-0.012006,-0.073963,-2.444348,0.312257,-3.350333,-0.004924,-0.032522,-0.116009,-0.841039,0.128828,0.181007,0.088387,0.003748,0.004707,0.002254,0.108081,-2.415487,0.211813,-0.037125,-0.575555,0.003688,0.000000,0.000000,-1.500000,0.000000,0.000000,1.000000,0.000000,0.000000,
16.500000,-9.159020,9.343530,0.012578,0.027323,-1.468972,-0.079119,0.697089,59.429362,-0.119608,-0.013953,-0.016165,0.121499,-0.079119,0.697089,0.000000,14.036243,-0.084505,0.000000,0.000000,9.908054,0.025404,0.022658,-1.501424,768.000000,-2.525387,0.991521,56.632217,0.022061,0.080229,-0.034580,0.005908,-0.011781,-0.074756,-2.447289,0.313672,-2.797130,0.011895,0.008313,-0.032435,-0.758215,0.090457,0.126118,0.064424,0.003642,0.004473,0.002168,0.091513,-2.489214,0.612813,-0.058422,-0.589394,0.003302,0.000000,0.000000,-1.500000,0.000000,0.000000,1.000000,0.000000,0.000000,
17.000000,-9.886970,10.074110,-0.007163,0.024596,-1.438428,0.013982,0.300448,59.433444,-0.051495,0.002092,-0.025917,0.057687,0.013982,0.300448,0.000000,14.036243,-0.087133,0.000000,0.000000,10.659463,-0.003618,0.014738,-1.498768,768.000000,-2.435090,0.605221,56.646727,0.022061,0.080229,-0.034580,0.005908,-0.011781,-0.074756,-2.450333,0.315255,-2.786675,0.010343,-0.001523,-0.060401,-0.781483,0.128432,0.180279,0.088106,0.003642,0.004473,0.002168,0.107112,-2.403720,0.195951,-0.063186,-0.598297,0.004738,0.000000,0.000000,-1.500000,0.000000,0.000000,1.000000,0.000000,0.000000,
17.500000,-10.617871,10.808227,-0.001800,0.033177,-1.450852,0.134824,0.187610,59.438460,-0.031705,0.022759,-0.031211,0.049973,0.134824,0.187610,0.000000,14.036243,-0.090347,0.000000,0.000000,11.355017,-0.005316,0.008675,-1.498399,768.000000,-2.316510,0.478927,55.953700,0.022061,0.080229,-0.034580,0.005946,-0.011573,-0.075013,-2.453713,0.316200,-3.484680,0.019126,-0.014889,-0.047645,-0.746214,0.090020,0.126037,0.064321,0.003548,0.004287,0.002093,0.090794,-2.325406,0.162238,-0.061801,-0.601881,0.004641,0.000000,0.000000,-1.500000,0.000000,0.000000,1.000000,0.000000,0.000000,
18.000000,-11.337628,11.531796,0.008392,0.042306,-1.423205,0.080692,0.139738,59.442134,-0.023864,0.013354,-0.019779,0.033749,0.080692,0.139738,0.000000,14.036243,-0.094158,0.000000,0.000000,12.105527,-0.003905,0.011385,-1.497554,768.000000,-2.371976,0.439334,55.953002,0.022061,0.080229,-0.034580,0.005946,-0.011573,-0.075013,-2.455361,0.317373,-3.489061,0.020406,-0.025638,-0.074381,-0.776794,0.127464,0.180145,0.087862,0.003548,0.004287,0.002093,0.106459,-2.385121,0.175689,-0.060003,-0.606950,0.005160,0.000000,0.000000,-1.500000,0.000000,0.000000,1.000000,0.000000,0.000000,
18.500000,-12.073690,12.270947,0.019818,0.028902,-1.465747,-0.248659,0.169336,59.442606,-0.029141,-0.043120,-0.036077,0.063325,-0.248659,0.169336,0.000000,14.036243,-0.097252,0.000000,0.000000,12.768403,-0.002111,0.023463,-1.498830,768.000000,-2.704084,0.470668,56.584036,0.022061,0.080229,-0.034580,0.005941,-0.011722,-0.075400,-2.455767,0.318434,-2.858597,-0.005774,-0.020858,-0.033207,-0.703874,0.089839,0.126258,0.064238,0.003467,0.004096,0.002025,0.090317,-2.631555,0.200464,-0.059371,-0.623666,0.004319,0.000000,0.000000,-1.500000,0.000000,0.000000,1.000000,0.000000,0.000000,
19.000000,-12.801298,12.999181,0.029911,0.017855,-1.439615,-0.008904,0.172184,59.448082,-0.029727,-0.001798,-0.027126,0.040283,-0.008904,0.172184,0.000000,14.036243,-0.097882,0.000000,0.000000,13.519060,-0.000953,0.005776,-1.497607,768.000000,-2.469108,0.473579,56.583227,0.022061,0.080229,-0.034580,0.005941,-0.011722,-0.075400,-2.459844,0.319631,-2.864800,-0.005233,-0.032576,-0.058059,-0.726759,0.126932,0.180631,0.087665,0.003467,0.004096,0.002025,0.106017,-2.389885,0.217390,-0.059359,-0.630018,0.004988,0.000000,0.000000,-1.500000,0.000000,0.000000,1.000000,0.000000,0.000000,
19.500000,-13.532539,13.730159,0.035445,0.019026,-1.453059,0.029713,0.233291,59.452851,-0.040214,0.004875,-0.033341,0.052465,0.029713,0.233291,0.000000,14.036243,-0.097621,0.000000,0.000000,14.243971,-0.000368,0.005921,-1.498136,768.000000,-2.431957,0.533364,56.616273,0.022061,0.080229,-0.034580,0.005912,-0.011714,-0.075613,-2.463080,0.320977,-2.836541,-0.006905,-0.037390,-0.045191,-0.720514,0.089697,0.125920,0.064162,0.003384,0.003927,0.001964,0.089999,-2.405589,0.233117,-0.060941,-0.633982,0.004699,0.000000,0.000000,-1.500000,0.000000,0.000000,1.000000,0.000000,0.000000,
20.000000,-14.254179,14.451554,0.041265,0.023574,-1.428252,0.071327,0.175834,59.456604,-0.030388,0.011971,-0.038590,0.050556,0.071327,0.175834,0.000000,14.036243,-0.097375,0.000000,0.000000,14.994392,-0.003711,0.003692,-1.497142,768.000000,-2.392678,0.476022,56.616260,0.022061,0.080229,-0.034580,0.005912,-0.011714,-0.075613,-2.465673,0.322110,-2.840290,-0.005928,-0.048652,-0.069021,-0.749139,0.126571,0.179726,0.087482,0.003384,0.003927,0.001964,0.105712,-2.379734,0.180461,-0.060340,-0.636099,0.005130,0.000000,0.000000,-1.500000,0.000000,0.000000,1.000000,0.000000,0.000000,
20.500000,-14.995003,15.191802,0.042676,0.015243,-1.477072,-0.164338,0.333416,59.457700,-0.057764,-0.028430,-0.034307,0.072952,-0.164338,0.333416,0.000000,14.036243,-0.096801,0.000000,0.000000,15.730795,0.004562,0.013765,-1.499082,768.000000,-2.631133,0.643521,57.007343,0.022061,0.080229,-0.034580,0.005810,-0.011807,-0.075997,-2.467494,0.324075,-2.450358,-0.017640,-0.033559,-0.022128,-0.745023,0.089578,0.125916,0.064097,0.003312,0.003781,0.001908,0.089788,-2.572114,0.324822,-0.065445,-0.646733,0.004228,0.000000,0.000000,-1.500000,0.000000,0.000000,1.000000,0.000000,0.000000,
21.000000,-15.728940,15.924120,0.043352,0.009205,-1.453561,0.021916,0.196985,59.462694,-0.034246,0.003633,-0.046310,0.057711,0.021916,0.196985,0.000000,14.036243,-0.095184,0.000000,0.000000,16.481465,-0.003882,0.000653,-1.497356,768.000000,-2.449184,0.505948,57.012036,0.022061,0.080229,-0.034580,0.005810,-0.011807,-0.075997,-2.471252,0.325402,-2.450607,-0.016870,-0.045058,-0.043968,-0.761609,0.126248,0.179703,0.087328,0.003312,0.003781,0.001908,0.105500,-2.385966,0.199219,-0.065908,-0.649562,0.004915,0.000000,0.000000,-1.500000,0.000000,0.000000,1.000000,0.000000,0.000000,
21.500000,-16.467530,16.660341,0.041359,-0.003068,-1.469385,-0.197669,0.361641,59.464700,-0.062427,-0.033917,-0.040884,0.081970,-0.197669,0.361641,0.000000,14.036243,-0.092819,0.000000,0.000000,17.214994,0.005684,0.011887,-1.498253,768.000000,-2.670879,0.669044,57.022206,0.022061,0.080229,-0.034580,0.005745,-0.011943,-0.076181,-2.473059,0.326004,-2.442490,-0.030522,-0.023228,-0.029012,-0.756648,0.089491,0.125845,0.064039,0.003242,0.003654,0.001857,0.089646,-2.593856,0.366437,-0.072231,-0.659942,0.004513,0.000000,0.000000,-1.500000,0.000000,0.000000,1.000000,0.000000,0.000000,
22.000000,-17.198012,17.387345,0.039230,-0.010205,-1.447413,0.021425,0.212072,59.469890,-0.036770,0.003820,-0.044453,0.057815,0.021425,0.212072,0.000000,14.036243,-0.089342,0.000000,0.000000,17.965450,-0.005444,-0.002241,-1.497293,768.000000,-2.455573,0.522841,57.027680,0.022061,0.080229,-0.034580,0.005745,-0.011943,-0.076181,-2.477000,0.327385,-2.442140,-0.029919,-0.034547,-0.050045,-0.776484,0.126007,0.179493,0.087189,0.003242,0.003654,0.001857,0.105349,-2.387121,0.200571,-0.072421,-0.661456,0.004978,0.000000,0.000000,-1.500000,0.000000,0.000000,1.000000,0.000000,0.000000,
22.500000,-17.942568,18.128658,0.019927,-0.007183,-1.484376,0.039751,0.698140,59.474444,-0.119917,0.006971,-0.037030,0.125698,0.039751,0.698140,0.000000,14.036243,-0.086096,0.000000,0.000000,18.665472,0.018150,-0.000390,-1.498687,768.000000,-2.438871,1.007056,57.340576,0.022061,0.080229,-0.034580,0.005554,-0.011882,-0.076458,-2.479930,0.327927,-2.133834,-0.006584,0.000976,-0.014422,-0.732181,0.089453,0.125601,0.063986,0.003176,0.003542,0.001810,0.089551,-2.415932,0.620439,-0.089477,-0.662039,0.004306,0.000000,0.000000,-1.500000,0.000000,0.000000,1.000000,0.000000,0.000000,
23.000000,-18.680752,18.865727,0.002196,-0.001638,-1.463807,0.081995,0.283861,59.478478,-0.048637,0.014161,-0.045674,0.068207,0.081995,0.283861,0.000000,14.036243,-0.084976,0.000000,0.000000,19.415992,-0.008389,-0.002255,-1.497708,768.000000,-2.398633,0.598523,57.356159,0.022061,0.080229,-0.034580,0.005554,-0.011882,-0.076458,-2.482327,0.329503,-2.122232,-0.005377,-0.009529,-0.034104,-0.744388,0.125898,0.178900,0.087061,0.003176,0.003542,0.001810,0.105240,-2.384292,0.227743,-0.091112,-0.661094,0.004836,0.000000,0.000000,-1.500000,0.000000,0.000000,1.000000,0.000000,0.000000,
23.500000,-19.425745,19.610639,0.003759,0.006071,-1.483479,0.088196,0.292448,59.482784,-0.049914,0.015119,-0.045032,0.068905,0.088196,0.292448,0.000000,14.036243,-0.084894,0.000000,0.000000,20.124516,-0.004433,-0.001660,-1.498271,768.000000,-2.394843,0.602113,57.337669,0.022061,0.080229,-0.034580,0.005523,-0.011838,-0.076636,-2.484887,0.330950,-2.145057,0.002111,-0.011110,-0.014964,-0.708042,0.089288,0.125583,0.063938,0.003116,0.003451,0.001767,0.089486,-2.389541,0.284767,-0.090947,-0.660189,0.004514,0.000000,0.000000,-1.500000,0.000000,0.000000,1.000000,0.000000,0.000000,
24.000000,-20.163757,20.349341,0.005956,0.013882,-1.463861,0.095345,0.195692,59.486132,-0.033492,0.016241,-0.050088,0.062404,0.095345,0.195692,0.000000,14.036243,-0.085581,0.000000,0.000000,20.874906,-0.010372,-0.001811,-1.497394,768.000000,-2.389758,0.511448,57.338715,0.022061,0.080229,-0.034580,0.005523,-0.011838,-0.076636,-2.487092,0.332196,-2.147329,0.004678,-0.021981,-0.033750,-0.720297,0.125499,0.178865,0.086948,0.003116,0.003451,0.001767,0.105159,-2.383472,0.183780,-0.087672,-0.659156,0.004912,0.000000,0.000000,-1.500000,0.000000,0.000000,1.000000,0.000000,0.000000,
24.500000,-20.910548,21.097133,0.006938,0.013985,-1.487776,-0.035131,0.318118,59.489889,-0.054520,-0.006201,-0.039388,0.067545,-0.035131,0.318118,0.000000,14.036243,-0.086582,0.000000,0.000000,21.536585,-0.001712,0.004017,-1.498060,768.000000,-2.522513,0.633670,57.382174,0.022061,0.080229,-0.034580,0.005479,-0.011868,-0.076809,-2.488607,0.332536,-2.107658,0.004096,-0.012630,-0.010425,-0.635335,0.089209,0.125588,0.063896,0.003061,0.003354,0.001726,0.089443,-2.486611,0.320086,-0.089447,-0.663111,0.004447,0.000000,0.000000,-1.500000,0.000000,0.000000,1.000000,0.000000,0.000000,
25.000000,-21.651079,21.838571,0.009909,0.015519,-1.468824,0.069484,0.238906,59.494616,-0.040607,0.011730,-0.039867,0.058103,0.069484,0.238906,0.000000,14.036243,-0.087489,0.000000,0.000000,22.287002,-0.006864,-0.002833,-1.497030,768.000000,-2.421682,0.545598,57.384553,0.022061,0.080229,-0.034580,0.005479,-0.011868,-0.076809,-2.491904,0.333828,-2.110021,0.006881,-0.023821,-0.028333,-0.645102,0.125284,0.178867,0.086847,0.003061,0.003354,0.001726,0.105099,-2.383006,0.235244,-0.087627,-0.662901,0.004874,0.000000,0.000000,-1.500000,0.000000,0.000000,1.000000,0.000000,0.000000,
25.500000,-22.408431,22.597160,-0.008680,0.010727,-1.513983,-0.118444,0.598253,59.497199,-0.102455,-0.020492,-0.057472,0.119248,-0.118444,0.598253,0.000000,14.036243,-0.088725,0.000000,0.000000,23.048169,0.009482,0.007225,-1.498793,768.000000,-2.611100,0.916796,57.709330,0.022061,0.080229,-0.034580,0.005339,-0.011913,-0.077079,-2.493211,0.334512,-1.787846,0.012406,0.013321,0.014949,-0.649199,0.087557,0.122948,0.062811,0.003007,0.003263,0.001688,0.089351,-2.558390,0.525556,-0.098881,-0.669263,0.004072,0.000000,0.000000,-1.500000,0.000000,0.000000,1.000000,0.000000,0.000000,
26.000000,-23.162189,23.352743,-0.020171,0.007946,-1.495990,0.052588,0.272990,59.502027,-0.046390,0.008924,-0.049082,0.068123,0.052588,0.272990,0.000000,14.036243,-0.090549,0.000000,0.000000,23.798795,-0.010135,-0.004267,-1.497432,768.000000,-2.443833,0.592528,57.722116,0.022061,0.080229,-0.034580,0.005339,-0.011913,-0.077079,-2.496790,0.336013,-1.779871,0.015102,0.002311,-0.001652,-0.645955,0.124059,0.176786,0.085955,0.003007,0.003263,0.001688,0.104501,-2.385909,0.227865,-0.098280,-0.669273,0.004711,0.000000,0.000000,-1.500000,0.000000,0.000000,1.000000,0.000000,0.000000,
26.500000,-23.915153,24.108043,-0.019783,0.014390,-1.498199,0.086668,0.276057,59.506471,-0.046738,0.014727,-0.048412,0.068884,0.086668,0.276057,0.000000,14.036243,-0.092883,0.000000,0.000000,24.562330,-0.004994,-0.003209,-1.497438,768.000000,-2.411477,0.591526,57.710732,0.022061,0.080229,-0.034580,0.005301,-0.011911,-0.077161,-2.499774,0.337253,-1.795677,0.022282,0.003666,0.000556,-0.656540,0.087386,0.122900,0.062761,0.002955,0.003190,0.001653,0.089261,-2.395452,0.300439,-0.097618,-0.667863,0.004685,0.000000,0.000000,-1.500000,0.000000,0.000000,1.000000,0.000000,0.000000,
27.000000,-24.661438,24.857392,-0.015962,0.022909,-1.481753,0.109964,0.191281,59.509854,-0.032398,0.018617,-0.050021,0.062437,0.109964,0.191281,0.000000,14.036243,-0.095946,0.000000,0.000000,25.312572,-0.008755,-0.003639,-1.497188,768.000000,-2.390287,0.512780,57.711335,0.022061,0.080229,-0.034580,0.005301,-0.011911,-0.077161,-2.502174,0.338499,-1.798437,0.026048,-0.007289,-0.015654,-0.660394,0.123714,0.176657,0.085858,0.002955,0.003190,0.001653,0.104364,-2.381535,0.232164,-0.094506,-0.665928,0.004930,0.000000,0.000000,-1.500000,0.000000,0.000000,1.000000,0.000000,0.000000,
27.500000,-25.405435,25.604589,-0.006891,0.021533,-1.480371,-0.074525,0.185158,59.512603,-0.031286,-0.013087,-0.039182,0.051820,-0.074525,0.185158,0.000000,14.036243,-0.099146,0.000000,0.000000,26.012434,-0.007359,0.005288,-1.497445,768.000000,-2.577230,0.501909,57.751204,0.022061,0.080229,-0.034580,0.005302,-0.011998,-0.077209,-2.503624,0.339504,-1.761410,0.013657,-0.008535,-0.017217,-0.616250,0.087352,0.122957,0.062730,0.002908,0.003113,0.001620,0.089197,-2.534243,0.239575,-0.091096,-0.670685,0.004740,0.000000,0.000000,-1.500000,0.000000,0.000000,1.000000,0.000000,0.000000,
28.000000,-26.142826,26.344240,0.000910,0.021132,-1.463907,0.067483,0.180005,59.517298,-0.030689,0.011308,-0.063769,0.071667,0.067483,0.180005,0.000000,14.036243,-0.101409,0.000000,0.000000,26.762616,-0.007127,-0.004257,-1.496842,768.000000,-2.439063,0.503153,57.749553,0.022061,0.080229,-0.034580,0.005302,-0.011998,-0.077209,-2.507288,0.340620,-1.767679,0.017406,-0.019894,-0.033235,-0.628939,0.123593,0.176795,0.085783,0.002908,0.003113,0.001620,0.104288,-2.389767,0.232622,-0.088208,-0.670320,0.004929,0.000000,0.000000,-1.500000,0.000000,0.000000,1.000000,0.000000,0.000000,
28.500000,-26.888202,27.091769,0.001721,0.022287,-1.486899,-0.011344,0.308887,59.520919,-0.052844,-0.002247,-0.059173,0.079366,-0.011344,0.308887,0.000000,14.036243,-0.103562,0.000000,0.000000,27.494164,-0.001401,0.001537,-1.497822,768.000000,-2.520632,0.632244,57.598938,0.022061,0.080229,-0.034580,0.005269,-0.012044,-0.077353,-2.510236,0.340887,-1.921926,0.016148,-0.013400,-0.011163,-0.615254,0.087285,0.122870,0.062702,0.002862,0.003038,0.001589,0.089153,-2.484781,0.325546,-0.089825,-0.672592,0.004430,0.000000,0.000000,-1.500000,0.000000,0.000000,1.000000,0.000000,0.000000,
29.000000,-27.628989,27.834787,0.004805,0.025624,-1.471035,0.088221,0.206048,59.525524,-0.035057,0.014817,-0.049426,0.062382,0.088221,0.206048,0.000000,14.036243,-0.105792,0.000000,0.000000,28.244529,-0.006144,-0.004496,-1.497236,768.000000,-2.424176,0.526037,57.602018,0.022061,0.080229,-0.034580,0.005269,-0.012044,-0.077353,-2.513518,0.342130,-1.923428,0.019991,-0.024813,-0.026413,-0.624733,0.123424,0.176547,0.085713,0.002862,0.003038,0.001589,0.104234,-2.389615,0.247633,-0.088284,-0.671368,0.004801,0.000000,0.000000,-1.500000,0.000000,0.000000,1.000000,0.000000,0.000000,
29.500000,-28.373476,28.581456,0.008218,0.020592,-1.483949,-0.126530,0.228867,59.527977,-0.039210,-0.022021,-0.057023,0.072622,-0.126530,0.228867,0.000000,14.036243,-0.107977,0.000000,0.000000,29.001933,-0.004305,0.006757,-1.497918,768.000000,-2.640803,0.555098,57.726074,0.022061,0.080229,-0.034580,0.005254,-0.012138,-0.077456,-2.514807,0.343111,-1.801895,0.005581,-0.017804,-0.014222,-0.637731,0.087242,0.122892,0.062676,0.002818,0.002971,0.001559,0.089123,-2.582841,0.273069,-0.087600,-0.677666,0.004467,0.000000,0.000000,-1.500000,0.000000,0.000000,1.000000,0.000000,0.000000,
30.000000,-29.112804,29.321868,0.015041,0.017776,-1.468418,0.060078,0.225562,59.532984,-0.038377,0.010055,-0.049116,0.063137,0.060078,0.225562,0.000000,14.036243,-0.109061,0.000000,0.000000,29.752272,-0.005245,-0.005588,-1.497306,768.000000,-2.458752,0.542369,57.725585,0.022061,0.080229,-0.034580,0.005254,-0.012138,-0.077456,-2.518759,0.344279,-1.807357,0.009493,-0.029488,-0.029098,-0.648644,0.123306,0.176621,0.085650,0.002818,0.002971,0.001559,0.104195,-2.395765,0.251861,-0.085802,-0.677181,0.004811,0.000000,0.000000,-1.500000,0.000000,0.000000,1.000000,0.000000,0.000000,
30.500000,-29.857560,30.067719,0.007384,0.018051,-1.485278,-0.023221,0.437948,59.536213,-0.075015,-0.004229,-0.059780,0.096015,-0.023221,0.437948,0.000000,14.036243,-0.110156,0.000000,0.000000,30.575047,0.002801,0.000948,-1.498011,768.000000,-2.542905,0.764074,57.893563,0.022061,0.080229,-0.034580,0.005183,-0.012179,-0.077579,-2.520517,0.345786,-1.642624,0.012310,-0.013009,-0.012987,-0.726769,0.087217,0.122777,0.062651,0.002776,0.002907,0.001532,0.089103,-2.501432,0.395516,-0.091244,-0.679354,0.004448,0.000000,0.000000,-1.500000,0.000000,0.000000,1.000000,0.000000,0.000000,
31.000000,-30.597686,30.809530,0.002463,0.021012,-1.470250,0.089946,0.223867,59.540328,-0.038301,0.015171,-0.058133,0.071250,0.089946,0.223867,0.000000,14.036243,-0.111839,0.000000,0.000000,31.325396,-0.010138,-0.005703,-1.497188,768.000000,-2.433031,0.555415,57.900679,0.022061,0.080229,-0.034580,0.005183,-0.012179,-0.077579,-2.523807,0.347263,-1.639551,0.016117,-0.024520,-0.027191,-0.736898,0.123224,0.176286,0.085589,0.002776,0.002907,0.001532,0.104163,-2.394982,0.194359,-0.089446,-0.677637,0.004806,0.000000,0.000000,-1.500000,0.000000,0.000000,1.000000,0.000000,0.000000,
31.500000,-31.339954,31.553875,0.003129,0.020789,-1.479322,-0.044468,0.266968,59.543694,-0.045635,-0.007913,-0.056010,0.072680,-0.044468,0.266968,0.000000,14.036243,-0.113916,0.000000,0.000000,32.034441,-0.002202,0.002297,-1.497781,768.000000,-2.569231,0.597052,57.881507,0.022061,0.080229,-0.034580,0.005141,-0.012237,-0.077652,-2.525698,0.348309,-1.662149,0.013136,-0.014108,-0.018717,-0.703732,0.087167,0.122777,0.062629,0.002737,0.002853,0.001505,0.089089,-2.526768,0.314007,-0.090161,-0.680709,0.004556,0.000000,0.000000,-1.500000,0.000000,0.000000,1.000000,0.000000,0.000000,
32.000000,-32.077236,32.292946,0.008070,0.022509,-1.464719,0.084281,0.238002,59.548169,-0.040626,0.014175,-0.049958,0.065933,0.084281,0.238002,0.000000,14.036243,-0.115706,0.000000,0.000000,32.784711,-0.004930,-0.005799,-1.497070,768.000000,-2.444178,0.566412,57.881106,0.022061,0.080229,-0.034580,0.005141,-0.012237,-0.077652,-2.529246,0.349563,-1.667007,0.017428,-0.025741,-0.032567,-0.716629,0.123104,0.176307,0.085533,0.002737,0.002853,0.001505,0.104138,-2.399685,0.268416,-0.088869,-0.679251,0.004833,0.000000,0.000000,-1.500000,0.000000,0.000000,1.000000,0.000000,0.000000,
32.500000,-32.824127,33.042046,0.008110,0.030263,-1.491619,0.091824,0.266849,59.552037,-0.045643,0.015383,-0.044972,0.065897,0.091824,0.266849,0.000000,14.036243,-0.117912,0.000000,0.000000,33.490889,-0.005005,-0.003859,-1.498340,768.000000,-2.438232,0.597562,57.921951,0.022061,0.080229,-0.034580,0.005125,-0.012235,-0.077779,-2.531731,0.350247,-1.630029,0.022384,-0.028764,-0.006912,-0.676083,0.087137,0.122712,0.062607,0.002699,0.002798,0.001480,0.089079,-2.421791,0.267804,-0.088752,-0.677584,0.004338,0.000000,0.000000,-1.500000,0.000000,0.000000,1.000000,0.000000,0.000000,
33.000000,-33.567560,33.788463,0.013290,0.039353,-1.477472,0.122260,0.170279,59.555497,-0.029201,0.020489,-0.057073,0.067304,0.122260,0.170279,0.000000,14.036243,-0.120895,0.000000,0.000000,34.241295,-0.007684,-0.004844,-1.497465,768.000000,-2.410052,0.504360,57.923354,0.022061,0.080229,-0.034580,0.005125,-0.012235,-0.077779,-2.534143,0.351491,-1.632054,0.027026,-0.040532,-0.020255,-0.682968,0.123039,0.176121,0.085481,0.002699,0.002798,0.001480,0.104118,-2.397935,0.216000,-0.085936,-0.675167,0.004753,0.000000,0.000000,-1.500000,0.000000,0.000000,1.000000,0.000000,0.000000,
33.500000,-34.315706,34.539881,-0.003189,0.028181,-1.492583,-0.244322,0.637818,59.556529,-0.109336,-0.042387,-0.055972,0.129938,-0.244322,0.637818,0.000000,14.036243,-0.124167,0.000000,0.000000,34.995331,0.014697,0.012357,-1.497951,768.000000,-2.779867,0.973960,58.074604,0.022061,0.080229,-0.034580,0.005007,-0.012354,-0.077871,-2.535459,0.351685,-1.481928,0.023095,0.006780,-0.005604,-0.688952,0.087227,0.122728,0.062588,0.002663,0.002745,0.001457,0.089072,-2.698212,0.605267,-0.099517,-0.685879,0.004373,0.000000,0.000000,-1.500000,0.000000,0.000000,1.000000,0.000000,0.000000,
34.000000,-35.059901,35.287147,-0.019267,0.019209,-1.479071,0.036779,0.326160,59.562603,-0.055509,0.006008,-0.061451,0.083028,0.036779,0.326160,0.000000,14.036243,-0.127238,0.000000,0.000000,35.745700,-0.009333,-0.007067,-1.497228,768.000000,-2.503274,0.662108,58.088294,0.022061,0.080229,-0.034580,0.005007,-0.012354,-0.077871,-2.539341,0.353236,-1.474259,0.027203,-0.005025,-0.018448,-0.695042,0.123294,0.176141,0.085435,0.002663,0.002745,0.001457,0.104101,-2.407645,0.249038,-0.100515,-0.686091,0.004749,0.000000,0.000000,-1.500000,0.000000,0.000000,1.000000,0.000000,0.000000,
34.500000,-35.798215,36.027209,0.002555,-0.009138,-1.469601,-0.488706,-0.118425,59.564211,0.020615,-0.083891,-0.055675,0.102773,-0.488706,-0.118425,0.000000,14.036243,-0.128998,0.000000,0.000000,36.489032,-0.022831,0.020144,-1.497660,768.000000,-3.031414,0.219046,57.559932,0.022061,0.080229,-0.034580,0.005063,-0.012566,-0.077877,-2.540501,0.356983,-2.004414,-0.037862,-0.006151,-0.028307,-0.700001,0.087073,0.123206,0.062571,0.002627,0.002704,0.001434,0.089067,-2.885199,-0.012749,-0.086064,-0.704096,0.004688,0.000000,0.000000,-1.500000,0.000000,0.000000,1.000000,0.000000,0.000000,
35.000000,-36.530826,36.756118,0.028665,-0.030325,-1.456286,-0.016954,0.092449,59.569613,-0.015784,-0.002576,-0.060626,0.062700,-0.016954,0.092449,0.000000,14.036243,-0.125305,0.000000,0.000000,37.239172,-0.004210,-0.011333,-1.497182,768.000000,-2.564140,0.425234,57.549898,0.022061,0.080229,-0.034580,0.005063,-0.012566,-0.077877,-2.544557,0.357849,-2.019681,-0.033342,-0.019019,-0.041174,-0.717447,0.122874,0.177430,0.085392,0.002627,0.002704,0.001434,0.104087,-2.414071,0.245351,-0.080719,-0.704541,0.004833,0.000000,0.000000,-1.500000,0.000000,0.000000,1.000000,0.000000,0.000000,
35.500000,-37.283566,37.504076,0.022502,-0.019807,-1.506853,0.180875,0.447127,59.574517,-0.076963,0.031417,-0.053419,0.098813,0.180875,0.447127,0.000000,14.036243,-0.120519,0.000000,0.000000,37.982566,0.006115,-0.013027,-1.498654,768.000000,-2.367939,0.788662,57.694428,0.022061,0.080229,-0.034580,0.005001,-0.012536,-0.078067,-2.550530,0.357093,-1.880007,-0.014602,-0.011450,0.007972,-0.708417,0.087048,0.122627,0.062552,0.002592,0.002648,0.001412,0.089063,-2.357693,0.433089,-0.088122,-0.697330,0.004014,0.000000,0.000000,-1.500000,0.000000,0.000000,1.000000,0.000000,0.000000,
36.000000,-38.034953,38.252868,0.017666,-0.004990,-1.493762,0.151178,0.223194,59.578175,-0.038399,0.026125,-0.078785,0.091455,0.151178,0.223194,0.000000,14.036243,-0.117920,0.000000,0.000000,38.733124,-0.006891,-0.008270,-1.497398,768.000000,-2.398554,0.565645,57.701985,0.022061,0.080229,-0.034580,0.005001,-0.012536,-0.078067,-2.552295,0.358491,-1.876079,-0.010198,-0.023038,-0.004019,-0.707506,0.122776,0.175860,0.085344,0.002592,0.002648,0.001412,0.104072,-2.408503,0.236256,-0.087907,-0.691960,0.004585,0.000000,0.000000,-1.500000,0.000000,0.000000,1.000000,0.000000,0.000000,
36.500000,-38.789777,39.006280,0.006157,-0.006600,-1.505590,-0.102511,0.500816,59.580661,-0.085901,-0.017492,-0.048850,0.100356,-0.102511,0.500816,0.000000,14.036243,-0.116506,0.000000,0.000000,39.438564,0.006412,0.003681,-1.497914,768.000000,-2.654947,0.843623,57.712512,0.022061,0.080229,-0.034580,0.004915,-0.012594,-0.078132,-2.553187,0.359747,-1.868159,-0.008657,0.004935,0.007469,-0.658196,0.087060,0.122621,0.062536,0.002560,0.002606,0.001392,0.089061,-2.605804,0.467501,-0.095985,-0.696321,0.004443,0.000000,0.000000,-1.500000,0.000000,0.000000,1.000000,0.000000,0.000000,
37.000000,-39.540742,39.756103,0.001050,-0.007809,-1.493197,0.071608,0.269723,59.585484,-0.046044,0.012424,-0.061082,0.077495,0.071608,0.269723,0.000000,14.036243,-0.115364,0.000000,0.000000,40.188857,-0.006677,-0.008060,-1.497049,768.000000,-2.484877,0.611601,57.721425,0.022061,0.080229,-0.034580,0.004915,-0.012594,-0.078132,-2.556943,0.361105,-1.864001,-0.004206,-0.007064,-0.004141,-0.657446,0.122777,0.175880,0.085305,0.002560,0.002606,0.001392,0.104061,-2.422961,0.268905,-0.095732,-0.694487,0.004744,0.000000,0.000000,-1.500000,0.000000,0.000000,1.000000,0.000000,0.000000,
37.500000,-40.285553,40.500206,0.000984,-0.002235,-1.481625,0.064359,0.268883,59.589727,-0.045893,0.011126,-0.065663,0.080880,0.064359,0.268883,0.000000,14.036243,-0.114654,0.000000,0.000000,40.965599,-0.006389,-0.004779,-1.496730,768.000000,-2.493368,0.612577,57.686509,0.022061,0.080229,-0.034580,0.004891,-0.012618,-0.078137,-2.559021,0.363047,-1.903160,-0.001987,-0.007835,-0.015402,-0.689305,0.087000,0.122601,0.062520,0.002529,0.002569,0.001372,0.089058,-2.464933,0.269848,-0.094845,-0.692801,0.004799,0.000000,0.000000,-1.500000,0.000000,0.000000,1.000000,0.000000,0.000000,
38.000000,-41.024893,41.239399,0.006697,0.006117,-1.470180,0.123652,0.172539,59.593366,-0.029596,0.021203,-0.063804,0.073461,0.123652,0.172539,0.000000,14.036243,-0.114506,0.000000,0.000000,41.715690,-0.008468,-0.007090,-1.496808,768.000000,-2.436505,0.522446,57.688088,0.022061,0.080229,-0.034580,0.004891,-0.012618,-0.078137,-2.561832,0.364223,-1.905212,0.003149,-0.019884,-0.026939,-0.699985,0.122667,0.175809,0.085266,0.002529,0.002569,0.001372,0.104050,-2.417496,0.225109,-0.091480,-0.689475,0.004890,0.000000,0.000000,-1.500000,0.000000,0.000000,1.000000,0.000000,0.000000,
38.500000,-41.766481,41.981481,0.008469,0.015333,-1.478447,0.097292,0.314949,59.597350,-0.054010,0.016543,-0.062401,0.084171,0.097292,0.314949,0.000000,14.036243,-0.114998,0.000000,0.000000,42.467193,-0.000254,-0.004336,-1.497339,768.000000,-2.465648,0.661553,57.745059,0.022061,0.080229,-0.034580,0.004882,-0.012632,-0.078192,-2.564649,0.363137,-1.852226,0.012220,-0.017796,-0.019178,-0.709951,0.086987,0.122577,0.062505,0.002499,0.002528,0.001353,0.089056,-2.451233,0.356035,-0.093461,-0.687475,0.004608,0.000000,0.000000,-1.500000,0.000000,0.000000,1.000000,0.000000,0.000000,
39.000000,-42.504076,42.720555,0.011179,0.025020,-1.466436,0.128980,0.208969,59.601259,-0.035615,0.021846,-0.071287,0.082629,0.128980,0.208969,0.000000,14.036243,-0.116475,0.000000,0.000000,43.217388,-0.005375,-0.005613,-1.496699,768.000000,-2.436496,0.550075,57.747906,0.022061,0.080229,-0.034580,0.004882,-0.012632,-0.078192,-2.567157,0.364233,-1.853263,0.017600,-0.029898,-0.030593,-0.722477,0.122616,0.175735,0.085230,0.002499,0.002528,0.001353,0.104040,-2.421741,0.273580,-0.092284,-0.684728,0.004810,0.000000,0.000000,-1.500000,0.000000,0.000000,1.000000,0.000000,0.000000,
39.500000,-43.243972,43.462463,0.007675,0.022579,-1.475496,-0.098840,0.359709,59.603764,-0.061655,-0.017297,-0.054747,0.084248,-0.098840,0.359709,0.000000,14.036243,-0.118486,0.000000,0.000000,43.960963,0.000263,0.005536,-1.497547,768.000000,-2.666477,0.708365,57.810800,0.022061,0.080229,-0.034580,0.004833,-0.012695,-0.078246,-2.568014,0.366282,-1.792972,0.010966,-0.015224,-0.022280,-0.726212,0.086963,0.122596,0.062492,0.002471,0.002490,0.001335,0.089055,-2.611089,0.372240,-0.095526,-0.690293,0.004539,0.000000,0.000000,-1.500000,0.000000,0.000000,1.000000,0.000000,0.000000,
40.000000,-43.980146,44.200292,0.009535,0.021881,-1.463826,0.082782,0.213765,59.608842,-0.036455,0.013904,-0.069210,0.079450,0.082782,0.213765,0.000000,14.036243,-0.120142,0.000000,0.000000,44.711213,-0.005832,-0.006496,-1.496912,768.000000,-2.488954,0.559436,57.816386,0.022061,0.080229,-0.034580,0.004833,-0.012695,-0.078246,-2.571871,0.367654,-1.792390,0.016285,-0.027786,-0.033414,-0.740214,0.122536,0.175797,0.085197,0.002471,0.002490,0.001335,0.104031,-2.426852,0.274758,-0.094369,-0.689289,0.004796,0.000000,0.000000,-1.500000,0.000000,0.000000,1.000000,0.000000,0.000000,
40.500000,-44.722803,44.944654,-0.005661,0.011944,-1.482987,-0.204648,0.531981,59.610561,-0.091110,-0.035337,-0.053890,0.111596,-0.204648,0.531981,0.000000,14.036243,-0.121847,0.000000,0.000000,45.440301,0.008654,0.009027,-1.498172,768.000000,-2.778203,0.884177,58.109435,0.022061,0.080229,-0.034580,0.004761,-0.012788,-0.078323,-2.573365,0.368002,-1.501125,0.009995,0.010381,-0.015422,-0.726766,0.087053,0.122584,0.062479,0.002443,0.002455,0.001318,0.089054,-2.693747,0.531973,-0.104371,-0.698148,0.004315,0.000000,0.000000,-1.500000,0.000000,0.000000,1.000000,0.000000,0.000000,
41.000000,-45.462609,45.685894,-0.015862,0.006040,-1.471078,0.062184,0.294782,59.616297,-0.050156,0.010570,-0.071492,0.087968,0.062184,0.294782,0.000000,14.036243,-0.123281,0.000000,0.000000,46.190634,-0.009510,-0.008380,-1.496839,768.000000,-2.515685,0.646641,58.119586,0.022061,0.080229,-0.034580,0.004761,-0.012788,-0.078323,-2.577368,0.369505,-1.496663,0.015135,-0.002074,-0.026094,-0.737218,0.122723,0.175735,0.085166,0.002443,0.002455,0.001318,0.104022,-2.428890,0.258671,-0.104052,-0.697241,0.004662,0.000000,0.000000,-1.500000,0.000000,0.000000,1.000000,0.000000,0.000000,
41.500000,-46.212640,46.437967,-0.017298,0.014632,-1.500378,0.111597,0.258680,59.621034,-0.043921,0.019009,-0.061057,0.077579,0.111597,0.258680,0.000000,14.036243,-0.125320,0.000000,0.000000,46.931824,-0.006812,-0.006224,-1.498453,768.000000,-2.468183,0.612270,58.040836,0.022061,0.080229,-0.034580,0.004736,-0.012797,-0.078422,-2.581554,0.371587,-1.580138,0.022819,-0.001684,0.001635,-0.728560,0.085223,0.119949,0.061419,0.002416,0.002424,0.001300,0.089007,-2.448300,0.292265,-0.102685,-0.694273,0.004209,0.000000,0.000000,-1.500000,0.000000,0.000000,1.000000,0.000000,0.000000,
42.000000,-46.961160,47.189487,-0.012202,0.025705,-1.488939,0.143457,0.185128,59.625259,-0.031459,0.024328,-0.072615,0.082792,0.143457,0.185128,0.000000,14.036243,-0.128319,0.000000,0.000000,47.682237,-0.009458,-0.006732,-1.497178,768.000000,-2.438656,0.542814,58.041879,0.022061,0.080229,-0.034580,0.004736,-0.012797,-0.078422,-2.584030,0.372783,-1.583275,0.028826,-0.014120,-0.008596,-0.730381,0.121212,0.173762,0.084348,0.002416,0.002424,0.001300,0.103495,-2.427430,0.238734,-0.099098,-0.690782,0.004634,0.000000,0.000000,-1.500000,0.000000,0.000000,1.000000,0.000000,0.000000,
42.500000,-47.708500,47.940389,0.004830,0.036241,-1.489319,0.110973,0.073418,59.628910,-0.012283,0.018583,-0.068457,0.071990,0.110973,0.073418,0.000000,14.036243,-0.131881,0.000000,0.000000,48.464040,-0.013079,-0.004015,-1.497417,768.000000,-2.472982,0.426527,57.998582,0.022061,0.080229,-0.034580,0.004756,-0.012806,-0.078452,-2.585569,0.375126,-1.630256,0.025187,-0.035653,-0.008406,-0.764847,0.085301,0.119964,0.061392,0.002390,0.002390,0.001284,0.088937,-2.460708,0.154540,-0.091469,-0.688792,0.004628,0.000000,0.000000,-1.500000,0.000000,0.000000,1.000000,0.000000,0.000000,
43.000000,-48.451737,48.687192,0.018561,0.046823,-1.478490,0.141243,0.156104,59.632681,-0.026713,0.023636,-0.067195,0.076075,0.141243,0.156104,0.000000,14.036243,-0.135445,0.000000,0.000000,49.214175,-0.007160,-0.005331,-1.496721,768.000000,-2.445293,0.511001,57.992520,0.022061,0.080229,-0.034580,0.004756,-0.012806,-0.078452,-2.588218,0.376217,-1.640085,0.031553,-0.048593,-0.018542,-0.771677,0.121396,0.173794,0.084309,0.002390,0.002390,0.001284,0.103387,-2.431382,0.228614,-0.087429,-0.686214,0.004769,0.000000,0.000000,-1.500000,0.000000,0.000000,1.000000,0.000000,0.000000,
43.500000,-49.207556,49.446573,0.017160,0.036502,-1.513818,-0.272245,0.353051,59.635187,-0.060600,-0.047316,-0.070621,0.104395,-0.272245,0.353051,0.000000,14.036243,-0.139010,0.000000,0.000000,49.878318,-0.000153,0.015051,-1.498463,768.000000,-2.862345,0.710450,58.174307,0.022061,0.080229,-0.034580,0.004713,-0.012924,-0.078553,-2.590062,0.376622,-1.460939,0.010044,-0.025884,0.015030,-0.680223,0.085205,0.120024,0.061381,0.002365,0.002353,0.001269,0.088885,-2.782521,0.346005,-0.090084,-0.697751,0.004025,0.000000,0.000000,-1.500000,0.000000,0.000000,1.000000,0.000000,0.000000,
44.000000,-49.963057,50.204053,0.018172,0.026140,-1.502804,0.040782,0.201036,59.640829,-0.034319,0.006567,-0.068529,0.076923,0.040782,0.201036,0.000000,14.036243,-0.140993,0.000000,0.000000,50.628840,-0.007462,-0.007655,-1.497044,768.000000,-2.554672,0.554545,58.180783,0.022061,0.080229,-0.034580,0.004713,-0.012924,-0.078553,-2.594059,0.378064,-1.460006,0.015846,-0.039366,0.005451,-0.675175,0.121158,0.173976,0.084283,0.002365,0.002353,0.001269,0.103333,-2.444567,0.228118,-0.088282,-0.698382,0.004562,0.000000,0.000000,-1.500000,0.000000,0.000000,1.000000,0.000000,0.000000,
44.500000,-50.689616,50.932353,0.003334,0.023463,-1.433162,-0.066714,0.663149,59.642546,-0.113738,-0.011774,-0.065381,0.131718,-0.066714,0.663149,0.000000,14.036243,-0.142731,0.000000,0.000000,51.450982,0.019630,0.002098,-1.497025,768.000000,-2.660925,1.023956,58.477872,0.022061,0.080229,-0.034580,0.004624,-0.013003,-0.078416,-2.594706,0.376953,-1.164653,0.026755,0.002473,-0.064174,-0.770322,0.085234,0.119905,0.061371,0.002341,0.002323,0.001254,0.088850,-2.601453,0.689679,-0.102637,-0.701519,0.004827,0.000000,0.000000,-1.500000,0.000000,0.000000,1.000000,0.000000,0.000000,
45.000000,-51.404834,51.650506,-0.015716,0.025236,-1.422757,0.104853,0.328229,59.647006,-0.055979,0.017663,-0.061477,0.085000,0.104853,0.328229,0.000000,14.036243,-0.145663,0.000000,0.000000,52.201001,-0.007682,-0.008235,-1.496898,768.000000,-2.493231,0.691296,58.491401,0.022061,0.080229,-0.034580,0.004624,-0.013003,-0.078416,-2.598465,0.378517,-1.155550,0.032466,-0.010264,-0.074423,-0.805057,0.121292,0.173620,0.084258,0.002341,0.002323,0.001254,0.103297,-2.437555,0.290424,-0.105136,-0.699250,0.004847,0.000000,0.000000,-1.500000,0.000000,0.000000,1.000000,0.000000,0.000000,
45.500000,-52.146910,52.396051,-0.018838,0.012136,-1.493181,-0.313375,0.220836,59.650559,-0.037586,-0.054021,-0.058562,0.088094,-0.313375,0.220836,0.000000,14.036243,-0.149134,0.000000,0.000000,52.850731,-0.011672,0.014651,-1.499536,768.000000,-2.915753,0.590366,58.324907,0.022061,0.080229,-0.034580,0.004616,-0.013099,-0.078593,-2.602121,0.381977,-1.325674,0.001578,0.007521,-0.006626,-0.713152,0.085227,0.120023,0.061362,0.002318,0.002299,0.001239,0.088826,-2.826482,0.218828,-0.102207,-0.711055,0.003556,0.000000,0.000000,-1.500000,0.000000,0.000000,1.000000,0.000000,0.000000,
46.000000,-52.891899,53.142163,-0.007687,-0.000095,-1.482187,0.033405,0.139523,59.656674,-0.023693,0.005681,-0.070617,0.074702,0.033405,0.139523,0.000000,14.036243,-0.150264,0.000000,0.000000,53.601553,-0.008617,-0.010177,-1.497956,768.000000,-2.574343,0.507775,58.328487,0.022061,0.080229,-0.034580,0.004616,-0.013099,-0.078593,-2.606247,0.383284,-1.328126,0.007856,-0.006084,-0.016107,-0.718917,0.121069,0.174042,0.084234,0.002318,0.002299,0.001239,0.103272,-2.453582,0.244336,-0.097554,-0.710846,0.004394,0.000000,0.000000,-1.500000,0.000000,0.000000,1.000000,0.000000,0.000000,
46.500000,-53.636525,53.887174,-0.001369,0.005209,-1.484626,0.071057,0.260841,59.661422,-0.044348,0.012167,-0.061337,0.076662,0.071057,0.260841,0.000000,14.036243,-0.150647,0.000000,0.000000,54.360564,-0.001401,-0.006344,-1.497703,768.000000,-2.536531,0.622256,58.392445,0.022061,0.080229,-0.034580,0.004598,-0.013123,-0.078622,-2.608859,0.384484,-1.268900,0.009681,-0.006102,-0.013368,-0.733317,0.085150,0.119905,0.061352,0.002295,0.002270,0.001225,0.088810,-2.499801,0.353423,-0.097798,-0.708445,0.004482,0.000000,0.000000,-1.500000,0.000000,0.000000,1.000000,0.000000,0.000000,
47.000000,-54.377609,54.629203,0.001413,0.014873,-1.474587,0.146211,0.211371,59.665555,-0.035990,0.024946,-0.065675,0.078935,0.146211,0.211371,0.000000,14.036243,-0.151591,0.000000,0.000000,55.110790,-0.006704,-0.009138,-1.496937,768.000000,-2.464071,0.576892,58.392551,0.022061,0.080229,-0.034580,0.004598,-0.013123,-0.078622,-2.611840,0.385705,-1.272926,0.016165,-0.019291,-0.022660,-0.742396,0.121012,0.173592,0.084209,0.002295,0.002270,0.001225,0.103252,-2.441336,0.269044,-0.096247,-0.704162,0.004715,0.000000,0.000000,-1.500000,0.000000,0.000000,1.000000,0.000000,0.000000,
47.500000,-55.122556,55.376027,0.000045,0.021504,-1.487181,0.031881,0.320128,59.669593,-0.054603,0.005209,-0.060801,0.081886,0.031881,0.320128,0.000000,14.036243,-0.153466,0.000000,0.000000,55.847618,0.000219,-0.001671,-1.497430,768.000000,-2.580068,0.685251,58.440922,0.022061,0.080229,-0.034580,0.004566,-0.013151,-0.078670,-2.613454,0.386729,-1.228612,0.019902,-0.011804,-0.010535,-0.734355,0.085131,0.119872,0.061343,0.002273,0.002242,0.001212,0.088799,-2.553668,0.381585,-0.098573,-0.704173,0.004437,0.000000,0.000000,-1.500000,0.000000,0.000000,1.000000,0.000000,0.000000,
48.000000,-55.865134,56.121136,0.000715,0.028168,-1.477731,0.126943,0.211064,59.673761,-0.035938,0.021429,-0.065524,0.077744,0.126943,0.211064,0.000000,14.036243,-0.155994,0.000000,0.000000,56.597855,-0.007386,-0.007775,-1.497015,768.000000,-2.488677,0.579211,58.443725,0.022061,0.080229,-0.034580,0.004566,-0.013151,-0.078670,-2.616726,0.388035,-1.229955,0.026507,-0.025278,-0.019593,-0.741956,0.120954,0.173542,0.084186,0.002273,0.002242,0.001212,0.103238,-2.451607,0.261975,-0.097037,-0.701338,0.004679,0.000000,0.000000,-1.500000,0.000000,0.000000,1.000000,0.000000,0.000000,
48.500000,-56.632569,56.890230,-0.019524,-0.025370,-1.544362,-1.071926,0.533204,59.673074,-0.091251,-0.183901,-0.075276,0.218661,-1.071926,0.533204,0.000000,14.036243,-0.157666,0.000000,0.000000,57.318698,0.003294,0.050604,-1.499854,768.000000,-3.694295,0.910447,58.597772,0.022061,0.080229,-0.034580,0.004495,-0.013437,-0.078833,-2.618351,0.389365,-1.075469,-0.052779,0.057761,0.044172,-0.695780,0.085835,0.120376,0.061339,0.002252,0.002216,0.001199,0.088792,-3.474036,0.457252,-0.105276,-0.738798,0.003251,0.000000,0.000000,-1.500000,0.000000,0.000000,1.000000,0.000000,0.000000,
49.000000,-57.403445,57.656153,-0.024420,-0.079028,-1.534279,-0.166083,0.205624,59.685377,-0.034877,-0.027605,-0.073218,0.085670,-0.166083,0.205624,0.000000,14.036243,-0.152725,0.000000,0.000000,58.069674,-0.010267,-0.016591,-1.497969,768.000000,-2.795668,0.584091,58.618720,0.022061,0.080229,-0.034580,0.004495,-0.013437,-0.078833,-2.622203,0.391174,-1.066655,-0.046993,0.043282,0.035950,-0.675817,0.122451,0.175182,0.084178,0.002252,0.002216,0.001199,0.103230,-2.486706,0.242630,-0.103179,-0.744049,0.004246,0.000000,0.000000,-1.500000,0.000000,0.000000,1.000000,0.000000,0.000000,
49.500000,-58.156138,58.402360,-0.004327,-0.042351,-1.491571,0.749595,0.018089,59.693415,-0.002907,0.129498,-0.090280,0.157889,0.749595,0.018089,0.000000,14.036243,-0.146233,0.000000,0.000000,58.866540,-0.013257,-0.045927,-1.495903,768.000000,-1.871832,0.396056,58.706007,0.022061,0.080229,-0.034580,0.004514,-0.013338,-0.078766,-2.625181,0.392260,-0.987176,-0.002738,-0.009647,-0.004790,-0.719723,0.085388,0.119856,0.061327,0.002233,0.002192,0.001186,0.088787,-1.928291,0.162527,-0.094571,-0.715341,0.005193,0.000000,0.000000,-1.500000,0.000000,0.000000,1.000000,0.000000,0.000000,
50.000000,-58.901135,59.145313,0.012076,0.006060,-1.482892,0.339049,0.138839,59.696694,-0.023743,0.058386,-0.078192,0.100432,0.339049,0.138839,0.000000,14.036243,-0.144179,0.000000,0.000000,59.616291,-0.004894,-0.009212,-1.496141,768.000000,-2.279424,0.513531,58.697878,0.022061,0.080229,-0.034580,0.004514,-0.013338,-0.078766,-2.625514,0.393262,-0.998646,0.004066,-0.022333,-0.013629,-0.724423,0.121900,0.173583,0.084147,0.002233,0.002192,0.001186,0.103218,-2.430109,0.275583,-0.091229,-0.702791,0.004941,0.000000,0.000000,-1.500000,0.000000,0.000000,1.000000,0.000000,0.000000,
50.500000,-59.456398,59.700814,0.015960,0.010814,-0.695156,-0.223934,0.392004,59.697273,-0.066507,-0.038290,1.652051,1.653833,-0.223934,0.392004,0.000000,14.036243,-0.144415,0.000000,0.000000,60.176561,0.009891,0.027707,-0.745786,768.000000,-2.845436,0.749356,58.607021,0.022061,0.080229,-0.034580,0.004489,-0.013360,-0.078729,-2.628064,0.394717,-1.090394,-0.017191,0.003322,-0.040196,-0.724546,0.085703,0.120172,0.061320,0.002212,0.002161,0.001174,0.088783,-2.998873,0.512104,-0.096093,-0.709959,0.004902,0.000000,0.000000,1.272318,59.764112,1.000000,1.000000,0.000000,0.000000,
51.000000,-59.599164,59.842753,0.008812,-0.014149,0.128462,-0.419727,0.289160,59.700240,-0.048861,-0.071858,1.647532,1.649822,-0.419727,0.289160,0.000000,14.036243,-0.143595,0.000000,0.000000,60.342535,-0.000161,0.027717,0.068065,768.000000,-3.046230,0.651358,58.608489,0.022061,0.080229,-0.034580,0.004489,-0.013360,-0.078729,-2.628682,0.395706,-1.091998,-0.040211,0.013424,-0.049992,-0.742607,0.122230,0.174388,0.084127,0.002212,0.002161,0.001174,0.103211,-3.055925,0.371375,-0.098370,-0.724285,0.004902,0.000000,0.000000,1.500000,59.764112,1.000000,1.000000,0.000000,0.000000,
