Time ,N (m),E (m),gndAlt,velLL X  ,velLL Y  ,velLL Z  ,r,Roll ,Pitch,Yaw  ,Nav Yaw Rate,Baro Update Count,GPS Update Count,Accel Update Count,Ground Align Update Count,Nav Accel Roll,Nav Accel Pitch,Nav Roll,Nav Pitch,Gyro Bias X (deg/s),Gyro Bias Y (deg/s),Gyro Bias Z (deg/s),Accel Bias X (g),Accel Bias Y (g),Accel Bias Z (g),Roll Error,Pitch Error,Yaw Error,Vel N Error,Vel E Error,Vel D Error,velLL X Error,velLL Y Error,velLL Z Error,N Error (m),E Error (m),Alt Error (m),Acc Body X Error,Acc Body Y Error,Acc Body Z Error,Acc LL X Error,Acc LL Y Error,Acc LL Z Error,Acc Mag Error,p Error,q Error,r Error,Roll Stdev,Pitch Stdev,Yaw Stdev,VN Stdev,VE Stdev,VD Stdev,Accel Bias X Stdev,Accel Bias Y Stdev,Accel Bias Z Stdev,Alt Stdev,GPSResidual[GPS_VN],GPSResidual[GPS_VE],GPSResidual[GPS_VD],GPSFilterError[GPS_VN],GPSFilterError[GPS_VE],GPSFilterError[GPS_VD],GroundResiudal[GROUND_N],GroundResiudal[GROUND_E],GroundResiudal[GROUND_ALT],GroundResiudal[GROUND_VN],GroundResiudal[GROUND_VE],GroundResiudal[GROUND_VD],
0.100000,-0.000000,-0.000000,0.098892,0.000000,0.000000,0.002867,0.000000,-0.000000,0.000000,45.000000,0.000000,0.000000,0.000000,0.000000,0.000000,0.000000,0.000000,0.000000,0.000000,0.000000,0.000000,0.000000,0.000000,0.000000,0.000000,0.000000,0.000000,0.000000,0.000000,0.000000,0.000000,0.000000,0.000000,0.000000,0.000000,0.000000,0.000000,0.000000,0.000000,0.000000,0.000000,0.000000,0.000000,0.000000,0.000000,0.000000,0.000000,0.000000,0.000000,0.000000,0.000000,0.000000,0.000000,0.000000,0.000000,0.000000,0.000000,0.000000,0.000000,0.000000,0.000000,0.000000,0.000000,0.000000,0.000000,0.000000,0.000000,0.000000,0.000000,
0.200000,-0.000000,-0.000000,0.098783,-0.000000,0.000000,0.000252,0.000000,-0.000000,0.000000,45.000000,0.000000,0.000000,0.000000,0.000000,0.000000,0.000000,0.000000,0.000000,0.000000,0.000000,0.000000,0.000000,0.000000,0.000000,0.000000,0.000000,0.000000,0.000000,0.000000,0.000000,0.000000,0.000000,0.000000,0.000000,0.000000,0.000000,0.000000,0.000000,0.000000,0.000000,0.000000,0.000000,0.000000,0.000000,0.000000,0.000000,0.000000,0.000000,0.000000,0.000000,0.000000,0.000000,0.000000,0.000000,0.000000,0.000000,0.000000,0.000000,0.000000,0.000000,0.000000,0.000000,0.000000,0.000000,0.000000,0.000000,0.000000,0.000000,0.000000,
0.300000,-0.000000,-0.000000,0.098773,-0.000000,0.000000,0.000022,0.000000,0.000000,0.000000,45.000000,0.000000,0.000000,0.000000,0.000000,0.000000,0.000000,0.000000,0.000000,0.000000,0.000000,0.000000,0.000000,0.000000,0.000000,0.000000,0.000000,0.000000,0.000000,0.000000,0.000000,0.000000,0.000000,0.000000,0.000000,0.000000,0.000000,0.000000,0.000000,0.000000,0.000000,0.000000,0.000000,0.000000,0.000000,0.000000,0.000000,0.000000,0.000000,0.000000,0.000000,0.000000,0.000000,0.000000,0.000000,0.000000,0.000000,0.000000,0.000000,0.000000,0.000000,0.000000,0.000000,0.000000,0.000000,0.000000,0.000000,0.000000,0.000000,0.000000,
0.400000,-0.000000,-0.000000,0.098773,-0.000000,0.000000,0.000002,0.000000,0.000000,0.000000,45.000000,0.000000,0.000000,0.000000,0.000000,0.000000,0.000000,0.000000,0.000000,0.000000,0.000000,0.000000,0.000000,0.000000,0.000000,0.000000,0.000000,0.000000,0.000000,0.000000,0.000000,0.000000,0.000000,0.000000,0.000000,0.000000,0.000000,0.000000,0.000000,0.000000,0.000000,0.000000,0.000000,0.000000,0.000000,0.000000,0.000000,0.000000,0.000000,0.000000,0.000000,0.000000,0.000000,0.000000,0.000000,0.000000,0.000000,0.000000,0.000000,0.000000,0.000000,0.000000,0.000000,0.000000,0.000000,0.000000,0.000000,0.000000,0.000000,0.000000,
0.500000,-0.000000,-0.000000,0.098772,-0.000000,0.000000,0.000000,0.000000,0.000000,0.000000,45.000000,0.000000,0.000000,0.000000,0.000000,0.000000,0.000000,0.000000,0.000000,0.000000,0.000000,0.000000,0.000000,0.000000,0.000000,0.000000,0.000000,0.000000,0.000000,0.000000,0.000000,0.000000,0.000000,0.000000,0.000000,0.000000,0.000000,0.000000,0.000000,0.000000,0.000000,0.000000,0.000000,0.000000,0.000000,0.000000,0.000000,0.000000,0.000000,0.000000,0.000000,0.000000,0.000000,0.000000,0.000000,0.000000,0.000000,0.000000,0.000000,0.000000,0.000000,0.000000,0.000000,0.000000,0.000000,0.000000,0.000000,0.000000,0.000000,0.000000,
0.600000,-0.000000,-0.000000,0.098772,-0.000000,0.000000,0.000000,0.000000,0.000000,0.000000,45.000000,0.000000,0.000000,0.000000,0.000000,0.000000,0.000000,0.000000,0.000000,0.000000,0.000000,0.000000,0.000000,0.000000,0.000000,0.000000,0.000000,0.000000,0.000000,0.000000,0.000000,0.000000,0.000000,0.000000,0.000000,0.000000,0.000000,0.000000,0.000000,0.000000,0.000000,0.000000,0.000000,0.000000,0.000000,0.000000,0.000000,0.000000,0.000000,0.000000,0.000000,0.000000,0.000000,0.000000,0.000000,0.000000,0.000000,0.000000,0.000000,0.000000,0.000000,0.000000,0.000000,0.000000,0.000000,0.000000,0.000000,0.000000,0.000000,0.000000,
0.700000,-0.000000,-0.000000,0.098772,-0.000000,0.000000,0.000000,0.000000,0.000000,0.000000,45.000000,0.000000,0.000000,0.000000,0.000000,0.000000,0.000000,0.000000,0.000000,0.000000,0.000000,0.000000,0.000000,0.000000,0.000000,0.000000,0.000000,0.000000,0.000000,0.000000,0.000000,0.000000,0.000000,0.000000,0.000000,0.000000,0.000000,0.000000,0.000000,0.000000,0.000000,0.000000,0.000000,0.000000,0.000000,0.000000,0.000000,0.000000,0.000000,0.000000,0.000000,0.000000,0.000000,0.000000,0.000000,0.000000,0.000000,0.000000,0.000000,0.000000,0.000000,0.000000,0.000000,0.000000,0.000000,0.000000,0.000000,0.000000,0.000000,0.000000,
0.800000,-0.000000,-0.000000,0.098772,-0.000000,0.000000,0.000000,0.000000,0.000000,0.000000,45.000000,0.000000,0.000000,0.000000,0.000000,0.000000,0.000000,0.000000,0.000000,0.000000,0.000000,0.000000,0.000000,0.000000,0.000000,0.000000,0.000000,0.000000,0.000000,0.000000,0.000000,0.000000,0.000000,0.000000,0.000000,0.000000,0.000000,0.000000,0.000000,0.000000,0.000000,0.000000,0.000000,0.000000,0.000000,0.000000,0.000000,0.000000,0.000000,0.000000,0.000000,0.000000,0.000000,0.000000,0.000000,0.000000,0.000000,0.000000,0.000000,0.000000,0.000000,0.000000,0.000000,0.000000,0.000000,0.000000,0.000000,0.000000,0.000000,0.000000,
0.900000,-0.000000,-0.000000,0.098772,-0.000000,0.000000,0.000000,0.000000,0.000000,0.000000,45.000000,0.000000,0.000000,0.000000,0.000000,0.000000,0.000000,0.000000,0.000000,0.000000,0.000000,0.000000,0.000000,0.000000,0.000000,0.000000,0.000000,0.000000,0.000000,0.000000,0.000000,0.000000,0.000000,0.000000,0.000000,0.000000,0.000000,0.000000,0.000000,0.000000,0.000000,0.000000,0.000000,0.000000,0.000000,0.000000,0.000000,0.000000,0.000000,0.000000,0.000000,0.000000,0.000000,0.000000,0.000000,0.000000,0.000000,0.000000,0.000000,0.000000,0.000000,0.000000,0.000000,0.000000,0.000000,0.000000,0.000000,0.000000,0.000000,0.000000,
1.000000,-0.000000,-0.000000,0.098772,-0.000000,0.000000,0.000000,0.000000,0.000000,0.000000,45.000000,0.000000,0.000000,0.000000,0.000000,0.000000,0.000000,0.000000,0.000000,0.000000,0.000000,0.000000,0.000000,0.000000,0.000000,0.000000,0.000000,0.000000,0.000000,0.000000,0.000000,0.000000,0.000000,0.000000,0.000000,0.000000,0.000000,0.000000,0.000000,0.000000,0.000000,0.000000,0.000000,0.000000,0.000000,0.000000,0.000000,0.000000,0.000000,0.000000,0.000000,0.000000,0.000000,0.000000,0.000000,0.000000,0.000000,0.000000,0.000000,0.000000,0.000000,0.000000,0.000000,0.000000,0.000000,0.000000,0.000000,0.000000,0.000000,0.000000,
1.100000,-0.000000,-0.000000,0.098772,-0.000000,0.000000,0.000000,0.000000,0.000000,0.000000,45.000000,0.000000,0.000000,0.000000,0.000000,0.000000,0.000000,0.000000,0.000000,0.000000,0.000000,0.000000,0.000000,0.000000,0.000000,0.000000,0.000000,0.000000,0.000000,0.000000,0.000000,0.000000,0.000000,-0.000000,-0.000000,0.000000,0.000000,-0.000000,0.000000,0.000000,0.000000,-0.000000,-0.000000,0.000000,0.000000,0.000000,0.000000,0.000000,1.666667,1.666667,60.000000,0.333333,0.333333,0.333333,0.016667,0.016667,0.026667,3.333333,0.000000,0.000000,0.000000,0.000000,0.000000,0.000000,0.000000,0.000000,0.000000,0.000000,0.000000,0.000000,
1.200000,-0.000000,-0.000000,0.098772,-0.000000,0.000000,0.000000,0.000000,0.000000,0.000000,45.000000,0.000000,0.000000,0.000000,0.000000,0.000000,-1.578211,0.517367,-1.578211,0.517367,0.000000,0.000000,0.000000,0.000000,0.000000,0.000000,0.000000,0.000000,0.000000,0.000000,0.000000,0.000000,0.000000,-0.000000,-0.000000,0.000000,0.000000,-0.000000,0.000000,0.000000,0.000000,0.000000,0.000000,-0.000000,0.000000,0.000000,0.000000,0.000000,1.295328,0.895456,60.000000,0.333333,0.333333,0.333333,0.016667,0.016667,0.026667,3.333333,0.000000,0.000000,0.000000,0.000000,0.000000,0.000000,0.000000,0.000000,0.000000,0.000000,0.000000,0.000000,
1.300000,-0.000000,-0.000000,0.098772,-0.000000,0.000000,0.000000,0.000000,0.000000,0.000000,45.000000,0.000000,0.000000,0.000000,0.000000,0.000000,-1.578211,0.517367,-1.578211,0.517367,0.000000,0.000000,0.000000,0.000000,0.000000,0.000000,0.000000,0.000000,0.000000,0.000000,0.000000,0.000000,0.000000,-0.000000,-0.000000,0.000000,0.000000,-0.000000,0.000000,0.000000,0.000000,0.000000,0.000000,0.000000,0.000000,0.000000,0.000000,0.000000,1.295328,0.895456,60.000000,0.333333,0.333333,0.333333,0.016667,0.016667,0.026667,3.333333,0.000000,0.000000,0.000000,0.000000,0.000000,0.000000,0.000000,0.000000,0.000000,0.000000,0.000000,0.000000,
1.400000,-0.000000,-0.000000,0.098772,-0.000000,0.000000,0.000000,0.000000,0.000000,0.000000,45.000000,0.000000,0.000000,0.000000,0.000000,0.000000,-1.578211,0.517367,-1.578211,0.517367,0.000000,0.000000,0.000000,0.000000,0.000000,0.000000,0.000000,0.000000,0.000000,0.000000,0.000000,0.000000,0.000000,-0.000000,-0.000000,0.000000,0.000000,-0.000000,0.000000,0.000000,0.000000,0.000000,0.000000,-0.000000,0.000000,0.000000,0.000000,0.000000,1.295328,0.895456,60.000000,0.333333,0.333333,0.333333,0.016667,0.016667,0.026667,3.333333,0.000000,0.000000,0.000000,0.000000,0.000000,0.000000,0.000000,0.000000,0.000000,0.000000,0.000000,0.000000,
1.500000,-0.000000,-0.000000,0.098772,-0.000000,0.000000,0.000000,0.000000,0.000000,0.000000,45.000000,0.000000,0.000000,0.000000,0.000000,0.000000,-1.578211,0.517367,-1.578211,0.517367,0.000000,0.000000,0.000000,0.000000,0.000000,0.000000,0.000000,0.000000,0.000000,0.000000,0.000000,0.000000,0.000000,-0.000000,-0.000000,0.000000,0.000000,-0.000000,0.000000,0.000000,0.000000,0.000000,-0.000000,0.000000,0.000000,0.000000,0.000000,0.000000,1.295328,0.895456,60.000000,0.333333,0.333333,0.333333,0.016667,0.016667,0.026667,3.333333,0.000000,0.000000,0.000000,0.000000,0.000000,0.000000,0.000000,0.000000,0.000000,0.000000,0.000000,0.000000,
1.600000,-0.000000,-0.000000,0.098772,-0.000000,0.000000,0.000000,0.000000,0.000000,0.000000,45.000000,0.000000,0.000000,0.000000,0.000000,0.000000,-1.578211,0.517367,-1.578211,0.517367,0.000000,0.000000,0.000000,0.000000,0.000000,0.000000,0.000000,0.000000,0.000000,0.000000,0.000000,0.000000,0.000000,-0.000000,-0.000000,0.000000,0.000000,-0.000000,0.000000,0.000000,0.000000,-0.000000,-0.000000,-0.000000,0.000000,0.000000,0.000000,0.000000,1.295328,0.895456,60.000000,0.333333,0.333333,0.333333,0.016667,0.016667,0.026667,3.333333,0.000000,0.000000,0.000000,0.000000,0.000000,0.000000,0.000000,0.000000,0.000000,0.000000,0.000000,0.000000,
1.700000,-0.000000,-0.000000,0.098772,-0.000000,0.000000,0.000000,0.000000,0.000000,0.000000,45.000000,0.049262,0.000000,1.000000,0.000000,0.000000,-1.578211,0.517367,-1.577842,0.516954,0.010687,0.089466,-0.039084,0.000736,0.002258,-0.081475,-1.577842,0.516954,-45.000358,0.000002,-0.030001,-0.039808,0.000002,-0.030001,-0.039808,0.000000,-0.000450,-0.001825,0.000044,-0.000346,0.012850,0.000160,0.000008,0.012854,0.012855,-0.042494,0.050483,0.049262,1.295393,0.895588,60.000002,0.235713,0.235726,0.235702,0.015628,0.022602,0.000482,2.357025,0.000000,-0.060000,-0.080129,0.000000,0.000000,0.000000,0.000000,0.000000,0.000000,0.000000,0.000000,0.000000,
1.800000,-0.000000,-0.000000,0.098772,-0.000000,0.000000,0.000000,0.000000,0.000000,0.000000,45.000000,-0.001628,0.000000,1.000000,0.000000,0.000000,-1.578211,0.517367,-1.577124,0.516024,0.010687,0.089466,-0.039084,0.000736,0.002258,-0.081475,-1.577124,0.516024,-45.001195,0.000020,-0.029998,-0.038523,0.000021,-0.029998,-0.038523,0.000001,-0.003450,-0.005735,0.000110,-0.000297,0.012848,0.000225,0.000057,0.012849,0.012852,0.000763,-0.002952,-0.001628,1.295717,0.896245,60.000011,0.236361,0.237076,0.235704,0.015628,0.022602,0.000482,2.357178,0.000000,-0.060000,-0.080129,0.000000,0.000000,0.000000,0.000000,0.000000,0.000000,0.000000,0.000000,0.000000,
1.900000,-0.000000,-0.000000,0.098772,-0.000000,0.000000,0.000000,0.000000,0.000000,0.000000,45.000000,-0.052519,0.000000,1.000000,0.000000,0.000000,-1.578211,0.517367,-1.576381,0.515121,0.010687,0.089466,-0.039084,0.000736,0.002258,-0.081475,-1.576381,0.515121,-45.002008,0.000055,-0.029983,-0.037238,0.000056,-0.029983,-0.037238,0.000005,-0.006449,-0.009517,0.000175,-0.000247,0.012850,0.000290,0.000107,0.012849,0.012853,0.046565,-0.053842,-0.052519,1.296041,0.896901,60.000020,0.237995,0.240468,0.235709,0.015628,0.022602,0.000482,2.357567,0.000000,-0.060000,-0.080129,0.000000,0.000000,0.000000,0.000000,0.000000,0.000000,0.000000,0.000000,0.000000,
2.000000,-0.000000,-0.000000,0.098772,-0.000000,0.000000,0.000000,0.000000,0.000000,0.000000,45.000000,0.065802,0.000000,1.000000,0.000000,0.000000,-1.578211,0.517367,-1.575637,0.514205,0.010687,0.089466,-0.039084,0.000736,0.002258,-0.081475,-1.575637,0.514205,-45.002820,0.000106,-0.029954,-0.035953,0.000108,-0.029954,-0.035953,0.000013,-0.009446,-0.013170,0.000547,0.000055,0.012861,0.000662,0.000409,0.012849,0.012873,-0.056489,0.068295,0.065802,1.296364,0.897557,60.000029,0.240596,0.245819,0.235716,0.015628,0.022602,0.000482,2.358192,0.000000,-0.060000,-0.080129,0.000000,0.000000,0.000000,0.000000,0.000000,0.000000,0.000000,0.000000,0.000000,
2.100000,-0.000000,-0.000000,0.098772,-0.000000,0.000000,0.000000,0.000000,0.000000,0.000000,45.000000,-0.069059,1.000000,2.000000,0.000000,1.000000,-1.578211,0.517367,-1.574260,0.512359,0.010687,0.089466,-0.039084,0.000802,0.001385,-0.081475,-1.574260,0.512359,-44.994971,-0.002190,-0.000255,-0.017345,-0.002190,-0.000255,-0.017345,-0.009920,-0.001356,0.010020,-0.000027,0.008657,0.012863,0.000086,0.009007,0.012620,0.015505,0.059288,-0.071654,-0.069059,1.296688,0.898212,59.999985,0.090916,0.093059,0.088720,0.015323,0.021707,0.000482,0.195144,-0.030049,0.043830,-0.185288,0.000000,0.000000,0.000000,-0.000014,0.009745,-0.012301,-0.000112,0.029951,0.035824,
2.200000,-0.000000,-0.000000,0.098772,-0.000000,0.000000,0.000000,0.000000,0.000000,0.000000,45.000000,0.049262,1.000000,2.000000,0.000000,1.000000,-1.578211,0.517367,-1.574247,0.512356,0.010687,0.089466,-0.039084,0.000802,0.001385,-0.081475,-1.574247,0.512356,-44.994968,-0.002173,0.000652,-0.016083,-0.002173,0.000652,-0.016083,-0.010139,-0.001332,0.008355,0.000189,0.008832,0.012870,0.000301,0.009182,0.012620,0.015610,-0.042494,0.050483,0.049262,1.297011,0.898867,59.999994,0.095337,0.101522,0.088732,0.015323,0.021707,0.000482,0.195519,-0.030049,0.043830,-0.185288,0.000000,0.000000,0.000000,-0.000014,0.009745,-0.012301,-0.000112,0.029951,0.035824,
2.300000,-0.000000,-0.000000,0.098772,-0.000000,0.000000,0.000000,0.000000,0.000000,0.000000,45.000000,-0.001628,1.000000,2.000000,0.000000,1.000000,-1.578211,0.517367,-1.573530,0.511427,0.010687,0.089466,-0.039084,0.000802,0.001385,-0.081475,-1.573530,0.511427,-44.995806,-0.002140,0.001572,-0.014821,-0.002140,0.001572,-0.014821,-0.010354,-0.001216,0.006816,0.000254,0.008881,0.012872,0.000367,0.009231,0.012620,0.015640,0.000763,-0.002952,-0.001628,1.297335,0.899521,60.000003,0.101814,0.113399,0.088751,0.015323,0.021707,0.000482,0.196296,-0.030049,0.043830,-0.185288,0.000000,0.000000,0.000000,-0.000014,0.009745,-0.012301,-0.000112,0.029951,0.035824,
2.400000,-0.000000,-0.000000,0.098772,-0.000000,0.000000,0.000000,0.000000,0.000000,0.000000,45.000000,-0.052519,1.000000,2.000000,0.000000,1.000000,-1.578211,0.517367,-1.572786,0.510524,0.010687,0.089466,-0.039084,0.000802,0.001385,-0.081475,-1.572786,0.510524,-44.996619,-0.002092,0.002505,-0.013559,-0.002092,0.002505,-0.013559,-0.010566,-0.001008,0.005404,0.000319,0.008931,0.012874,0.000431,0.009281,0.012620,0.015671,0.046565,-0.053842,-0.052519,1.297658,0.900175,60.000012,0.109984,0.127740,0.088777,0.015323,0.021707,0.000482,0.197469,-0.030049,0.043830,-0.185288,0.000000,0.000000,0.000000,-0.000014,0.009745,-0.012301,-0.000112,0.029951,0.035824,
2.500000,-0.000000,-0.000000,0.098772,-0.000000,0.000000,0.000000,0.000000,0.000000,0.000000,45.000000,0.065802,1.000000,2.000000,0.000000,1.000000,-1.578211,0.517367,-1.572043,0.509608,0.010687,0.089466,-0.039084,0.000802,0.001385,-0.081475,-1.572043,0.509608,-44.997431,-0.002026,0.003451,-0.012297,-0.002026,0.003451,-0.012297,-0.010771,-0.000705,0.004117,0.000691,0.009233,0.012885,0.000803,0.009583,0.012621,0.015867,-0.056489,0.068295,0.065802,1.297982,0.900829,60.000021,0.119501,0.143810,0.088810,0.015323,0.021707,0.000482,0.199032,-0.030049,0.043830,-0.185288,0.000000,0.000000,0.000000,-0.000014,0.009745,-0.012301,-0.000112,0.029951,0.035824,
2.600000,-0.000000,-0.000000,0.098772,-0.000000,0.000000,0.000000,0.000000,0.000000,0.000000,45.000000,-0.069059,1.000000,2.000000,0.000000,1.000000,-1.578211,0.517367,-1.570582,0.507766,0.010687,0.089466,-0.039084,0.000802,0.001385,-0.081475,-1.570582,0.507766,-44.999071,-0.001948,0.004408,-0.011034,-0.001948,0.004408,-0.011034,-0.010970,-0.000308,0.002957,0.000760,0.009287,0.012887,0.000872,0.009637,0.012621,0.015903,0.059288,-0.071654,-0.069059,1.298305,0.901482,60.000030,0.130069,0.161093,0.088848,0.015323,0.021707,0.000482,0.200976,-0.030049,0.043830,-0.185288,0.000000,0.000000,0.000000,-0.000014,0.009745,-0.012301,-0.000112,0.029951,0.035824,
2.700000,-0.000000,-0.000000,0.098772,-0.000000,0.000000,0.000000,0.000000,0.000000,0.000000,45.000000,0.049262,1.000000,2.000000,0.000000,1.000000,-1.578211,0.517367,-1.570569,0.507763,0.010687,0.089466,-0.039084,0.000802,0.001385,-0.081475,-1.570569,0.507763,-44.999068,-0.001852,0.005378,-0.009772,-0.001852,0.005378,-0.009772,-0.011160,0.000186,0.001923,0.000976,0.009462,0.012894,0.001087,0.009811,0.012621,0.016023,-0.042494,0.050483,0.049262,1.298628,0.902134,60.000039,0.141454,0.179237,0.088894,0.015323,0.021707,0.000482,0.203291,-0.030049,0.043830,-0.185288,0.000000,0.000000,0.000000,-0.000014,0.009745,-0.012301,-0.000112,0.029951,0.035824,
2.800000,-0.000000,-0.000000,0.098772,-0.000000,0.000000,0.000000,0.000000,0.000000,0.000000,45.000000,-0.001628,1.000000,2.000000,0.000000,1.000000,-1.578211,0.517367,-1.569851,0.506834,0.010687,0.089466,-0.039084,0.000802,0.001385,-0.081475,-1.569851,0.506834,-44.999905,-0.001741,0.006361,-0.008510,-0.001741,0.006361,-0.008510,-0.011339,0.000778,0.001015,0.001041,0.009511,0.012896,0.001153,0.009861,0.012621,0.016058,0.000763,-0.002952,-0.001628,1.298951,0.902786,60.000048,0.153475,0.198007,0.088946,0.015323,0.021707,0.000482,0.205964,-0.030049,0.043830,-0.185288,0.000000,0.000000,0.000000,-0.000014,0.009745,-0.012301,-0.000112,0.029951,0.035824,
2.900000,-0.000000,-0.000000,0.098772,-0.000000,0.000000,0.000000,0.000000,0.000000,0.000000,45.000000,-0.052519,1.000000,2.000000,0.000000,1.000000,-1.578211,0.517367,-1.569108,0.505931,0.010687,0.089466,-0.039084,0.000802,0.001385,-0.081475,-1.569108,0.505931,-45.000718,-0.001614,0.007357,-0.007248,-0.001614,0.007357,-0.007248,-0.011506,0.001469,0.000234,0.001106,0.009561,0.012898,0.001218,0.009910,0.012621,0.016093,0.046565,-0.053842,-0.052519,1.299274,0.903438,60.000057,0.165993,0.217241,0.089004,0.015323,0.021707,0.000482,0.208983,-0.030049,0.043830,-0.185288,0.000000,0.000000,0.000000,-0.000014,0.009745,-0.012301,-0.000112,0.029951,0.035824,
3.000000,-0.000000,-0.000000,0.098772,-0.000000,0.000000,0.000000,0.000000,0.000000,0.000000,45.000000,0.065802,1.000000,2.000000,0.000000,1.000000,-1.578211,0.517367,-1.568364,0.505016,0.010687,0.089466,-0.039084,0.000802,0.001385,-0.081475,-1.568364,0.505016,-45.001531,-0.001470,0.008366,-0.005986,-0.001470,0.008366,-0.005986,-0.011660,0.002260,-0.000422,0.001478,0.009863,0.012910,0.001589,0.010212,0.012621,0.016313,-0.056489,0.068295,0.065802,1.299597,0.904089,60.000065,0.178904,0.236825,0.089069,0.015323,0.021707,0.000482,0.212333,-0.030049,0.043830,-0.185288,0.000000,0.000000,0.000000,-0.000014,0.009745,-0.012301,-0.000112,0.029951,0.035824,
3.100000,-0.000000,-0.000000,0.098772,-0.000000,0.000000,0.000000,0.000000,0.000000,0.000000,45.000000,-0.069059,2.000000,3.000000,0.000000,2.000000,-1.578211,0.517367,-1.566833,0.503186,0.010687,0.089466,-0.039084,0.000573,0.001456,-0.081475,-1.566833,0.503186,-45.054794,0.001694,0.008953,-0.008769,0.001685,0.008954,-0.008769,-0.014908,0.021397,-0.065083,0.003791,0.009233,0.012916,0.003902,0.009582,0.012625,0.016323,0.059288,-0.071654,-0.069059,1.299917,0.904739,59.930561,0.089496,0.094835,0.063446,0.009801,0.010972,0.000481,0.142425,0.029953,0.078507,0.012510,0.000000,0.000000,0.000000,0.011674,-0.002345,0.000747,0.001455,-0.008467,0.005859,
3.200000,-0.000000,-0.000000,0.098772,-0.000000,0.000000,0.000000,0.000000,0.000000,0.000000,45.000000,0.049262,2.000000,3.000000,0.000000,2.000000,-1.578211,0.517367,-1.566820,0.503184,0.010687,0.089466,-0.039084,0.000573,0.001456,-0.081475,-1.566820,0.503184,-45.054792,0.002093,0.009917,-0.007507,0.002084,0.009919,-0.007507,-0.014716,0.022345,-0.065890,0.004006,0.009407,0.012923,0.004117,0.009757,0.012625,0.016479,-0.042494,0.050483,0.049262,1.300240,0.905389,59.930570,0.096415,0.102992,0.063482,0.009801,0.010972,0.000481,0.144089,0.029953,0.078507,0.012510,0.000000,0.000000,0.000000,0.011674,-0.002345,0.000747,0.001455,-0.008467,0.005859,
3.300000,-0.000000,-0.000000,0.098772,-0.000000,0.000000,0.000000,0.000000,0.000000,0.000000,45.000000,-0.001628,2.000000,3.000000,0.000000,2.000000,-1.578211,0.517367,-1.566103,0.502255,0.010687,0.089466,-0.039084,0.000573,0.001456,-0.081475,-1.566103,0.502255,-45.055629,0.002509,0.010894,-0.006244,0.002498,0.010897,-0.006244,-0.014484,0.023390,-0.066571,0.004072,0.009457,0.012925,0.004182,0.009807,0.012625,0.016525,0.000763,-0.002952,-0.001628,1.300563,0.906039,59.930579,0.103763,0.111591,0.063522,0.009801,0.010972,0.000481,0.146011,0.029953,0.078507,0.012510,0.000000,0.000000,0.000000,0.011674,-0.002345,0.000747,0.001455,-0.008467,0.005859,
3.400000,-0.000000,-0.000000,0.098772,-0.000000,0.000000,0.000000,0.000000,0.000000,0.000000,45.000000,-0.052519,2.000000,3.000000,1.000000,2.000000,-1.578211,0.517367,-1.571973,0.509703,0.010687,0.089466,-0.039084,0.000573,0.001456,-0.081475,-1.571973,0.509703,-45.056416,0.002925,0.011872,-0.004984,0.002914,0.011875,-0.004984,-0.014210,0.024534,-0.067127,0.002704,0.008373,0.012883,0.002817,0.008723,0.012624,0.015601,0.046565,-0.053842,-0.052519,0.888209,0.614899,59.930588,0.111456,0.120539,0.063568,0.009801,0.010972,0.000481,0.148181,0.029953,0.078507,0.012510,0.000000,0.000000,0.000000,0.011674,-0.002345,0.000747,0.001455,-0.008467,0.005859,
3.500000,-0.000000,-0.000000,0.098772,-0.000000,0.000000,0.000000,0.000000,0.000000,0.000000,45.000000,0.065802,2.000000,3.000000,1.000000,2.000000,-1.578211,0.517367,-1.571229,0.508787,0.010687,0.089466,-0.039084,0.000573,0.001456,-0.081475,-1.571229,0.508787,-45.057228,0.003230,0.012763,-0.003722,0.003218,0.012766,-0.003722,-0.013901,0.025770,-0.067556,0.003076,0.008675,0.012895,0.003188,0.009025,0.012624,0.015843,-0.056489,0.068295,0.065802,0.888681,0.615856,59.930597,0.119423,0.129760,0.063618,0.009801,0.010972,0.000481,0.150589,0.029953,0.078507,0.012510,0.000000,0.000000,0.000000,0.011674,-0.002345,0.000747,0.001455,-0.008467,0.005859,
3.600000,-0.000000,-0.000000,0.098772,-0.000000,0.000000,0.000000,0.000000,0.000000,0.000000,45.000000,-0.069059,2.000000,3.000000,2.000000,2.000000,-1.578211,0.517367,-1.572506,0.510356,0.010687,0.089466,-0.039084,0.000573,0.001456,-0.081475,-1.572506,0.510356,-45.058857,0.003542,0.013659,-0.002461,0.003528,0.013662,-0.002461,-0.013560,0.027096,-0.067859,0.002561,0.008260,0.012879,0.002673,0.008610,0.012624,0.015512,0.059288,-0.071654,-0.069059,0.717690,0.496516,59.930606,0.127615,0.139203,0.063674,0.009801,0.010972,0.000481,0.153224,0.029953,0.078507,0.012510,0.000000,0.000000,0.000000,0.011674,-0.002345,0.000747,0.001455,-0.008467,0.005859,
3.700000,-0.000000,-0.000000,0.098772,-0.000000,0.000000,0.000000,0.000000,0.000000,0.000000,45.000000,0.049262,2.000000,3.000000,2.000000,2.000000,-1.578211,0.517367,-1.572493,0.510353,0.010687,0.089466,-0.039084,0.000573,0.001456,-0.081475,-1.572493,0.510353,-45.058854,0.003819,0.014526,-0.001199,0.003804,0.014530,-0.001199,-0.013191,0.028509,-0.068035,0.002776,0.008434,0.012885,0.002889,0.008785,0.012624,0.015648,-0.042494,0.050483,0.049262,0.718275,0.497700,59.930615,0.135991,0.148823,0.063734,0.009801,0.010972,0.000481,0.156076,0.029953,0.078507,0.012510,0.000000,0.000000,0.000000,0.011674,-0.002345,0.000747,0.001455,-0.008467,0.005859,
3.800000,-0.000000,-0.000000,0.098772,-0.000000,0.000000,0.000000,0.000000,0.000000,0.000000,45.000000,-0.001628,2.000000,3.000000,3.000000,2.000000,-1.578211,0.517367,-1.573440,0.511499,0.010687,0.089466,-0.039084,0.000573,0.001456,-0.081475,-1.573440,0.511499,-45.059685,0.004108,0.015403,0.000063,0.004092,0.015408,0.000063,-0.012793,0.030010,-0.068086,0.002485,0.008198,0.012876,0.002598,0.008549,0.012624,0.015466,0.000763,-0.002952,-0.001628,0.618790,0.428534,59.930624,0.144520,0.158590,0.063799,0.009801,0.010972,0.000481,0.159133,0.029953,0.078507,0.012510,0.000000,0.000000,0.000000,0.011674,-0.002345,0.000747,0.001455,-0.008467,0.005859,
3.900000,-0.000000,-0.000000,0.098772,-0.000000,0.000000,0.000000,0.000000,0.000000,0.000000,45.000000,-0.052519,2.000000,3.000000,3.000000,2.000000,-1.578211,0.517367,-1.572697,0.510596,0.010687,0.089466,-0.039084,0.000573,0.001456,-0.081475,-1.572697,0.510596,-45.060498,0.004381,0.016267,0.001325,0.004363,0.016272,0.001325,-0.012367,0.031598,-0.068010,0.002551,0.008248,0.012878,0.002663,0.008598,0.012624,0.015504,0.046565,-0.053842,-0.052519,0.619468,0.429905,59.930633,0.153176,0.168478,0.063869,0.009801,0.010972,0.000481,0.162385,0.029953,0.078507,0.012510,0.000000,0.000000,0.000000,0.011674,-0.002345,0.000747,0.001455,-0.008467,0.005859,
4.000000,-0.000000,-0.000000,0.098772,-0.000000,0.000000,0.000000,0.000000,0.000000,0.000000,45.000000,0.065802,2.000000,3.000000,4.000000,2.000000,-1.578211,0.517367,-1.573361,0.511441,0.010687,0.089466,-0.039084,0.000573,0.001456,-0.081475,-1.573361,0.511441,-45.061305,0.004668,0.017143,0.002586,0.004649,0.017148,0.002586,-0.011913,0.033273,-0.067808,0.002620,0.008309,0.012880,0.002733,0.008659,0.012624,0.015550,-0.056489,0.068295,0.065802,0.552439,0.383385,59.930642,0.161939,0.178466,0.063944,0.009801,0.010972,0.000481,0.165821,0.029953,0.078507,0.012510,0.000000,0.000000,0.000000,0.011674,-0.002345,0.000747,0.001455,-0.008467,0.005859,
4.100000,-0.000000,-0.000000,0.098772,-0.000000,0.000000,0.000000,0.000000,0.000000,0.000000,45.000000,-0.069059,3.000000,4.000000,4.000000,3.000000,-1.578211,0.517367,-1.572056,0.509625,0.010687,0.089466,-0.039084,0.000230,0.002344,-0.081466,-1.572056,0.509625,-45.183039,0.011820,0.001134,-0.004889,0.011816,0.001172,-0.004889,0.003806,0.016421,-0.077091,0.006047,-0.000373,0.012795,0.006161,-0.000021,0.012746,0.014157,0.059288,-0.071654,-0.069059,0.553198,0.384916,59.896617,0.085247,0.087383,0.050482,0.006015,0.006204,0.000480,0.124458,0.138091,-0.043265,-0.355198,0.000000,0.000000,0.000000,0.011866,-0.033445,-0.066554,-0.004694,-0.017229,-0.002713,
4.200000,-0.000000,-0.000000,0.098772,-0.000000,0.000000,0.000000,0.000000,0.000000,0.000000,45.000000,0.049262,3.000000,4.000000,5.000000,3.000000,-1.578211,0.517367,-1.573176,0.511074,0.010687,0.089466,-0.039084,0.000230,0.002344,-0.081466,-1.573176,0.511074,-45.183030,0.012442,0.001135,-0.003615,0.012438,0.001175,-0.003615,0.005022,0.016534,-0.077510,0.006013,-0.000392,0.012794,0.006127,-0.000041,0.012746,0.014142,-0.042494,0.050483,0.049262,0.504107,0.350871,59.896626,0.089931,0.092330,0.050543,0.006015,0.006204,0.000480,0.126658,0.138091,-0.043265,-0.355198,0.000000,0.000000,0.000000,0.011866,-0.033445,-0.066554,-0.004694,-0.017229,-0.002713,
4.300000,-0.000000,-0.000000,0.098772,-0.000000,0.000000,0.000000,0.000000,0.000000,0.000000,45.000000,-0.001628,3.000000,4.000000,5.000000,3.000000,-1.578211,0.517367,-1.572458,0.510145,0.010687,0.089466,-0.039084,0.000230,0.002344,-0.081466,-1.572458,0.510145,-45.183868,0.013057,0.001131,-0.002341,0.013053,0.001173,-0.002341,0.006300,0.016647,-0.077801,0.006079,-0.000342,0.012796,0.006192,0.000009,0.012746,0.014171,0.000763,-0.002952,-0.001628,0.504939,0.352544,59.896635,0.094750,0.097407,0.050608,0.006015,0.006204,0.000480,0.129019,0.138091,-0.043265,-0.355198,0.000000,0.000000,0.000000,0.011866,-0.033445,-0.066554,-0.004694,-0.017229,-0.002713,
4.400000,-0.000000,-0.000000,0.098772,-0.000000,0.000000,0.000000,0.000000,0.000000,0.000000,45.000000,-0.052519,3.000000,4.000000,6.000000,3.000000,-1.578211,0.517367,-1.572605,0.510392,0.010687,0.089466,-0.039084,0.000230,0.002344,-0.081466,-1.572605,0.510392,-45.184676,0.013686,0.001138,-0.001067,0.013682,0.001182,-0.001067,0.007640,0.016761,-0.077965,0.005947,-0.000445,0.012792,0.006060,-0.000094,0.012746,0.014114,0.046565,-0.053842,-0.052519,0.466988,0.326225,59.896644,0.099686,0.102595,0.050679,0.006015,0.006204,0.000480,0.131534,0.138091,-0.043265,-0.355198,0.000000,0.000000,0.000000,0.011866,-0.033445,-0.066554,-0.004694,-0.017229,-0.002713,
4.500000,-0.000000,-0.000000,0.098772,-0.000000,0.000000,0.000000,0.000000,0.000000,0.000000,45.000000,0.065802,3.000000,4.000000,6.000000,3.000000,-1.578211,0.517367,-1.571862,0.509477,0.010687,0.089466,-0.039084,0.000230,0.002344,-0.081466,-1.571862,0.509477,-45.185488,0.014315,0.001145,0.000208,0.014311,0.001191,0.000208,0.009043,0.016875,-0.078002,0.006318,-0.000143,0.012804,0.006432,0.000208,0.012746,0.014278,-0.056489,0.068295,0.065802,0.467886,0.328024,59.896653,0.104721,0.107878,0.050754,0.006015,0.006204,0.000480,0.134194,0.138091,-0.043265,-0.355198,0.000000,0.000000,0.000000,0.011866,-0.033445,-0.066554,-0.004694,-0.017229,-0.002713,
4.600000,-0.000000,-0.000000,0.098772,-0.000000,0.000000,0.000000,0.000000,0.000000,0.000000,45.000000,-0.069059,3.000000,4.000000,7.000000,3.000000,-1.578211,0.517367,-1.571335,0.508844,0.010687,0.089466,-0.039084,0.000230,0.002344,-0.081466,-1.571335,0.508844,-45.187123,0.014954,0.001160,0.001482,0.014950,0.001209,0.001482,0.010510,0.016990,-0.077911,0.006180,-0.000250,0.012799,0.006294,0.000101,0.012746,0.014216,0.059288,-0.071654,-0.069059,0.437408,0.306875,59.896662,0.109841,0.113243,0.050834,0.006015,0.006204,0.000480,0.136992,0.138091,-0.043265,-0.355198,0.000000,0.000000,0.000000,0.011866,-0.033445,-0.066554,-0.004694,-0.017229,-0.002713,
4.700000,-0.000000,-0.000000,0.098772,-0.000000,0.000000,0.000000,0.000000,0.000000,0.000000,45.000000,0.049262,3.000000,4.000000,7.000000,3.000000,-1.578211,0.517367,-1.571322,0.508841,0.010687,0.089466,-0.039084,0.000230,0.002344,-0.081466,-1.571322,0.508841,-45.187121,0.015592,0.001175,0.002757,0.015588,0.001226,0.002757,0.012040,0.017107,-0.077693,0.006396,-0.000075,0.012806,0.006509,0.000276,0.012746,0.014315,-0.042494,0.050483,0.049262,0.438367,0.308786,59.896671,0.115036,0.118680,0.050919,0.006015,0.006204,0.000480,0.139921,0.138091,-0.043265,-0.355198,0.000000,0.000000,0.000000,0.011866,-0.033445,-0.066554,-0.004694,-0.017229,-0.002713,
4.800000,-0.000000,-0.000000,0.098772,-0.000000,0.000000,0.000000,0.000000,0.000000,0.000000,45.000000,-0.001628,3.000000,4.000000,8.000000,3.000000,-1.578211,0.517367,-1.571482,0.509053,0.010687,0.089466,-0.039084,0.000230,0.002344,-0.081466,-1.571482,0.509053,-45.187954,0.016244,0.001201,0.004031,0.016240,0.001254,0.004031,0.013635,0.017226,-0.077347,0.006265,-0.000176,0.012802,0.006379,0.000175,0.012746,0.014254,0.000763,-0.002952,-0.001628,0.413190,0.291294,59.896680,0.120296,0.124178,0.051008,0.006015,0.006204,0.000480,0.142974,0.138091,-0.043265,-0.355198,0.000000,0.000000,0.000000,0.011866,-0.033445,-0.066554,-0.004694,-0.017229,-0.002713,
4.900000,-0.000000,-0.000000,0.098772,-0.000000,0.000000,0.000000,0.000000,0.000000,0.000000,45.000000,-0.052519,3.000000,4.000000,8.000000,3.000000,-1.578211,0.517367,-1.570738,0.508150,0.010687,0.089466,-0.039084,0.000230,0.002344,-0.081466,-1.570738,0.508150,-45.188766,0.016893,0.001226,0.005305,0.016889,0.001281,0.005305,0.015295,0.017347,-0.076874,0.006330,-0.000126,0.012804,0.006444,0.000225,0.012746,0.014284,0.046565,-0.053842,-0.052519,0.414204,0.293307,59.896689,0.125611,0.129730,0.051103,0.006015,0.006204,0.000480,0.146142,0.138091,-0.043265,-0.355198,0.000000,0.000000,0.000000,0.011866,-0.033445,-0.066554,-0.004694,-0.017229,-0.002713,
5.000000,-0.000000,-0.000000,0.098772,-0.000000,0.000000,0.000000,0.000000,0.000000,0.000000,45.000000,0.065802,3.000000,4.000000,9.000000,3.000000,-1.578211,0.517367,-1.570911,0.508433,0.010687,0.089466,-0.039084,0.000230,0.002344,-0.081466,-1.570911,0.508433,-45.189574,0.017559,0.001263,0.006579,0.017554,0.001321,0.006579,0.017021,0.017472,-0.076273,0.006497,0.000019,0.012810,0.006610,0.000370,0.012746,0.014363,-0.056489,0.068295,0.065802,0.392948,0.278508,59.896698,0.130976,0.135329,0.051202,0.006015,0.006204,0.000480,0.149421,0.138091,-0.043265,-0.355198,0.000000,0.000000,0.000000,0.011866,-0.033445,-0.066554,-0.004694,-0.017229,-0.002713,
5.100000,-0.000000,-0.000000,0.098772,-0.000000,0.000000,0.000000,0.000000,0.000000,0.000000,45.000000,-0.069059,4.000000,5.000000,9.000000,4.000000,-1.578211,0.517367,-1.569451,0.506581,0.010687,0.089466,-0.039084,0.001492,0.002482,-0.081466,-1.569451,0.506581,-45.955426,-0.012473,-0.002270,0.007840,-0.012433,-0.002478,0.007840,-0.010350,0.011190,-0.076766,-0.005803,-0.001283,0.012809,-0.005690,-0.000932,0.012890,0.014121,0.059288,-0.071654,-0.069059,0.394014,0.280613,59.824042,0.078406,0.079274,0.042094,0.004032,0.004064,0.000478,0.116835,-0.346325,-0.039658,0.081274,0.000000,0.000000,0.000000,-0.017197,-0.017484,-0.074979,-0.017624,-0.001265,-0.006707,
5.200000,-0.000000,-0.000000,0.098772,-0.000000,0.000000,0.000000,0.000000,0.000000,0.000000,45.000000,0.049262,4.000000,5.000000,10.000000,4.000000,-1.578211,0.517367,-1.570316,0.507736,0.010687,0.089466,-0.039084,0.001492,0.002482,-0.081466,-1.570316,0.507736,-45.955420,-0.013036,-0.002348,0.009129,-0.012995,-0.002565,0.009129,-0.011628,0.010958,-0.075911,-0.005787,-0.001259,0.012810,-0.005673,-0.000908,0.012891,0.014113,-0.042494,0.050483,0.049262,0.375752,0.267865,59.824051,0.081675,0.082580,0.042189,0.004032,0.004064,0.000478,0.119169,-0.346325,-0.039658,0.081274,0.000000,0.000000,0.000000,-0.017197,-0.017484,-0.074979,-0.017624,-0.001265,-0.006707,
5.300000,-0.000000,-0.000000,0.098772,-0.000000,0.000000,0.000000,0.000000,0.000000,0.000000,45.000000,-0.001628,4.000000,5.000000,10.000000,4.000000,-1.578211,0.517367,-1.569598,0.506807,0.010687,0.089466,-0.039084,0.001492,0.002482,-0.081466,-1.569598,0.506807,-45.956258,-0.013602,-0.002428,0.010418,-0.013560,-0.002655,0.010418,-0.012963,0.010719,-0.074927,-0.005721,-0.001209,0.012812,-0.005607,-0.000858,0.012890,0.014083,0.000763,-0.002952,-0.001628,0.376868,0.270052,59.824060,0.085004,0.085952,0.042288,0.004032,0.004064,0.000478,0.121607,-0.346325,-0.039658,0.081274,0.000000,0.000000,0.000000,-0.017197,-0.017484,-0.074979,-0.017624,-0.001265,-0.006707,
5.400000,-0.000000,-0.000000,0.098772,-0.000000,0.000000,0.000000,0.000000,0.000000,0.000000,45.000000,-0.052519,4.000000,5.000000,11.000000,4.000000,-1.578211,0.517367,-1.569639,0.506947,0.010687,0.089466,-0.039084,0.001492,0.002482,-0.081466,-1.569639,0.506947,-45.957068,-0.014154,-0.002496,0.011707,-0.014110,-0.002732,0.011707,-0.014354,0.010472,-0.073815,-0.005835,-0.001294,0.012809,-0.005721,-0.000943,0.012890,0.014135,0.046565,-0.053842,-0.052519,0.360953,0.258902,59.824069,0.088384,0.089382,0.042393,0.004032,0.004064,0.000478,0.124142,-0.346325,-0.039658,0.081274,0.000000,0.000000,0.000000,-0.017197,-0.017484,-0.074979,-0.017624,-0.001265,-0.006707,
5.500000,-0.000000,-0.000000,0.098772,-0.000000,0.000000,0.000000,0.000000,0.000000,0.000000,45.000000,0.065802,4.000000,5.000000,11.000000,4.000000,-1.578211,0.517367,-1.568895,0.506031,0.010687,0.089466,-0.039084,0.001492,0.002482,-0.081466,-1.568895,0.506031,-45.957880,-0.014705,-0.002563,0.012996,-0.014660,-0.002808,0.012996,-0.015800,0.010219,-0.072573,-0.005463,-0.000992,0.012820,-0.005350,-0.000641,0.012890,0.013971,-0.056489,0.068295,0.065802,0.362114,0.261165,59.824078,0.091812,0.092865,0.042503,0.004032,0.004064,0.000478,0.126771,-0.346325,-0.039658,0.081274,0.000000,0.000000,0.000000,-0.017197,-0.017484,-0.074979,-0.017624,-0.001265,-0.006707,
5.600000,-0.000000,-0.000000,0.098772,-0.000000,0.000000,0.000000,0.000000,0.000000,0.000000,45.000000,-0.069059,4.000000,5.000000,12.000000,4.000000,-1.578211,0.517367,-1.568269,0.505310,0.010687,0.089466,-0.039084,0.001492,0.002482,-0.081466,-1.568269,0.505310,-45.959517,-0.015244,-0.002621,0.014285,-0.015198,-0.002876,0.014285,-0.017300,0.009959,-0.071203,-0.005586,-0.001081,0.012817,-0.005473,-0.000730,0.012890,0.014023,0.059288,-0.071654,-0.069059,0.348081,0.251288,59.824087,0.095280,0.096394,0.042618,0.004032,0.004064,0.000478,0.129489,-0.346325,-0.039658,0.081274,0.000000,0.000000,0.000000,-0.017197,-0.017484,-0.074979,-0.017624,-0.001265,-0.006707,
5.700000,-0.000000,-0.000000,0.098772,-0.000000,0.000000,0.000000,0.000000,0.000000,0.000000,45.000000,0.049262,4.000000,5.000000,12.000000,4.000000,-1.578211,0.517367,-1.568256,0.505307,0.010687,0.089466,-0.039084,0.001492,0.002482,-0.081466,-1.568256,0.505307,-45.959515,-0.015784,-0.002678,0.015574,-0.015737,-0.002942,0.015574,-0.018854,0.009694,-0.069703,-0.005371,-0.000906,0.012823,-0.005257,-0.000555,0.012890,0.013932,-0.042494,0.050483,0.049262,0.349285,0.253618,59.824096,0.098786,0.099964,0.042738,0.004032,0.004064,0.000478,0.132291,-0.346325,-0.039658,0.081274,0.000000,0.000000,0.000000,-0.017197,-0.017484,-0.074979,-0.017624,-0.001265,-0.006707,
5.800000,-0.000000,-0.000000,0.098772,-0.000000,0.000000,0.000000,0.000000,0.000000,0.000000,45.000000,-0.001628,4.000000,5.000000,13.000000,4.000000,-1.578211,0.517367,-1.568356,0.505485,0.010687,0.089466,-0.039084,0.001492,0.002482,-0.081466,-1.568356,0.505485,-45.960350,-0.016310,-0.002724,0.016864,-0.016262,-0.002997,0.016864,-0.020462,0.009424,-0.068075,-0.005495,-0.000997,0.012820,-0.005382,-0.000646,0.012890,0.013984,0.000763,-0.002952,-0.001628,0.336784,0.244770,59.824105,0.102324,0.103570,0.042864,0.004032,0.004064,0.000478,0.135173,-0.346325,-0.039658,0.081274,0.000000,0.000000,0.000000,-0.017197,-0.017484,-0.074979,-0.017624,-0.001265,-0.006707,
5.900000,-0.000000,-0.000000,0.098772,-0.000000,0.000000,0.000000,0.000000,0.000000,0.000000,45.000000,-0.052519,4.000000,5.000000,13.000000,4.000000,-1.578211,0.517367,-1.567612,0.504582,0.010687,0.089466,-0.039084,0.001492,0.002482,-0.081466,-1.567612,0.504582,-45.961162,-0.016837,-0.002770,0.018153,-0.016788,-0.003052,0.018153,-0.022122,0.009149,-0.066318,-0.005430,-0.000947,0.012822,-0.005317,-0.000596,0.012890,0.013956,0.046565,-0.053842,-0.052519,0.338028,0.247162,59.824114,0.105893,0.107210,0.042994,0.004032,0.004064,0.000478,0.138131,-0.346325,-0.039658,0.081274,0.000000,0.000000,0.000000,-0.017197,-0.017484,-0.074979,-0.017624,-0.001265,-0.006707,
6.000000,-0.000000,-0.000000,0.098772,-0.000000,0.000000,0.000000,0.000000,0.000000,0.000000,45.000000,0.065802,4.000000,5.000000,14.000000,4.000000,-1.578211,0.517367,-1.567728,0.504841,0.010687,0.089466,-0.039084,0.001492,0.002482,-0.081466,-1.567728,0.504841,-45.961972,-0.017348,-0.002804,0.019442,-0.017299,-0.003095,0.019442,-0.023834,0.008870,-0.064432,-0.005260,-0.000793,0.012828,-0.005147,-0.000441,0.012890,0.013887,-0.056489,0.068295,0.065802,0.326797,0.239159,59.824123,0.109487,0.110878,0.043129,0.004032,0.004064,0.000478,0.141162,-0.346325,-0.039658,0.081274,0.000000,0.000000,0.000000,-0.017197,-0.017484,-0.074979,-0.017624,-0.001265,-0.006707,
6.100000,-0.000000,-0.000000,0.098772,-0.000000,0.000000,0.000000,0.000000,0.000000,0.000000,45.000000,-0.069059,5.000000,6.000000,14.000000,5.000000,-1.578211,0.517367,-1.566262,0.502989,0.010687,0.089466,-0.039084,0.001520,0.002049,-0.081457,-1.566262,0.502989,-46.598806,-0.017581,0.009707,0.024173,-0.017845,0.009212,0.024173,-0.018268,0.016302,-0.027016,-0.005470,0.003508,0.012742,-0.005359,0.003855,0.012689,0.014303,0.059288,-0.071654,-0.069059,0.328079,0.241606,59.642078,0.071995,0.072387,0.036251,0.002907,0.002901,0.000475,0.112932,-0.232655,0.251723,-0.239361,0.000000,1.000000,0.000000,0.024008,-0.008842,-0.063009,0.017401,0.002809,-0.019571,
6.200000,-0.000000,-0.000000,0.098772,-0.000000,0.000000,0.000000,0.000000,0.000000,0.000000,45.000000,0.049262,5.000000,6.000000,15.000000,5.000000,-1.578211,0.517367,-1.567096,0.504153,0.010687,0.089466,-0.039084,0.001520,0.002049,-0.081457,-1.567096,0.504153,-46.598803,-0.018099,0.010112,0.025442,-0.018374,0.009603,0.025442,-0.020055,0.017294,-0.024529,-0.005455,0.003537,0.012743,-0.005344,0.003885,0.012689,0.014306,-0.042494,0.050483,0.049262,0.317912,0.234303,59.642087,0.074377,0.074833,0.036386,0.002907,0.002901,0.000475,0.115214,-0.232655,0.251723,-0.239361,0.000000,1.000000,0.000000,0.024008,-0.008842,-0.063009,0.017401,0.002809,-0.019571,
6.300000,-0.000000,-0.000000,0.098772,-0.000000,0.000000,0.000000,0.000000,0.000000,0.000000,45.000000,-0.001628,5.000000,6.000000,15.000000,5.000000,-1.578211,0.517367,-1.566378,0.503224,0.010687,0.089466,-0.039084,0.001520,0.002049,-0.081457,-1.566378,0.503224,-46.599640,-0.018620,0.010517,0.026711,-0.018906,0.009994,0.026711,-0.021894,0.018328,-0.021915,-0.005390,0.003587,0.012745,-0.005279,0.003934,0.012689,0.014295,0.000763,-0.002952,-0.001628,0.319230,0.236801,59.642096,0.076788,0.077314,0.036527,0.002907,0.002901,0.000475,0.117568,-0.232655,0.251723,-0.239361,0.000000,1.000000,0.000000,0.024008,-0.008842,-0.063009,0.017401,0.002809,-0.019571,
6.400000,-0.000000,-0.000000,0.098772,-0.000000,0.000000,0.000000,0.000000,0.000000,0.000000,45.000000,-0.052519,5.000000,6.000000,16.000000,5.000000,-1.578211,0.517367,-1.566421,0.503415,0.010687,0.089466,-0.039084,0.001520,0.002049,-0.081457,-1.566421,0.503415,-46.600452,-0.019126,0.010934,0.027980,-0.019424,0.010395,0.027980,-0.023784,0.019403,-0.019174,-0.005512,0.003502,0.012741,-0.005401,0.003849,0.012689,0.014318,0.046565,-0.053842,-0.052519,0.309964,0.230085,59.642105,0.079225,0.079824,0.036673,0.002907,0.002901,0.000475,0.119990,-0.232655,0.251723,-0.239361,0.000000,1.000000,0.000000,0.024008,-0.008842,-0.063009,0.017401,0.002809,-0.019571,
6.500000,-0.000000,-0.000000,0.098772,-0.000000,0.000000,0.000000,0.000000,0.000000,0.000000,45.000000,0.065802,5.000000,6.000000,16.000000,5.000000,-1.578211,0.517367,-1.565678,0.502499,0.010687,0.089466,-0.039084,0.001520,0.002049,-0.081457,-1.565678,0.502499,-46.601264,-0.019632,0.011351,0.029249,-0.019942,0.010798,0.029249,-0.025724,0.020519,-0.016306,-0.005141,0.003804,0.012753,-0.005030,0.004151,0.012689,0.014266,-0.056489,0.068295,0.065802,0.311316,0.232628,59.642114,0.081686,0.082363,0.036825,0.002907,0.002901,0.000475,0.122477,-0.232655,0.251723,-0.239361,0.000000,1.000000,0.000000,0.024008,-0.008842,-0.063009,0.017401,0.002809,-0.019571,
6.600000,-0.000000,-0.000000,0.098772,-0.000000,0.000000,0.000000,0.000000,0.000000,0.000000,45.000000,-0.069059,5.000000,6.000000,17.000000,5.000000,-1.578211,0.517367,-1.565047,0.501824,0.010687,0.089466,-0.039084,0.001520,0.002049,-0.081457,-1.565047,0.501824,-46.602904,-0.020127,0.011778,0.030518,-0.020448,0.011210,0.030518,-0.027715,0.021677,-0.013312,-0.005271,0.003715,0.012749,-0.005160,0.004062,0.012689,0.014288,0.059288,-0.071654,-0.069059,0.302822,0.226407,59.642123,0.084169,0.084925,0.036982,0.002907,0.002901,0.000475,0.125027,-0.232655,0.251723,-0.239361,0.000000,1.000000,0.000000,0.024008,-0.008842,-0.063009,0.017401,0.002809,-0.019571,
6.700000,-0.000000,-0.000000,0.098772,-0.000000,0.000000,0.000000,0.000000,0.000000,0.000000,45.000000,0.049262,5.000000,6.000000,17.000000,5.000000,-1.578211,0.517367,-1.565035,0.501822,0.010687,0.089466,-0.039084,0.001520,0.002049,-0.081457,-1.565035,0.501822,-46.602901,-0.020623,0.012205,0.031787,-0.020956,0.011623,0.031787,-0.029755,0.022878,-0.010190,-0.005056,0.003890,0.012756,-0.004945,0.004237,0.012689,0.014262,-0.042494,0.050483,0.049262,0.304205,0.228991,59.642132,0.086673,0.087511,0.037144,0.002907,0.002901,0.000475,0.127637,-0.232655,0.251723,-0.239361,0.000000,1.000000,0.000000,0.024008,-0.008842,-0.063009,0.017401,0.002809,-0.019571,
6.800000,-0.000000,-0.000000,0.098772,-0.000000,0.000000,0.000000,0.000000,0.000000,0.000000,45.000000,-0.001628,5.000000,6.000000,18.000000,5.000000,-1.578211,0.517367,-1.565141,0.502061,0.010687,0.089466,-0.039084,0.001520,0.002050,-0.081457,-1.565141,0.502061,-46.603738,-0.021104,0.012643,0.033056,-0.021449,0.012047,0.033056,-0.031843,0.024123,-0.006942,-0.005191,0.003798,0.012752,-0.005080,0.004145,0.012689,0.014283,0.000763,-0.002952,-0.001628,0.296377,0.223192,59.642141,0.089194,0.090117,0.037312,0.002907,0.002901,0.000475,0.130306,-0.232655,0.251723,-0.239361,0.000000,1.000000,0.000000,0.024008,-0.008842,-0.063009,0.017401,0.002809,-0.019571,
6.900000,-0.000000,-0.000000,0.098772,-0.000000,0.000000,0.000000,0.000000,0.000000,0.000000,45.000000,-0.052519,5.000000,6.000000,18.000000,5.000000,-1.578211,0.517367,-1.564398,0.501158,0.010687,0.089466,-0.039084,0.001520,0.002050,-0.081457,-1.564398,0.501158,-46.604550,-0.021588,0.013081,0.034325,-0.021946,0.012471,0.034325,-0.033981,0.025411,-0.003567,-0.005126,0.003848,0.012754,-0.005015,0.004195,0.012689,0.014274,0.046565,-0.053842,-0.052519,0.297791,0.225813,59.642150,0.091732,0.092742,0.037485,0.002907,0.002901,0.000475,0.133030,-0.232655,0.251723,-0.239361,0.000000,1.000000,0.000000,0.024008,-0.008842,-0.063009,0.017401,0.002809,-0.019571,
7.000000,-0.000000,-0.000000,0.098772,-0.000000,0.000000,0.000000,0.000000,0.000000,0.000000,45.000000,0.065802,5.000000,6.000000,19.000000,5.000000,-1.578211,0.517367,-1.564517,0.501476,0.010687,0.089466,-0.039084,0.001520,0.002050,-0.081457,-1.564517,0.501476,-46.605362,-0.022056,0.013531,0.035594,-0.022426,0.012908,0.035594,-0.036165,0.026744,-0.000064,-0.004966,0.004002,0.012760,-0.004855,0.004349,0.012689,0.014265,-0.056489,0.068295,0.065802,0.290542,0.220374,59.642159,0.094285,0.095383,0.037663,0.002907,0.002901,0.000475,0.135809,-0.232655,0.251723,-0.239361,0.000000,1.000000,0.000000,0.024008,-0.008842,-0.063009,0.017401,0.002809,-0.019571,
7.100000,-0.000000,-0.000000,0.098772,-0.000000,0.000000,0.000000,0.000000,0.000000,0.000000,45.000000,-0.069059,6.000000,7.000000,19.000000,6.000000,-1.578211,0.517367,-1.563165,0.499606,0.010687,0.089466,-0.039084,0.001586,0.001481,-0.081390,-1.563165,0.499606,-48.158547,-0.022740,0.033886,0.015498,-0.024573,0.032582,0.015498,-0.036747,0.043854,-0.080495,-0.005536,0.009611,0.012099,-0.005432,0.009937,0.011880,0.016413,0.059288,-0.071654,-0.069059,0.291983,0.223028,59.442854,0.066252,0.066678,0.032155,0.002219,0.002193,0.000470,0.110405,-0.319348,0.663531,-0.532396,0.000000,2.000000,0.000000,0.036386,-0.026880,0.001520,0.022104,-0.013575,-0.035721,
7.200000,-0.000000,-0.000000,0.098772,-0.000000,0.000000,0.000000,0.000000,0.000000,0.000000,45.000000,0.049262,6.000000,7.000000,20.000000,6.000000,-1.578211,0.517367,-1.564004,0.500841,0.010687,0.089466,-0.039084,0.001586,0.001481,-0.081390,-1.564004,0.500841,-48.158544,-0.023221,0.034913,0.016686,-0.025110,0.033581,0.016686,-0.039048,0.047299,-0.078879,-0.005533,0.009639,0.012100,-0.005429,0.009966,0.011880,0.016430,-0.042494,0.050483,0.049262,0.285242,0.217899,59.442863,0.068071,0.068570,0.032335,0.002219,0.002193,0.000470,0.112571,-0.319348,0.663531,-0.532396,0.000000,2.000000,0.000000,0.036386,-0.026880,0.001520,0.022104,-0.013575,-0.035721,
7.300000,-0.000000,-0.000000,0.098772,-0.000000,0.000000,0.000000,0.000000,0.000000,0.000000,45.000000,-0.001628,6.000000,7.000000,20.000000,6.000000,-1.578211,0.517367,-1.563286,0.499912,0.010687,0.089466,-0.039084,0.001586,0.001481,-0.081390,-1.563286,0.499912,-48.159381,-0.023706,0.035940,0.017874,-0.025650,0.034579,0.017874,-0.041396,0.050847,-0.077146,-0.005467,0.009689,0.012102,-0.005364,0.010016,0.011880,0.016438,0.000763,-0.002952,-0.001628,0.286710,0.220583,59.442872,0.069915,0.070482,0.032521,0.002219,0.002193,0.000470,0.114791,-0.319348,0.663531,-0.532396,0.000000,2.000000,0.000000,0.036386,-0.026880,0.001520,0.022104,-0.013575,-0.035721,
7.400000,-0.000000,-0.000000,0.098772,-0.000000,0.000000,0.000000,0.000000,0.000000,0.000000,45.000000,-0.052519,6.000000,7.000000,21.000000,6.000000,-1.578211,0.517367,-1.563350,0.500190,0.010687,0.089466,-0.039084,0.001586,0.001481,-0.081390,-1.563350,0.500190,-48.160194,-0.024175,0.036977,0.019062,-0.026177,0.035588,0.019062,-0.043793,0.054498,-0.075293,-0.005605,0.009600,0.012098,-0.005501,0.009927,0.011880,0.016430,0.046565,-0.053842,-0.052519,0.280414,0.215722,59.442881,0.071781,0.072411,0.032712,0.002219,0.002193,0.000470,0.117065,-0.319348,0.663531,-0.532396,0.000000,2.000000,0.000000,0.036386,-0.026880,0.001520,0.022104,-0.013575,-0.035721,
7.500000,-0.000000,-0.000000,0.098772,-0.000000,0.000000,0.000000,0.000000,0.000000,0.000000,45.000000,0.065802,6.000000,7.000000,21.000000,6.000000,-1.578211,0.517367,-1.562607,0.499274,0.010687,0.089466,-0.039084,0.001586,0.001481,-0.081390,-1.562607,0.499274,-48.161006,-0.024646,0.038016,0.020250,-0.026705,0.036599,0.020250,-0.046236,0.058252,-0.073321,-0.005233,0.009902,0.012110,-0.005130,0.010229,0.011880,0.016495,-0.056489,0.068295,0.065802,0.281908,0.218433,59.442890,0.073669,0.074357,0.032908,0.002219,0.002193,0.000470,0.119389,-0.319348,0.663531,-0.532396,0.000000,2.000000,0.000000,0.036386,-0.026880,0.001520,0.022104,-0.013575,-0.035721,
7.600000,-0.000000,-0.000000,0.098772,-0.000000,0.000000,0.000000,0.000000,0.000000,0.000000,45.000000,-0.069059,6.000000,7.000000,22.000000,6.000000,-1.578211,0.517367,-1.561994,0.498683,0.010687,0.089466,-0.039084,0.001586,0.001481,-0.081390,-1.561994,0.498683,-48.162646,-0.025106,0.039063,0.021438,-0.027223,0.037618,0.021438,-0.048726,0.062111,-0.071231,-0.005378,0.009811,0.012106,-0.005275,0.010137,0.011880,0.016484,0.059288,-0.071654,-0.069059,0.276007,0.213804,59.442899,0.075577,0.076316,0.033110,0.002219,0.002193,0.000470,0.121764,-0.319348,0.663531,-0.532396,0.000000,2.000000,0.000000,0.036386,-0.026880,0.001520,0.022104,-0.013575,-0.035721,
7.700000,-0.000000,-0.000000,0.098772,-0.000000,0.000000,0.000000,0.000000,0.000000,0.000000,45.000000,0.049262,6.000000,7.000000,22.000000,6.000000,-1.578211,0.517367,-1.561981,0.498681,0.010687,0.089466,-0.039084,0.001586,0.001481,-0.081390,-1.561981,0.498681,-48.162643,-0.025568,0.040110,0.022626,-0.027742,0.038639,0.022626,-0.051263,0.066075,-0.069022,-0.005163,0.009986,0.012113,-0.005059,0.010312,0.011880,0.016525,-0.042494,0.050483,0.049262,0.277524,0.216538,59.442909,0.077502,0.078290,0.033317,0.002219,0.002193,0.000470,0.124187,-0.319348,0.663531,-0.532396,0.000000,2.000000,0.000000,0.036386,-0.026880,0.001520,0.022104,-0.013575,-0.035721,
7.800000,-0.000000,-0.000000,0.098772,-0.000000,0.000000,0.000000,0.000000,0.000000,0.000000,45.000000,-0.001628,6.000000,7.000000,23.000000,6.000000,-1.578211,0.517367,-1.562110,0.499007,0.010687,0.089466,-0.039084,0.001586,0.001481,-0.081390,-1.562110,0.499007,-48.163481,-0.026015,0.041169,0.023814,-0.028247,0.039670,0.023814,-0.053844,0.070144,-0.066694,-0.005313,0.009890,0.012109,-0.005209,0.010216,0.011881,0.016512,0.000763,-0.002952,-0.001628,0.271975,0.212111,59.442918,0.079445,0.080275,0.033529,0.002219,0.002193,0.000470,0.126658,-0.319348,0.663531,-0.532396,0.000000,2.000000,0.000000,0.036386,-0.026880,0.001520,0.022104,-0.013575,-0.035721,
7.900000,-0.000000,-0.000000,0.098772,-0.000000,0.000000,0.000000,0.000000,0.000000,0.000000,45.000000,-0.052519,6.000000,7.000000,23.000000,6.000000,-1.578211,0.517367,-1.561366,0.498104,0.010687,0.089466,-0.039084,0.001586,0.001481,-0.081390,-1.561366,0.498104,-48.164293,-0.026466,0.042226,0.025002,-0.028757,0.040701,0.025002,-0.056470,0.074319,-0.064247,-0.005248,0.009940,0.012111,-0.005144,0.010266,0.011881,0.016523,0.046565,-0.053842,-0.052519,0.273514,0.214867,59.442927,0.081404,0.082273,0.033746,0.002219,0.002193,0.000470,0.129175,-0.319348,0.663531,-0.532396,0.000000,2.000000,0.000000,0.036386,-0.026880,0.001520,0.022104,-0.013575,-0.035721,
8.000000,-0.000000,-0.000000,0.098772,-0.000000,0.000000,0.000000,0.000000,0.000000,0.000000,45.000000,0.065802,6.000000,7.000000,24.000000,6.000000,-1.578211,0.517367,-1.561505,0.498509,0.010687,0.089466,-0.039084,0.001586,0.001481,-0.081390,-1.561505,0.498509,-48.165106,-0.026901,0.043296,0.026190,-0.029251,0.041745,0.026190,-0.059141,0.078601,-0.061682,-0.005102,0.010090,0.012116,-0.004999,0.010417,0.011881,0.016573,-0.056489,0.068295,0.065802,0.268278,0.210615,59.442936,0.083379,0.084279,0.033968,0.002219,0.002193,0.000470,0.131737,-0.319348,0.663531,-0.532396,0.000000,2.000000,0.000000,0.036386,-0.026880,0.001520,0.022104,-0.013575,-0.035721,
8.100000,-0.000000,-0.000000,0.098772,-0.000000,0.000000,0.000000,0.000000,0.000000,0.000000,45.000000,-0.069059,7.000000,8.000000,24.000000,7.000000,-1.578211,0.517367,-1.560062,0.496667,0.010687,0.089466,-0.039084,0.001225,0.001942,-0.081377,-1.560062,0.496667,-46.814228,-0.012812,0.023673,0.025860,-0.013555,0.023256,0.025860,-0.029504,0.046916,-0.064117,-0.001493,0.005619,0.011996,-0.001390,0.005943,0.011851,0.013330,0.059288,-0.071654,-0.069059,0.269838,0.213391,59.201379,0.061393,0.061783,0.029377,0.001779,0.001730,0.000462,0.108425,0.054360,-0.052978,0.103626,0.000000,2.000000,1.000000,0.059410,-0.079035,-0.060191,0.026947,-0.043402,-0.026309,
8.200000,-0.000000,-0.000000,0.098772,-0.000000,0.000000,0.000000,0.000000,0.000000,0.000000,45.000000,0.049262,7.000000,8.000000,25.000000,7.000000,-1.578211,0.517367,-1.560930,0.497989,0.010687,0.089466,-0.039084,0.001225,0.001942,-0.081377,-1.560930,0.497989,-46.814221,-0.012925,0.024277,0.027045,-0.013687,0.023856,0.027045,-0.030792,0.049316,-0.061466,-0.001505,0.005643,0.011996,-0.001402,0.005967,0.011851,0.013342,-0.042494,0.050483,0.049262,0.264884,0.209293,59.201389,0.062869,0.063260,0.029601,0.001779,0.001730,0.000462,0.110471,0.054360,-0.052978,0.103626,0.000000,2.000000,1.000000,0.059410,-0.079035,-0.060191,0.026947,-0.043402,-0.026309,
8.300000,-0.000000,-0.000000,0.098772,-0.000000,0.000000,0.000000,0.000000,0.000000,0.000000,45.000000,-0.001628,7.000000,8.000000,25.000000,7.000000,-1.578211,0.517367,-1.560212,0.497060,0.010687,0.089466,-0.039084,0.001225,0.001942,-0.081377,-1.560212,0.497060,-46.815059,-0.013043,0.024880,0.028230,-0.013825,0.024454,0.028230,-0.032091,0.051777,-0.058696,-0.001439,0.005692,0.011998,-0.001337,0.006017,0.011851,0.013358,0.000763,-0.002952,-0.001628,0.266464,0.212086,59.201398,0.064357,0.064747,0.029830,0.001779,0.001730,0.000462,0.112563,0.054360,-0.052978,0.103626,0.000000,2.000000,1.000000,0.059410,-0.079035,-0.060191,0.026947,-0.043402,-0.026309,
8.400000,-0.000000,-0.000000,0.098772,-0.000000,0.000000,0.000000,0.000000,0.000000,0.000000,45.000000,-0.052519,7.000000,8.000000,26.000000,7.000000,-1.578211,0.517367,-1.560315,0.497432,0.010687,0.089466,-0.039084,0.001225,0.001942,-0.081377,-1.560315,0.497432,-46.815869,-0.013147,0.025493,0.029415,-0.013948,0.025064,0.029415,-0.033401,0.054299,-0.055808,-0.001593,0.005597,0.011994,-0.001490,0.005921,0.011851,0.013331,0.046565,-0.053842,-0.052519,0.261762,0.208123,59.201407,0.065856,0.066244,0.030064,0.001779,0.001730,0.000462,0.114701,0.054360,-0.052978,0.103626,0.000000,2.000000,1.000000,0.059410,-0.079035,-0.060191,0.026947,-0.043402,-0.026309,
8.500000,-0.000000,-0.000000,0.098772,-0.000000,0.000000,0.000000,0.000000,0.000000,0.000000,45.000000,0.065802,7.000000,8.000000,26.000000,7.000000,-1.578211,0.517367,-1.559572,0.496517,0.010687,0.089466,-0.039084,0.001225,0.001942,-0.081377,-1.559572,0.496517,-46.816681,-0.013254,0.026108,0.030600,-0.014075,0.025674,0.030600,-0.034722,0.056882,-0.052802,-0.001221,0.005899,0.012006,-0.001118,0.006224,0.011851,0.013432,-0.056489,0.068295,0.065802,0.263361,0.210932,59.201416,0.067364,0.067750,0.030303,0.001779,0.001730,0.000462,0.116884,0.054360,-0.052978,0.103626,0.000000,2.000000,1.000000,0.059410,-0.079035,-0.060191,0.026947,-0.043402,-0.026309,
8.600000,-0.000000,-0.000000,0.098772,-0.000000,0.000000,0.000000,0.000000,0.000000,0.000000,45.000000,-0.069059,7.000000,8.000000,27.000000,7.000000,-1.578211,0.517367,-1.558994,0.496017,0.010687,0.089466,-0.039084,0.001225,0.001942,-0.081377,-1.558994,0.496017,-46.818318,-0.013350,0.026731,0.031785,-0.014191,0.026294,0.031785,-0.036052,0.059527,-0.049676,-0.001382,0.005801,0.012002,-0.001279,0.006126,0.011851,0.013402,0.059288,-0.071654,-0.069059,0.258886,0.207087,59.201425,0.068882,0.069264,0.030548,0.001779,0.001730,0.000462,0.119111,0.054360,-0.052978,0.103626,0.000000,2.000000,1.000000,0.059410,-0.079035,-0.060191,0.026947,-0.043402,-0.026309,
8.700000,-0.000000,-0.000000,0.098772,-0.000000,0.000000,0.000000,0.000000,0.000000,0.000000,45.000000,0.049262,7.000000,8.000000,27.000000,7.000000,-1.578211,0.517367,-1.558981,0.496014,0.010687,0.089466,-0.039084,0.001225,0.001942,-0.081377,-1.558981,0.496014,-46.818315,-0.013450,0.027353,0.032971,-0.014311,0.026913,0.032971,-0.037393,0.062234,-0.046433,-0.001166,0.005976,0.012008,-0.001064,0.006301,0.011851,0.013464,-0.042494,0.050483,0.049262,0.260503,0.209909,59.201434,0.070409,0.070787,0.030797,0.001779,0.001730,0.000462,0.121381,0.054360,-0.052978,0.103626,0.000000,2.000000,1.000000,0.059410,-0.079035,-0.060191,0.026947,-0.043402,-0.026309,
8.800000,-0.000000,-0.000000,0.098772,-0.000000,0.000000,0.000000,0.000000,0.000000,0.000000,45.000000,-0.001628,7.000000,8.000000,28.000000,7.000000,-1.578211,0.517367,-1.559148,0.496433,0.010687,0.089466,-0.039084,0.001225,0.001943,-0.081377,-1.559148,0.496433,-46.819149,-0.013535,0.027987,0.034155,-0.014416,0.027544,0.034155,-0.038743,0.065004,-0.043070,-0.001332,0.005874,0.012004,-0.001230,0.006199,0.011851,0.013431,0.000763,-0.002952,-0.001628,0.256235,0.206169,59.201443,0.071944,0.072316,0.031050,0.001779,0.001730,0.000462,0.123695,0.054360,-0.052978,0.103626,0.000000,2.000000,1.000000,0.059410,-0.079035,-0.060191,0.026947,-0.043402,-0.026309,
8.900000,-0.000000,-0.000000,0.098772,-0.000000,0.000000,0.000000,0.000000,0.000000,0.000000,45.000000,-0.052519,7.000000,8.000000,28.000000,7.000000,-1.578211,0.517367,-1.558404,0.495530,0.010687,0.089466,-0.039084,0.001225,0.001943,-0.081377,-1.558404,0.495530,-46.819962,-0.013626,0.028620,0.035341,-0.014528,0.028173,0.035341,-0.040101,0.067837,-0.039590,-0.001267,0.005924,0.012006,-0.001165,0.006248,0.011851,0.013448,0.046565,-0.053842,-0.052519,0.257868,0.209003,59.201452,0.073486,0.073853,0.031309,0.001779,0.001730,0.000462,0.126051,0.054360,-0.052978,0.103626,0.000000,2.000000,1.000000,0.059410,-0.079035,-0.060191,0.026947,-0.043402,-0.026309,
9.000000,-0.000000,-0.000000,0.098772,-0.000000,0.000000,0.000000,0.000000,0.000000,0.000000,45.000000,0.065802,7.000000,8.000000,29.000000,7.000000,-1.578211,0.517367,-1.558579,0.496024,0.010687,0.089466,-0.039084,0.001225,0.001943,-0.081377,-1.558579,0.496024,-46.820771,-0.013701,0.029265,0.036526,-0.014624,0.028815,0.036526,-0.041468,0.070735,-0.035991,-0.001137,0.006069,0.012011,-0.001035,0.006393,0.011851,0.013505,-0.056489,0.068295,0.065802,0.253788,0.205355,59.201461,0.075036,0.075395,0.031571,0.001779,0.001730,0.000462,0.128449,0.054360,-0.052978,0.103626,0.000000,2.000000,1.000000,0.059410,-0.079035,-0.060191,0.026947,-0.043402,-0.026309,
