Time ,N (m),E (m),gndAlt,velLL X  ,velLL Y  ,velLL Z  ,Roll ,Pitch,Yaw  ,Body Accel Z,Baro Altitude,GPS posENU[0],GPS posENU[1],GPS posENU[2],Nav Acc Z,Nav Yaw Rate,Baro Update Count,GPS Update Count,Accel Update Count,Ground Align Update Count,Nav Roll,Nav Pitch,Accel Bias X (g),Accel Bias Y (g),Accel Bias Z (g),Gravity,Gravity Bias,Roll Error,Pitch Error,Yaw Error,Vel N Error,Vel E Error,Vel D Error,N Error (m),E Error (m),Alt Error (m),Acc Body X Error,Acc Body Y Error,Acc Body Z Error,p Error,q Error,r Error,VN Stdev,VE Stdev,Accel Bias X Stdev,Accel Bias Y Stdev,GPSResidual[GPS_N],GPSResidual[GPS_E],GPSResidual[GPS_ALT],GPSResidual[GPS_VN],GPSResidual[GPS_VE],GPSResidual[GPS_VD],onGround,movingDetection,
0.500000,-0.004709,-0.000000,0.101886,-0.006545,0.006549,0.002315,9.995154,10.143569,45.020239,-0.000319,0.000000,0.000000,0.000000,0.000000,0.000000,0.000000,0.000000,0.000000,0.000000,0.000000,0.000000,0.000000,0.000000,0.000000,0.000000,9.819500,0.000000,0.000000,0.000000,0.000000,0.000000,0.000000,0.000000,0.000000,0.000000,0.000000,0.000000,0.000000,0.000000,0.000000,0.000000,0.000000,0.000000,0.000000,0.000000,0.000000,0.000000,0.000000,0.000000,0.000000,0.000000,0.000000,1.000000,0.000000,
1.000000,-0.009356,-0.000000,0.101886,-0.006765,0.006770,0.002393,9.995033,10.143446,45.020229,-0.000350,0.000000,0.000000,0.000000,0.000000,0.000000,0.000000,0.000000,0.000000,0.000000,0.000000,0.000000,0.000000,0.000000,0.000000,0.000000,9.819500,0.000000,0.000000,0.000000,0.000000,0.000000,0.000000,0.000000,0.000000,0.000000,0.000000,0.000000,0.000000,0.000000,0.000000,0.000000,0.000000,0.000000,0.000000,0.000000,0.000000,0.000000,0.000000,0.000000,0.000000,0.000000,0.000000,1.000000,0.000000,
1.500000,-0.014003,-0.000000,0.101886,-0.006761,0.006765,0.002391,9.994905,10.143660,45.019256,-0.000364,0.000000,0.000000,0.000000,0.000000,0.000000,0.000000,0.000000,0.000000,0.000000,0.000000,6.414444,8.831687,0.000000,0.000000,0.000000,9.819500,0.000000,0.000000,0.000000,0.000000,0.000000,0.000000,0.000000,0.000000,0.000000,-0.000000,0.000000,0.000000,0.000000,0.000000,0.000000,0.000000,0.333333,0.333333,0.016667,0.016667,0.000000,0.000000,0.000000,0.000000,0.000000,0.000000,1.000000,0.000000,
2.000000,-0.018687,-0.000000,0.101928,-0.006766,0.006771,0.002393,9.994867,10.143705,45.019015,-0.000402,0.000000,0.000000,0.000000,0.000000,0.063200,0.067710,0.000000,1.000000,0.000000,0.000000,6.416518,8.828719,0.031868,-0.029716,-0.067711,9.819496,0.000001,-3.578433,-1.315051,-45.030196,0.001061,-0.016541,0.024326,0.015690,-0.004964,0.005349,0.095400,-0.090054,0.063564,-0.039398,0.088123,0.050477,0.257091,0.252498,0.019547,0.012714,-0.000005,0.000006,-0.000007,-0.020528,-0.029425,0.050731,1.000000,0.000000,
2.500000,-0.023380,-0.000000,0.101928,-0.006896,0.006900,0.002439,9.994699,10.143786,45.018304,-0.000391,0.078933,-0.513510,-0.432232,2.112000,0.063732,0.074071,1.000000,2.000000,0.000000,1.000000,6.419422,8.824736,0.031642,-0.029797,-0.067684,9.819447,-0.000042,-3.575421,-1.319193,-45.022235,0.011203,-0.001254,0.000891,0.019656,-0.005587,-0.060606,-0.463689,0.455160,0.062184,-0.102954,0.024217,0.068543,0.142254,0.123140,0.018965,0.012550,-0.432220,-0.513490,2.112061,-0.000151,-0.029645,-0.011167,1.000000,0.000000,
3.000000,-0.028072,0.000000,0.101929,-0.006698,0.006701,0.002369,9.994436,10.144303,45.016085,-0.000430,0.078933,-0.513510,-0.432232,2.112000,0.063788,0.058804,1.000000,2.000000,0.000000,1.000000,6.421985,8.820706,0.031642,-0.029797,-0.067684,9.819447,-0.000042,-3.572463,-1.323575,-45.026108,0.014566,-0.001903,0.003277,0.026424,-0.006570,-0.059732,0.035446,-0.027087,0.064031,-0.081660,0.044967,0.068313,0.237838,0.192320,0.018965,0.012550,-0.432220,-0.513490,2.112061,-0.000151,-0.029645,-0.011167,1.000000,0.000000,
3.500000,-0.032765,0.000000,0.101928,-0.006606,0.006610,0.002336,9.994069,10.144651,45.014039,-0.000365,-0.013768,-0.335819,0.273377,-5.290667,0.057513,0.068982,2.000000,3.000000,1.000000,2.000000,6.581925,8.866622,0.031767,-0.029808,-0.067504,9.819201,-0.000296,-3.412091,-1.277971,-45.024436,0.012126,0.001833,-0.003382,0.032479,-0.004118,-0.022083,-0.471997,0.482426,0.055962,-0.102989,0.024142,0.069041,0.125886,0.118516,0.012039,0.009749,0.275559,-0.333056,-5.332479,-0.009500,0.019092,-0.311649,1.000000,0.000000,
4.000000,-0.037459,0.000000,0.101929,-0.006625,0.006627,0.002343,9.993671,10.144981,45.011955,-0.000363,-0.013768,-0.335819,0.273377,-5.290667,0.033038,0.080433,2.000000,3.000000,4.000000,2.000000,7.267110,9.258620,0.031770,-0.029811,-0.067505,9.819202,-0.000295,-2.726487,-0.886320,-45.028535,0.001143,0.034777,-0.001369,0.036648,0.003673,-0.023413,-0.520832,0.579515,0.031485,-0.102816,0.023019,0.068605,0.194298,0.178247,0.012039,0.009749,0.275559,-0.333056,-5.332479,-0.009500,0.019092,-0.311649,1.000000,0.000000,
4.500000,-0.042151,0.000000,0.101929,-0.006769,0.006771,0.002394,9.993419,10.145137,45.010780,-0.000415,0.090876,1.075925,1.975520,-1.951250,0.040489,0.063893,3.000000,4.000000,6.000000,3.000000,7.038201,9.184163,0.031522,-0.028719,-0.067556,9.819298,-0.000201,-2.955287,-0.961036,-45.027410,-0.021493,0.054306,-0.000327,0.041955,0.007214,-0.041364,-0.029160,0.068937,0.040944,-0.023942,0.104301,0.069508,0.119763,0.115229,0.009389,0.008170,1.974089,1.086064,-1.971682,-0.045887,-0.099073,0.089708,1.000000,0.000000,
5.000000,-0.046844,0.000000,0.101928,-0.006803,0.006805,0.002406,9.992906,10.145658,45.007820,-0.000432,0.090876,1.075925,1.975520,-1.951250,0.022224,0.052443,3.000000,4.000000,9.000000,3.000000,7.470900,9.509335,0.031522,-0.028719,-0.067552,9.819292,-0.000207,-2.522066,-0.636343,-45.031364,-0.058750,0.114143,0.002970,0.023002,0.047779,-0.040608,-0.497198,0.541390,0.021069,-0.088309,0.039292,0.047827,0.179112,0.169946,0.009389,0.008170,1.974089,1.086064,-1.971682,-0.045887,-0.099073,0.089708,1.000000,0.000000,
5.500000,-0.051537,0.000000,0.101929,-0.006589,0.006590,0.002330,9.992847,10.145872,45.007051,-0.000366,-0.083182,-1.768430,0.640590,-0.279400,0.020529,0.058804,4.000000,5.000000,11.000000,4.000000,7.543485,9.599880,0.029687,-0.026187,-0.067769,9.819638,0.000139,-2.449330,-0.545927,-45.031370,-0.042732,0.080816,0.002677,0.049301,0.005582,-0.018960,-0.575757,0.605863,0.018977,-0.102005,0.022677,0.068995,0.116931,0.113390,0.007960,0.007179,0.632361,-1.758195,-0.311332,0.088552,0.016572,0.259348,1.000000,0.000000,
6.000000,-0.056231,0.000000,0.101929,-0.006493,0.006494,0.002296,9.992488,10.146204,45.005070,-0.000242,-0.083182,-1.768430,0.640590,-0.279400,0.020145,0.066438,4.000000,5.000000,14.000000,4.000000,7.529366,9.624551,0.029687,-0.026187,-0.067769,9.819638,0.000139,-2.463017,-0.521540,-45.035303,-0.095850,0.155441,0.003083,0.014705,0.064826,-0.017742,-0.084232,0.125120,0.020597,-0.024323,0.103867,0.068791,0.171973,0.165276,0.007960,0.007179,0.632361,-1.758195,-0.311332,0.088552,0.016572,0.259348,1.000000,0.000000,
6.500000,-0.060925,0.000000,0.101928,-0.006624,0.006625,0.002342,9.992195,10.146434,45.003578,-0.000366,0.047214,1.061254,-0.546754,0.663833,0.020437,0.080433,5.000000,6.000000,16.000000,5.000000,7.586968,9.682315,0.027529,-0.023397,-0.068052,9.820087,0.000588,-2.405154,-0.464077,-45.035556,-0.037947,0.063960,-0.001438,0.058823,0.005786,-0.028803,-0.551070,0.569542,0.018885,-0.102862,0.022957,0.068887,0.115314,0.112241,0.007034,0.006485,-0.557802,1.074377,0.653097,0.009313,-0.003556,0.199935,1.000000,0.000000,
7.000000,-0.065618,0.000000,0.101928,-0.006767,0.006767,0.002393,9.991851,10.146680,45.001880,-0.000411,0.047214,1.061254,-0.546754,0.663833,0.020759,0.062621,5.000000,6.000000,19.000000,5.000000,7.562866,9.690235,0.027530,-0.023398,-0.068053,9.820088,0.000589,-2.429056,-0.456505,-45.039439,-0.086713,0.127733,-0.003177,0.027652,0.053902,-0.030172,-0.074885,0.103842,0.021216,-0.023949,0.104304,0.069765,0.167839,0.162326,0.007034,0.006485,-0.557802,1.074377,0.653097,0.009313,-0.003556,0.199935,1.000000,0.000000,
7.500000,-0.070310,0.000000,0.101929,-0.006789,0.006789,0.002400,9.991757,10.146771,45.001356,0.000005,-0.069045,0.750353,3.017706,-0.288143,0.029066,0.071527,6.000000,7.000000,21.000000,6.000000,7.418452,9.619395,0.025916,-0.021421,-0.068328,9.820509,0.001010,-2.573348,-0.527413,-45.041102,-0.031556,0.049357,-0.006579,0.065390,0.018704,-0.019904,-0.047162,0.060579,0.029522,-0.023331,0.103617,0.068340,0.114265,0.111450,0.006373,0.005962,3.017493,0.745882,-0.302398,0.009103,-0.122146,-0.119636,1.000000,0.000000,
8.000000,-0.075003,0.000000,0.101928,-0.006700,0.006700,0.002369,9.991488,10.147117,44.999595,-0.000388,-0.069045,0.750353,3.017706,-0.288143,0.021845,0.054987,6.000000,7.000000,24.000000,6.000000,7.594464,9.730964,0.025912,-0.021418,-0.068315,9.820490,0.000991,-2.397035,-0.416151,-45.044948,-0.073984,0.101290,-0.009246,0.039635,0.055648,-0.024035,-0.561070,0.568791,0.020291,-0.102997,0.024197,0.068754,0.165136,0.160282,0.006373,0.005962,3.017493,0.745882,-0.302398,0.009103,-0.122146,-0.119636,1.000000,0.000000,
8.500000,-0.079697,0.000000,0.101929,-0.006605,0.006604,0.002335,9.991342,10.147341,44.998544,-0.000363,-0.269373,1.503687,0.189148,-1.431867,0.023325,0.065165,7.000000,8.000000,26.000000,7.000000,7.626399,9.763247,0.024760,-0.020087,-0.068592,9.820904,0.001405,-2.364898,-0.384035,-45.046156,-0.037602,0.058587,-0.003166,0.073640,0.021812,0.014352,-0.555312,0.561005,0.021777,-0.102500,0.023409,0.068922,0.113529,0.110868,0.005870,0.005550,0.183329,1.499723,-1.436116,-0.011577,-0.000580,0.001049,1.000000,0.000000,
9.000000,-0.084391,0.000000,0.101928,-0.006509,0.006509,0.002301,9.991068,10.147550,44.997162,-0.000245,-0.269373,1.503687,0.189148,-1.431867,0.024100,0.066438,7.000000,8.000000,29.000000,7.000000,7.597955,9.758924,0.024760,-0.020087,-0.068594,9.820906,0.001407,-2.393012,-0.388532,-45.050100,-0.079380,0.109397,-0.006284,0.043952,0.064377,0.011902,-0.041503,0.059925,0.024548,-0.028259,0.097507,0.063646,0.163225,0.158775,0.005870,0.005550,0.183329,1.499723,-1.436116,-0.011577,-0.000580,0.001049,1.000000,0.000000,
9.500000,-0.089085,0.000000,0.101928,-0.006527,0.006526,0.002307,9.990753,10.147794,44.995558,-0.000244,-0.279850,-0.937767,-1.391592,0.157625,0.031683,0.072799,8.000000,9.000000,31.000000,8.000000,7.460860,9.699976,0.023838,-0.018966,-0.068919,9.821385,0.001886,-2.529775,-0.447736,-45.050812,-0.047242,0.050299,0.006570,-0.132898,-0.114250,0.035180,-0.040223,0.042297,0.032069,-0.040932,0.084755,0.060421,0.104726,0.102335,0.005445,0.005192,-1.396430,-0.945880,0.188078,-0.021710,0.009823,0.020870,1.000000,0.000000,
10.000000,-0.093775,0.000000,0.101928,-0.006792,0.006791,0.002401,9.990548,10.147985,44.994422,-0.000040,-0.279850,-0.937767,-1.391592,0.157625,0.019416,0.062621,8.000000,9.000000,34.000000,8.000000,7.794079,9.858581,0.023832,-0.018962,-0.068898,9.821356,0.001856,-2.196526,-0.289446,-45.054833,-0.082467,0.088358,0.004729,-0.164969,-0.080549,0.037777,-0.066017,0.098152,0.019840,-0.034302,0.092221,0.069626,0.155432,0.151423,0.005445,0.005192,-1.396430,-0.945880,0.188078,-0.021710,0.009823,0.020870,1.000000,0.000000,
10.500000,-0.423783,0.006735,0.865553,-0.485269,0.555422,-1.581775,-3.067491,-5.717765,44.106658,-0.016061,-0.222238,-0.606431,-1.361888,-0.366470,0.040746,0.053715,9.000000,10.000000,34.000000,9.000000,-5.122210,-5.888956,0.022879,-0.017140,-0.070188,9.823233,0.003735,-2.165827,-0.286339,-44.456805,0.239075,0.408954,0.072638,-0.139096,-0.001483,0.149635,-0.160706,0.173136,-0.022435,-0.409707,-0.549918,0.051068,0.104795,0.102204,0.005122,0.004915,-1.167649,-0.514180,-0.321595,0.039569,-0.135603,0.241392,1.000000,1.000000,
11.000000,-0.641454,0.068486,1.694990,-0.003028,0.234713,-1.518174,-2.934885,-3.797115,43.977925,0.011954,-0.222238,-0.606431,-1.361888,-0.366470,0.036971,0.054987,9.000000,10.000000,34.000000,9.000000,-5.142967,-4.186785,0.022879,-0.017140,-0.070188,9.823230,0.003735,-2.159722,-0.302118,-44.523979,0.119132,0.019336,0.015456,-0.045838,0.098325,0.171633,-0.116082,0.141981,-0.031258,-0.035690,0.041253,0.050500,0.154607,0.150965,0.005122,0.004915,-1.167649,-0.514180,-0.321595,0.039569,-0.135603,0.241392,1.000000,1.000000,
11.500000,-0.645547,0.163316,2.453961,0.236414,0.078229,-1.492875,-0.959426,-2.049554,43.912841,0.067378,1.270681,-0.896062,-1.192024,1.192389,0.094476,0.054987,10.000000,11.000000,34.000000,9.000000,-3.133404,-2.369077,0.024275,-0.017225,-0.070327,9.823211,0.003718,-2.154538,-0.282729,-44.592539,-0.116782,-0.137530,-0.008175,-0.206719,-0.060788,0.213893,-0.143829,0.146987,-0.016625,0.003421,0.025092,0.050484,0.105664,0.103539,0.004854,0.004656,-0.504025,-1.073220,-0.162604,-0.154061,0.022959,0.033330,0.000000,1.000000,
12.000000,-0.555342,0.283475,3.164799,0.336081,0.023835,-1.438900,-0.508718,-0.581588,43.891144,0.064955,1.270681,-0.896062,-1.192024,1.192389,0.131018,0.049898,10.000000,11.000000,34.000000,9.000000,-2.658035,-0.885809,0.024275,-0.017225,-0.070327,9.823209,0.003718,-2.150106,-0.290208,-44.651525,-0.170822,-0.178720,-0.059917,-0.277713,-0.144335,0.196774,-0.146020,0.151468,-0.005420,-0.013706,0.048417,0.050310,0.154796,0.151424,0.004854,0.004656,-0.504025,-1.073220,-0.162604,-0.154061,0.022959,0.033330,0.000000,1.000000,
12.500000,-0.428838,0.389632,3.870986,0.293450,-0.094221,-1.463814,-1.923457,1.048339,43.853654,0.040912,2.952062,-0.607975,-1.612265,2.014474,0.107356,0.052443,11.000000,12.000000,34.000000,9.000000,-4.076602,0.766499,0.022721,-0.018188,-0.070773,9.824377,0.004888,-2.147424,-0.290479,-44.713330,-0.165400,-0.005618,-0.036520,-0.368864,-0.208052,0.258718,-0.134515,0.159449,-0.005837,-0.074078,0.094145,0.051526,0.105454,0.103315,0.004617,0.004428,-0.781007,-0.749933,-0.807142,0.146462,0.138151,0.079605,0.000000,1.000000,
13.000000,-0.277373,0.421255,4.553027,0.247214,-0.221391,-1.413507,-1.047795,-0.041273,43.877587,0.047309,2.952062,-0.607975,-1.612265,2.014474,0.115118,0.053715,11.000000,12.000000,34.000000,9.000000,-3.206598,-0.316910,0.022721,-0.018188,-0.070773,9.824375,0.004888,-2.145704,-0.290964,-44.675838,-0.309002,0.042600,-0.085181,-0.491317,-0.197455,0.228258,-0.136966,0.159139,-0.006568,-0.013089,0.014858,0.050857,0.154174,0.150786,0.004617,0.004428,-0.781007,-0.749933,-0.807142,0.146462,0.138151,0.079605,0.000000,1.000000,
13.500000,-0.115823,0.404129,5.230159,0.119248,-0.260656,-1.421706,-0.154794,2.545580,43.849598,0.029871,4.245882,0.331015,-0.814299,4.439474,0.113871,0.049898,12.000000,13.000000,34.000000,9.000000,-2.298697,2.271952,0.020126,-0.017648,-0.071283,9.825380,0.005896,-2.145836,-0.290597,-44.773159,-0.108489,0.117643,-0.077785,-0.413060,-0.185689,0.215746,-0.112574,0.157186,0.008199,0.004169,0.146953,0.051581,0.105267,0.103128,0.004416,0.004231,-0.044027,0.103637,0.191388,0.303233,-0.050885,0.060045,0.000000,1.000000,
14.000000,-0.008538,0.319809,5.903681,-0.012405,-0.285223,-1.376944,-0.506060,0.462748,43.856781,0.046844,4.245882,0.331015,-0.814299,4.439474,0.123155,0.052443,12.000000,13.000000,34.000000,9.000000,-2.637776,0.202620,0.020126,-0.017648,-0.071283,9.825377,0.005896,-2.138556,-0.290762,-44.699000,-0.191559,0.256323,-0.121850,-0.490154,-0.086342,0.165853,-0.114613,0.159022,0.003328,-0.031185,-0.004865,0.051337,0.153637,0.150249,0.004416,0.004231,-0.044027,0.103637,0.191388,0.303233,-0.050885,0.060045,0.000000,1.000000,
14.500000,0.065621,0.211015,6.610908,-0.094972,-0.177064,-1.453833,2.405829,1.282035,43.863773,0.019916,5.939208,-0.118918,-0.337736,5.545474,0.128824,0.052443,13.000000,14.000000,34.000000,9.000000,0.288928,1.016646,0.018693,-0.015162,-0.072245,9.826479,0.006999,-2.135760,-0.279134,-44.727373,0.003404,0.084130,-0.047867,-0.417342,-0.247716,0.193488,-0.098757,0.137347,0.035154,0.106760,0.081765,0.051103,0.105111,0.102969,0.004240,0.004063,0.163149,-0.357315,-0.183178,0.171163,-0.304307,0.129355,0.000000,1.000000,
15.000000,0.053217,0.128462,7.331587,-0.152198,-0.058737,-1.414242,0.263195,0.102485,43.830558,0.052336,5.939208,-0.118918,-0.337736,5.545474,0.114541,0.053715,13.000000,14.000000,34.000000,9.000000,-1.832120,-0.164186,0.018693,-0.015162,-0.072245,9.826476,0.006999,-2.129211,-0.281628,-44.686737,0.052160,0.201311,-0.085454,-0.399375,-0.170232,0.160198,-0.099840,0.140532,0.021068,-0.050466,0.011281,0.050122,0.153183,0.149791,0.004240,0.004063,0.163149,-0.357315,-0.183178,0.171163,-0.304307,0.129355,0.000000,1.000000,
15.500000,0.014869,0.069013,8.065744,-0.107629,0.019215,-1.442166,1.361825,-0.840979,43.814627,0.016825,7.324181,-0.324322,-1.124620,6.549474,0.116663,0.051170,14.000000,15.000000,34.000000,9.000000,-0.746216,-1.114836,0.018941,-0.013697,-0.072686,9.826885,0.007410,-2.124909,-0.270638,-44.651082,0.044892,0.028863,-0.058475,-0.523457,-0.277085,0.193349,-0.099933,0.122904,0.035138,0.042254,-0.005379,0.048134,0.104970,0.102842,0.004083,0.003916,-0.777778,-0.287901,-0.627899,-0.050233,-0.201170,0.070070,0.000000,1.000000,
16.000000,-0.032689,0.063464,8.789877,-0.051134,0.075919,-1.404267,-0.025606,-0.433084,43.814412,0.042605,7.324181,-0.324322,-1.124620,6.549474,0.133477,0.052443,14.000000,15.000000,34.000000,9.000000,-2.124116,-0.718230,0.018941,-0.013697,-0.072686,9.826883,0.007410,-2.118788,-0.277086,-44.669087,0.082076,0.038877,-0.094466,-0.487341,-0.259405,0.155097,-0.097747,0.125971,0.024530,-0.037520,0.029137,0.051204,0.152779,0.149433,0.004083,0.003916,-0.777778,-0.287901,-0.627899,-0.050233,-0.201170,0.070070,0.000000,1.000000,
16.500000,-0.069174,0.076635,9.523494,-0.018134,0.065629,-1.453491,-0.062705,-0.359104,43.811030,0.030918,8.729109,-0.676444,-0.648057,8.391474,0.130336,0.049898,15.000000,16.000000,34.000000,9.000000,-2.172391,-0.646616,0.018912,-0.013305,-0.073147,9.827476,0.008005,-2.113666,-0.284473,-44.674896,0.049252,-0.002182,-0.047395,-0.482628,-0.346722,0.183409,-0.096625,0.119998,0.026203,-0.011572,0.018279,0.051075,0.100237,0.098239,0.003937,0.003780,-0.128135,-0.487041,-0.300385,-0.015303,-0.042571,0.097638,0.000000,1.000000,
17.000000,-0.091120,0.096378,10.247465,0.007970,0.047938,-1.418344,-0.344097,-0.255788,43.806123,0.024637,8.729109,-0.676444,-0.648057,8.391474,0.106275,0.051170,15.000000,16.000000,34.000000,9.000000,-2.447306,-0.548682,0.018912,-0.013305,-0.073147,9.827474,0.008005,-2.107923,-0.290365,-44.681650,0.024834,0.005776,-0.081005,-0.463130,-0.345873,0.151270,-0.095284,0.120968,0.024045,-0.021155,0.021518,0.048164,0.149092,0.145864,0.003937,0.003780,-0.128135,-0.487041,-0.300385,-0.015303,-0.042571,0.097638,0.000000,1.000000,
17.500000,-0.095156,0.114486,10.986453,0.030864,0.016511,-1.486562,-0.338102,-0.271830,43.803290,0.032606,10.227535,-0.226511,-0.459648,9.940474,0.113536,0.054987,16.000000,17.000000,34.000000,9.000000,-2.440857,-0.573079,0.018828,-0.013094,-0.073657,9.828160,0.008694,-2.103893,-0.299631,-44.684173,-0.015417,0.002187,-0.015273,-0.450986,-0.345032,0.188646,-0.092688,0.118524,0.029444,-0.017566,0.027006,0.051354,0.100139,0.098146,0.003810,0.003660,0.094716,0.018225,-0.205862,-0.007119,-0.005959,0.120513,0.000000,1.000000,
18.000000,-0.080568,0.129459,11.718188,0.052124,-0.014536,-1.453039,-0.393825,-0.231123,43.798491,0.016553,10.227535,-0.226511,-0.459648,9.940474,0.129186,0.049898,16.000000,17.000000,34.000000,9.000000,-2.491353,-0.537868,0.018828,-0.013094,-0.073657,9.828158,0.008694,-2.099273,-0.305008,-44.688613,-0.049339,0.009306,-0.046159,-0.466886,-0.342360,0.173246,-0.092241,0.118988,0.031403,-0.017532,0.023626,0.051576,0.148808,0.145598,0.003810,0.003660,0.094716,0.018225,-0.205862,-0.007119,-0.005959,0.120513,0.000000,1.000000,
18.500000,-0.052069,0.138029,12.434659,0.041219,-0.033002,-1.433566,-0.064048,0.421311,43.791257,0.022437,11.573230,-0.480821,-0.526145,11.394474,0.135158,0.052443,17.000000,18.000000,34.000000,9.000000,-2.159070,0.111016,0.018461,-0.012907,-0.073730,9.828292,0.008830,-2.097057,-0.311135,-44.715290,-0.021772,0.006750,-0.065123,-0.445931,-0.400716,0.161204,-0.088746,0.117116,0.037175,-0.001993,0.051659,0.051538,0.100060,0.098070,0.003695,0.003552,0.021952,-0.271501,-0.186711,0.062027,-0.034241,0.013970,0.000000,1.000000,
19.000000,-0.028573,0.133940,13.138642,0.021756,-0.047458,-1.403457,-0.302567,-0.004417,43.788393,0.032990,11.573230,-0.480821,-0.526145,11.394474,0.104769,0.054987,17.000000,18.000000,34.000000,9.000000,-2.388995,-0.311511,0.018461,-0.012907,-0.073730,9.828290,0.008830,-2.091423,-0.313118,-44.703043,-0.053347,0.047728,-0.095111,-0.464633,-0.385773,0.121096,-0.088978,0.118562,0.032137,-0.023298,0.021346,0.050728,0.148566,0.145366,0.003695,0.003552,0.021952,-0.271501,-0.186711,0.062027,-0.034241,0.013970,0.000000,1.000000,
19.500000,-0.002536,0.120283,13.869650,0.007161,-0.054495,-1.490545,0.136239,0.363186,43.784565,0.021055,12.811879,-0.500384,-0.769969,12.178474,0.137562,0.051170,18.000000,19.000000,34.000000,9.000000,-1.948811,0.053587,0.018040,-0.012515,-0.074254,9.829028,0.009571,-2.088179,-0.311304,-44.718933,-0.022056,0.031901,-0.011264,-0.492166,-0.434030,0.246897,-0.083631,0.115337,0.045901,0.003530,0.051854,0.051113,0.099992,0.098005,0.003590,0.003453,-0.275669,-0.251823,-0.850669,0.057752,-0.049320,0.107034,0.000000,1.000000,
20.000000,0.014585,0.099981,14.603851,-0.008119,-0.057121,-1.461440,-0.234351,-0.021931,43.780292,0.011844,12.811879,-0.500384,-0.769969,12.178474,0.117584,0.052443,18.000000,19.000000,34.000000,9.000000,-2.310018,-0.330271,0.018040,-0.012515,-0.074254,9.829026,0.009571,-2.082489,-0.313322,-44.708126,-0.041790,0.072326,-0.038249,-0.507620,-0.406555,0.234474,-0.084253,0.117155,0.041134,-0.024442,0.025755,0.049204,0.148347,0.145162,0.003590,0.003453,-0.275669,-0.251823,-0.850669,0.057752,-0.049320,0.107034,0.000000,1.000000,
20.500000,0.032108,0.075240,15.325859,-0.015345,-0.049934,-1.439147,0.371097,0.212888,43.776128,0.016766,14.274686,-0.568852,-0.714554,13.865474,0.104177,0.054987,19.000000,20.000000,34.000000,9.000000,-1.704551,-0.101602,0.017824,-0.012145,-0.074292,9.829055,0.009603,-2.080140,-0.315626,-44.719091,-0.014047,0.031652,-0.059736,-0.532947,-0.466140,0.261036,-0.081041,0.113302,0.045331,0.018080,0.051701,0.050950,0.099927,0.097944,0.003493,0.003362,-0.220216,-0.265555,-0.541361,0.040319,-0.077171,-0.005933,0.000000,1.000000,
21.000000,0.038595,0.053396,16.037639,-0.022378,-0.039093,-1.412259,-0.158987,-0.052836,43.770909,0.016455,14.274686,-0.568852,-0.714554,13.865474,0.118545,0.049898,19.000000,20.000000,34.000000,9.000000,-2.223862,-0.367596,0.017824,-0.012145,-0.074292,9.829053,0.009603,-2.074274,-0.317713,-44.712682,-0.020135,0.068946,-0.086437,-0.540377,-0.439655,0.224445,-0.081229,0.114830,0.042781,-0.025856,0.027338,0.047670,0.148154,0.144978,0.003493,0.003362,-0.220216,-0.265555,-0.541361,0.040319,-0.077171,-0.005933,0.000000,1.000000,
21.500000,0.045153,0.031888,16.772597,-0.020951,-0.028249,-1.486832,0.419922,0.050145,43.768076,0.011760,15.907503,-0.549290,-0.681306,15.783474,0.134646,0.049898,20.000000,21.000000,34.000000,9.000000,-1.644926,-0.269858,0.017642,-0.011681,-0.074718,9.829604,0.010155,-2.069719,-0.319956,-44.719222,-0.004337,0.018508,-0.014522,-0.563154,-0.488927,0.261985,-0.078483,0.110046,0.051627,0.023165,0.031491,0.050454,0.099872,0.097892,0.003404,0.003278,-0.178315,-0.166372,-0.101546,0.020668,-0.077881,0.115307,0.000000,1.000000,
22.000000,0.043433,0.018357,17.510486,-0.019410,-0.014416,-1.460866,-0.134029,-0.085672,43.763045,0.017008,15.907503,-0.549290,-0.681306,15.783474,0.118671,0.049898,20.000000,21.000000,34.000000,9.000000,-2.188128,-0.407566,0.017642,-0.011681,-0.074718,9.829601,0.010155,-2.063905,-0.322852,-44.717488,-0.004357,0.049104,-0.038703,-0.563955,-0.470998,0.248638,-0.078190,0.112442,0.043935,-0.028182,0.023785,0.047722,0.147977,0.144815,0.003404,0.003278,-0.178315,-0.166372,-0.101546,0.020668,-0.077881,0.115307,0.000000,1.000000,
22.500000,0.041789,0.006765,18.252714,-0.022653,-0.001889,-1.483818,0.431617,0.163647,43.759726,0.016873,17.483221,-1.018786,-0.614809,16.913474,0.120258,0.054987,21.000000,22.000000,34.000000,9.000000,-1.625241,-0.163885,0.017469,-0.011307,-0.074918,9.829853,0.010409,-2.061650,-0.327617,-44.729339,0.021185,0.001105,-0.016215,-0.558712,-0.589149,0.269861,-0.075477,0.108147,0.048204,0.013666,0.038859,0.050616,0.099819,0.097843,0.003322,0.003200,-0.093325,-0.569350,-0.440432,0.029128,-0.078009,0.064423,0.000000,1.000000,
23.000000,0.028716,0.000878,18.992478,-0.028393,0.012719,-1.459957,-0.121507,-0.035730,43.754773,0.011161,17.483221,-1.018786,-0.614809,16.913474,0.121059,0.049898,21.000000,22.000000,34.000000,9.000000,-2.167899,-0.363558,0.017469,-0.011307,-0.074918,9.829851,0.010409,-2.055903,-0.330038,-44.725419,0.021024,0.035926,-0.039241,-0.546886,-0.578704,0.255944,-0.075573,0.110486,0.046386,-0.032754,0.034590,0.048679,0.147819,0.144666,0.003322,0.003200,-0.093325,-0.569350,-0.440432,0.029128,-0.078009,0.064423,0.000000,1.000000,
23.500000,0.017790,-0.004502,19.733270,-0.014668,0.006042,-1.474888,0.009219,-0.237214,43.751146,0.007485,19.006422,-0.324323,-0.692389,18.330474,0.109562,0.051170,22.000000,23.000000,34.000000,9.000000,-2.038678,-0.570098,0.017486,-0.011104,-0.075064,9.830017,0.010577,-2.051216,-0.331571,-44.721071,-0.000123,0.013195,-0.025245,-0.574483,-0.551424,0.266234,-0.074777,0.108012,0.046982,-0.004864,0.013518,0.047991,0.099772,0.097799,0.003245,0.003128,-0.173459,0.250382,-0.502388,-0.010530,-0.038236,0.057286,0.000000,1.000000,
24.000000,0.014811,-0.005249,20.466036,0.002752,-0.003814,-1.451440,-0.247227,-0.154426,43.746754,0.010840,19.006422,-0.324323,-0.692389,18.330474,0.122444,0.049898,22.000000,23.000000,34.000000,9.000000,-2.287868,-0.494510,0.017486,-0.011104,-0.075064,9.830014,0.010577,-2.045240,-0.337322,-44.726951,-0.010599,0.023890,-0.047568,-0.576266,-0.542166,0.247969,-0.073223,0.109248,0.047371,-0.021619,0.026954,0.048574,0.147674,0.144531,0.003245,0.003128,-0.173459,0.250382,-0.502388,-0.010530,-0.038236,0.057286,0.000000,1.000000,
24.500000,0.021475,-0.007032,21.211719,0.008745,-0.013646,-1.503421,0.025672,0.002534,43.742955,0.003143,20.410214,-0.754695,0.016916,19.925474,0.117764,0.052443,23.000000,24.000000,34.000000,9.000000,-2.013782,-0.348434,0.017433,-0.010911,-0.075331,9.830360,0.010925,-2.041992,-0.349633,-44.735895,-0.015228,0.005827,0.002388,-0.493968,-0.586358,0.286959,-0.070706,0.107254,0.051281,-0.005512,0.028990,0.049014,0.099730,0.097760,0.003174,0.003060,0.579069,-0.209900,-0.374102,0.005534,-0.033764,0.092252,0.000000,1.000000,
25.000000,0.030218,-0.009467,21.956033,0.010716,-0.021420,-1.480468,-0.228301,-0.057348,43.738890,0.005037,20.410214,-0.754695,0.016916,19.925474,0.132900,0.052443,23.000000,24.000000,34.000000,9.000000,-2.259781,-0.411078,0.017433,-0.010911,-0.075331,9.830358,0.010925,-2.036342,-0.353708,-44.736910,-0.027071,0.028042,-0.018433,-0.503873,-0.577515,0.282902,-0.070238,0.108653,0.053419,-0.022372,0.023166,0.051871,0.147542,0.144408,0.003174,0.003060,0.579069,-0.209900,-0.374102,0.005534,-0.033764,0.092252,0.000000,1.000000,
25.500000,0.045550,-0.016960,22.703887,0.010201,-0.041758,-1.504634,-0.222509,0.068084,43.734484,-0.005134,21.874308,-0.549290,-0.481814,21.898474,0.114068,0.052443,24.000000,25.000000,34.000000,9.000000,-2.253341,-0.292402,0.017345,-0.010833,-0.075490,9.830578,0.011148,-2.032442,-0.359984,-44.744349,-0.033030,0.036038,0.004420,-0.511165,-0.563456,0.278782,-0.068172,0.107676,0.054369,-0.021690,0.027028,0.048975,0.099691,0.097723,0.003106,0.002997,-0.007400,0.035316,0.139409,0.015194,-0.011122,0.062996,0.000000,1.000000,
26.000000,0.066697,-0.032852,23.446154,0.008545,-0.063935,-1.483358,-0.307288,-0.035082,43.730633,0.002628,21.874308,-0.549290,-0.481814,21.898474,0.129376,0.052443,24.000000,25.000000,34.000000,9.000000,-2.332916,-0.397971,0.017345,-0.010833,-0.075490,9.830576,0.011148,-2.027519,-0.363315,-44.743755,-0.055041,0.056906,-0.015505,-0.533025,-0.539979,0.275960,-0.067817,0.108301,0.055576,-0.024426,0.024402,0.050398,0.147422,0.144294,0.003106,0.002997,-0.007400,0.035316,0.139409,0.015194,-0.011122,0.062996,0.000000,1.000000,
26.500000,0.092037,-0.056750,24.183859,-0.011622,-0.064029,-1.482834,0.251662,0.473781,43.726308,-0.004016,23.457864,-1.067693,-0.725638,22.816474,0.131481,0.049898,25.000000,26.000000,34.000000,9.000000,-1.771393,0.108182,0.017110,-0.010624,-0.075563,9.830684,0.011259,-2.026154,-0.366569,-44.764444,-0.013516,0.038056,-0.016137,-0.557993,-0.624944,0.279190,-0.065155,0.107171,0.059845,0.009745,0.050937,0.051597,0.099655,0.097689,0.003044,0.002938,-0.258267,-0.497108,-0.460604,0.055552,-0.056807,0.037756,0.000000,1.000000,
27.000000,0.102243,-0.087082,24.918460,-0.037086,-0.058018,-1.463480,-0.154243,0.100237,43.721662,0.008427,23.457864,-1.067693,-0.725638,22.816474,0.122721,0.049898,25.000000,26.000000,34.000000,9.000000,-2.167122,-0.263518,0.017110,-0.010624,-0.075563,9.830682,0.011259,-2.020430,-0.368660,-44.754599,-0.020611,0.083978,-0.035456,-0.565908,-0.592981,0.266231,-0.066003,0.109272,0.054983,-0.026356,0.026485,0.048057,0.147312,0.144190,0.003044,0.002938,-0.258267,-0.497108,-0.460604,0.055552,-0.056807,0.037756,0.000000,1.000000,
27.500000,0.107711,-0.121858,25.658648,-0.044802,-0.044718,-1.483378,0.441918,0.126522,43.717904,-0.007279,24.814515,-0.637321,-0.548312,24.109474,0.122681,0.049898,26.000000,27.000000,34.000000,9.000000,-1.569843,-0.244531,0.017017,-0.010315,-0.075695,9.830828,0.011407,-2.016440,-0.371393,-44.757919,0.000834,0.040608,-0.016224,-0.574218,-0.602774,0.304034,-0.063933,0.106290,0.061253,0.015425,0.028912,0.050747,0.099622,0.097658,0.002984,0.002882,-0.083583,0.040166,-0.638073,0.019537,-0.078877,0.048790,0.000000,1.000000,
28.000000,0.101560,-0.150248,26.397638,-0.049495,-0.028580,-1.464436,-0.103744,-0.005852,43.712888,-0.009993,24.814515,-0.637321,-0.548312,24.109474,0.105292,0.052443,26.000000,27.000000,34.000000,9.000000,-2.104915,-0.379459,0.017017,-0.010315,-0.075695,9.830826,0.011407,-2.010664,-0.374312,-44.756376,0.008128,0.073916,-0.034759,-0.570613,-0.573137,0.291231,-0.063599,0.107862,0.057740,-0.027584,0.022828,0.049000,0.147209,0.144093,0.002984,0.002882,-0.083583,0.040166,-0.638073,0.019537,-0.078877,0.048790,0.000000,1.000000,
28.500000,0.093621,-0.176474,27.139939,-0.045091,-0.012423,-1.480493,0.475913,-0.064085,43.708734,0.005130,26.375130,-0.803601,-0.692390,26.347474,0.115983,0.054987,27.000000,28.000000,34.000000,9.000000,-1.526006,-0.442398,0.017000,-0.010010,-0.075813,9.830947,0.011531,-2.006756,-0.377060,-44.757147,0.014701,0.018867,-0.019316,-0.601357,-0.610326,0.265510,-0.062577,0.104661,0.059877,0.014214,0.023603,0.050559,0.099592,0.097629,0.002928,0.002829,-0.222568,-0.083007,0.129608,-0.001676,-0.081943,0.055675,0.000000,1.000000,
29.000000,0.078046,-0.190813,27.879953,-0.039853,0.005463,-1.462219,-0.091358,-0.045460,43.704309,-0.000691,26.375130,-0.803601,-0.692390,26.347474,0.117031,0.051170,27.000000,28.000000,34.000000,9.000000,-2.082356,-0.429211,0.017000,-0.010010,-0.075813,9.830945,0.011531,-2.000926,-0.382186,-44.760822,0.026922,0.044821,-0.037088,-0.589321,-0.593770,0.251361,-0.061547,0.107079,0.059152,-0.022307,0.026310,0.048637,0.147114,0.144004,0.002928,0.002829,-0.222568,-0.083007,0.129608,-0.001676,-0.081943,0.055675,0.000000,1.000000,
29.500000,0.065098,-0.202598,28.628255,-0.026189,-0.000334,-1.493566,0.002545,-0.243577,43.700456,-0.002875,27.601576,-0.676446,-0.116079,27.151474,0.110795,0.052443,28.000000,29.000000,34.000000,9.000000,-1.989910,-0.634921,0.017075,-0.009867,-0.075956,9.831105,0.011693,-1.995717,-0.389152,-44.756876,0.002708,0.023831,-0.006777,-0.537804,-0.580485,0.313273,-0.060852,0.105269,0.060905,-0.007558,0.021437,0.049084,0.099563,0.097602,0.002876,0.002779,0.395496,0.105440,-0.538351,-0.024669,-0.033967,0.046976,0.000000,1.000000,
30.000000,0.059919,-0.209894,29.372204,-0.011294,-0.010029,-1.474848,-0.235918,-0.087689,43.695704,-0.004887,27.601576,-0.676446,-0.116079,27.151474,0.125553,0.052443,28.000000,29.000000,34.000000,9.000000,-2.221612,-0.486706,0.017075,-0.009867,-0.075956,9.831102,0.011693,-1.989929,-0.395284,-44.765168,-0.001333,0.034808,-0.023865,-0.536512,-0.566064,0.305552,-0.059263,0.106416,0.057150,-0.025528,0.026362,0.052196,0.147025,0.143922,0.002876,0.002779,0.395496,0.105440,-0.538351,-0.024669,-0.033967,0.046976,0.000000,1.000000,
30.500000,0.062749,-0.219623,30.109277,-0.008986,-0.021264,-1.469298,-0.027934,0.016157,43.691091,-0.008024,29.254433,-0.735133,-0.481815,28.646474,0.119384,0.052443,29.000000,30.000000,34.000000,9.000000,-2.011998,-0.386794,0.017064,-0.009762,-0.075991,9.831132,0.011725,-1.986430,-0.401461,-44.771942,-0.008201,0.024539,-0.029660,-0.539234,-0.563863,0.313030,-0.058423,0.105365,0.059891,-0.006379,0.026973,0.051611,0.099537,0.097577,0.002825,0.002731,-0.004986,0.038461,-0.510329,0.001802,-0.030421,0.021365,0.000000,1.000000,
31.000000,0.067922,-0.231932,30.838904,-0.009836,-0.031753,-1.451824,-0.234431,0.002677,43.686700,-0.005045,29.254433,-0.735133,-0.481815,28.646474,0.129293,0.049898,29.000000,30.000000,34.000000,9.000000,-2.211174,-0.404094,0.017064,-0.009762,-0.075991,9.831130,0.011725,-1.980805,-0.406068,-44.774562,-0.016449,0.046833,-0.046554,-0.544787,-0.545841,0.293922,-0.057781,0.106590,0.059740,-0.021863,0.027793,0.052063,0.146944,0.143844,0.002825,0.002731,-0.004986,0.038461,-0.510329,0.001802,-0.030421,0.021365,0.000000,1.000000,
31.500000,0.076595,-0.249182,31.579190,-0.015050,-0.033296,-1.490881,0.180277,0.117744,43.682731,0.005530,30.655504,-1.018788,-0.659142,30.522474,0.118459,0.054987,30.000000,31.000000,34.000000,9.000000,-1.794498,-0.294610,0.016999,-0.009590,-0.076147,9.831330,0.011927,-1.977942,-0.411455,-44.781429,-0.008417,0.024759,-0.009552,-0.572564,-0.592788,0.312930,-0.056227,0.105001,0.061863,0.002265,0.028848,0.050673,0.099512,0.097554,0.002778,0.002686,-0.181944,-0.243220,-0.102674,0.011993,-0.047972,0.066059,0.000000,1.000000,
32.000000,0.080028,-0.266511,32.319943,-0.021639,-0.031639,-1.473619,-0.171681,0.035663,43.678415,-0.009810,30.655504,-1.018788,-0.659142,30.522474,0.121173,0.053715,30.000000,31.000000,34.000000,9.000000,-2.137399,-0.379238,0.016999,-0.009590,-0.076147,9.831328,0.011927,-1.972176,-0.415065,-44.781751,-0.008446,0.054702,-0.025512,-0.575875,-0.572333,0.304113,-0.055941,0.106781,0.065565,-0.027386,0.019252,0.050346,0.146867,0.143772,0.002778,0.002686,-0.181944,-0.243220,-0.102674,0.011993,-0.047972,0.066059,0.000000,1.000000,
32.500000,0.084681,-0.289466,33.062981,-0.031775,-0.045912,-1.487134,-0.136406,0.201772,43.673718,-0.007179,32.050196,-1.028570,-1.080293,31.762474,0.125585,0.052443,31.000000,32.000000,34.000000,9.000000,-2.102893,-0.215414,0.016904,-0.009528,-0.076225,9.831443,0.012045,-1.968804,-0.416813,-44.790352,-0.001135,0.062299,-0.012348,-0.652329,-0.583137,0.334632,-0.054675,0.105775,0.064304,-0.017187,0.035412,0.052193,0.099489,0.097532,0.002733,0.002643,-0.584123,-0.192026,-0.324335,0.022750,-0.018721,0.030992,0.000000,1.000000,
33.000000,0.089187,-0.322079,33.801929,-0.043223,-0.062970,-1.471197,-0.274949,0.065921,43.669575,-0.004389,32.050196,-1.028570,-1.080293,31.762474,0.107053,0.051170,31.000000,32.000000,34.000000,9.000000,-2.235643,-0.352759,0.016904,-0.009528,-0.076225,9.831441,0.012045,-1.963466,-0.419676,-44.788794,-0.015207,0.090627,-0.027966,-0.656159,-0.544501,0.324492,-0.054651,0.107409,0.060335,-0.026494,0.023198,0.048180,0.146795,0.143704,0.002733,0.002643,-0.584123,-0.192026,-0.324335,0.022750,-0.018721,0.030992,0.000000,1.000000,
33.500000,0.094402,-0.362268,34.542475,-0.056867,-0.053355,-1.482223,0.437255,0.261059,43.666029,-0.006913,33.546412,-0.989445,-0.603727,33.791474,0.133610,0.049898,32.000000,33.000000,34.000000,9.000000,-1.519770,-0.163517,0.016820,-0.009296,-0.076303,9.831522,0.012128,-1.960855,-0.424447,-44.798244,0.011985,0.052322,-0.017148,-0.650811,-0.572881,0.312888,-0.052946,0.105540,0.070545,0.016818,0.032855,0.050582,0.099467,0.097511,0.002690,0.002603,-0.036266,-0.125238,0.235827,0.023895,-0.075734,0.032993,0.000000,1.000000,
34.000000,0.084790,-0.399723,35.282706,-0.071832,-0.036490,-1.466955,-0.091751,0.091766,43.660956,-0.018340,33.546412,-0.989445,-0.603727,33.791474,0.106038,0.052443,32.000000,33.000000,34.000000,9.000000,-2.037154,-0.333675,0.016820,-0.009296,-0.076303,9.831520,0.012128,-1.954959,-0.427024,-44.795578,0.022411,0.092780,-0.032084,-0.640954,-0.535514,0.300519,-0.053073,0.107269,0.064772,-0.023938,0.024516,0.049171,0.146729,0.143640,0.002690,0.002603,-0.036266,-0.125238,0.235827,0.023895,-0.075734,0.032993,0.000000,1.000000,
34.500000,0.071638,-0.438917,36.023306,-0.072460,-0.033970,-1.471463,0.168408,-0.031875,43.656565,-0.012535,34.986415,-1.263319,-0.747806,35.048474,0.107064,0.051170,33.000000,34.000000,34.000000,9.000000,-1.779450,-0.462087,0.016823,-0.009152,-0.076355,9.831569,0.012180,-1.951922,-0.429064,-44.794003,0.020678,0.068098,-0.028007,-0.662766,-0.573082,0.302659,-0.052327,0.105319,0.066168,0.001005,0.021075,0.048596,0.099447,0.097492,0.002648,0.002564,-0.191364,-0.330782,-0.001126,-0.004870,-0.049868,0.018873,0.000000,1.000000,
35.000000,0.056697,-0.474814,36.759397,-0.070547,-0.034026,-1.455840,-0.188807,0.010361,43.652345,-0.007945,34.986415,-1.263319,-0.747806,35.048474,0.126636,0.051170,33.000000,34.000000,34.000000,9.000000,-2.128707,-0.426172,0.016823,-0.009152,-0.076355,9.831567,0.012180,-1.946084,-0.434400,-44.798506,0.024477,0.091415,-0.042667,-0.650376,-0.532955,0.284927,-0.051188,0.106886,0.065909,-0.029135,0.023772,0.051013,0.146665,0.143581,0.002648,0.002564,-0.191364,-0.330782,-0.001126,-0.004870,-0.049868,0.018873,0.000000,1.000000,
35.500000,0.043428,-0.509067,37.507029,-0.056131,-0.010163,-1.495850,0.694395,-0.301629,43.647813,-0.019927,36.748451,-1.361131,-0.526147,36.334474,0.128821,0.052443,34.000000,35.000000,34.000000,9.000000,-1.243053,-0.744301,0.016913,-0.008858,-0.076494,9.831698,0.012314,-1.942758,-0.439881,-44.791109,0.012238,0.012209,-0.004492,-0.656135,-0.617452,0.294359,-0.050927,0.104340,0.070060,0.029889,0.012167,0.050161,0.099429,0.097475,0.002609,0.002526,0.067618,-0.356116,-0.242723,-0.037260,-0.099661,0.076488,0.000000,1.000000,
36.000000,0.023064,-0.521065,38.256836,-0.039627,0.020900,-1.480597,-0.017322,-0.056534,43.644935,-0.021888,36.748451,-1.361131,-0.526147,36.334474,0.122800,0.052443,34.000000,35.000000,34.000000,9.000000,-1.941725,-0.507933,0.016913,-0.008858,-0.076494,9.831696,0.012314,-1.936698,-0.446168,-44.802371,0.043363,0.033526,-0.018281,-0.639879,-0.605776,0.288613,-0.049078,0.107412,0.068686,-0.032641,0.028173,0.052248,0.146607,0.143526,0.002609,0.002526,0.067618,-0.356116,-0.242723,-0.037260,-0.099661,0.076488,0.000000,1.000000,
36.500000,0.004617,-0.526183,39.013051,-0.021448,0.017824,-1.505792,0.012242,-0.349983,43.641043,-0.012484,38.094168,-1.185070,-0.769972,37.491474,0.129691,0.049898,35.000000,36.000000,34.000000,9.000000,-1.915715,-0.804519,0.017014,-0.008750,-0.076586,9.831789,0.012409,-1.931754,-0.451074,-44.795176,0.009026,0.008819,0.005963,-0.674584,-0.623627,0.332765,-0.049416,0.105640,0.068023,-0.010460,0.004962,0.050354,0.099410,0.097457,0.002572,0.002491,-0.153673,-0.060911,-0.549600,-0.041877,-0.035025,0.047997,0.000000,1.000000,
37.000000,-0.004128,-0.524309,39.765148,-0.003038,0.007995,-1.491771,-0.239374,-0.059972,43.635737,-0.009706,38.094168,-1.185070,-0.769972,37.491474,0.111200,0.051170,35.000000,36.000000,34.000000,9.000000,-2.160795,-0.523321,0.017014,-0.008750,-0.076586,9.831786,0.012409,-1.925744,-0.457503,-44.807791,0.011729,0.017018,-0.007429,-0.668226,-0.617752,0.332341,-0.047477,0.106705,0.064138,-0.020618,0.030598,0.048467,0.146548,0.143472,0.002572,0.002491,-0.153673,-0.060911,-0.549600,-0.041877,-0.035025,0.047997,0.000000,1.000000,
37.500000,-0.004645,-0.525632,40.511511,-0.003191,-0.007210,-1.487697,-0.105897,0.034519,43.631124,-0.006545,39.670965,-1.380694,-0.559396,39.203474,0.106833,0.053715,36.000000,37.000000,34.000000,9.000000,-2.027016,-0.432118,0.017027,-0.008694,-0.076610,9.831808,0.012433,-1.923105,-0.464670,-44.814381,0.000798,0.015032,-0.011307,-0.651787,-0.658104,0.327390,-0.047037,0.105914,0.066919,-0.011472,0.029606,0.050121,0.099393,0.097441,0.002536,0.002456,0.112376,-0.240931,-0.313482,-0.005325,-0.021305,0.025359,0.000000,1.000000,
38.000000,-0.001806,-0.532322,41.251804,-0.007456,-0.022303,-1.473764,-0.258138,0.062751,43.626493,-0.019076,39.670965,-1.380694,-0.559396,39.203474,0.129102,0.053715,36.000000,37.000000,34.000000,9.000000,-2.172512,-0.408547,0.017027,-0.008694,-0.076610,9.831806,0.012433,-1.917516,-0.469962,-44.818377,-0.006024,0.038422,-0.024636,-0.652577,-0.644759,0.318342,-0.046308,0.106931,0.066586,-0.022471,0.023769,0.051002,0.146496,0.143421,0.002536,0.002456,0.112376,-0.240931,-0.313482,-0.005325,-0.021305,0.025359,0.000000,1.000000,
38.500000,0.004403,-0.547852,41.999467,-0.020799,-0.035134,-1.503005,-0.045637,0.237540,43.621907,-0.014960,41.281582,-1.028571,-0.747806,41.255474,0.128522,0.052443,37.000000,38.000000,34.000000,9.000000,-1.957660,-0.238903,0.016970,-0.008608,-0.076712,9.831940,0.012569,-1.914157,-0.475735,-44.827242,0.002209,0.041106,0.003182,-0.658635,-0.620508,0.287487,-0.045002,0.106176,0.072136,-0.008274,0.032476,0.050453,0.099377,0.097426,0.002501,0.002424,-0.093738,0.146364,0.220492,0.016357,-0.027811,0.072190,0.000000,1.000000,
39.000000,0.007335,-0.572253,42.747377,-0.036313,-0.046605,-1.489215,-0.242525,0.123509,43.617793,-0.018885,41.281582,-1.028571,-0.747806,41.255474,0.130462,0.049898,37.000000,38.000000,34.000000,9.000000,-2.147135,-0.354771,0.016970,-0.008608,-0.076712,9.831937,0.012569,-1.908471,-0.478893,-44.826613,-0.004158,0.074062,-0.009591,-0.658684,-0.591276,0.285815,-0.044965,0.107406,0.069335,-0.027318,0.022109,0.051365,0.146445,0.143374,0.002501,0.002424,-0.093738,0.146364,0.220492,0.016357,-0.027811,0.072190,0.000000,1.000000,
39.500000,0.010872,-0.604151,43.495681,-0.038763,-0.045674,-1.496047,0.229664,-0.029524,43.613428,-0.019113,42.520998,-1.048134,-0.692392,42.409474,0.130248,0.052443,38.000000,39.000000,34.000000,9.000000,-1.672081,-0.512636,0.016991,-0.008458,-0.076758,9.831970,0.012604,-1.905066,-0.481700,-44.824270,-0.009069,0.046401,-0.002976,-0.676233,-0.577380,0.297827,-0.044431,0.106203,0.070454,0.004933,0.015478,0.051439,0.099361,0.097411,0.002468,0.002392,-0.041132,0.113129,-0.111352,-0.010848,-0.056306,0.023967,0.000000,1.000000,
40.000000,0.011053,-0.631983,44.241112,-0.038650,-0.041372,-1.483368,-0.163196,0.045830,43.608947,-0.014009,42.520998,-1.048134,-0.692392,42.409474,0.125045,0.049898,38.000000,39.000000,34.000000,9.000000,-2.055279,-0.444261,0.016991,-0.008458,-0.076758,9.831968,0.012604,-1.899160,-0.487423,-44.829693,0.001119,0.072760,-0.015385,-0.676977,-0.547369,0.293179,-0.043188,0.108154,0.066498,-0.030958,0.022591,0.051296,0.146398,0.143329,0.002468,0.002392,-0.041132,0.113129,-0.111352,-0.010848,-0.056306,0.023967,0.000000,1.000000,
40.500000,0.011368,-0.660206,44.972500,-0.035028,-0.028554,-1.451657,0.428986,-0.108383,43.603956,-0.016982,44.337169,-1.273102,-0.503982,43.964474,0.116283,0.049898,39.000000,40.000000,34.000000,9.000000,-1.462881,-0.602500,0.017052,-0.008271,-0.076723,9.831879,0.012518,-1.896527,-0.491745,-44.827807,-0.003353,0.023252,-0.046747,-0.668566,-0.582995,0.227475,-0.043084,0.106252,0.069806,0.015544,0.014558,0.048490,0.099348,0.097398,0.002436,0.002362,0.161744,-0.096182,-0.093890,-0.022121,-0.078267,0.004541,0.000000,1.000000,
41.000000,0.005585,-0.677369,45.697161,-0.031223,-0.013324,-1.438778,-0.109302,0.034811,43.600088,-0.014452,44.337169,-1.273102,-0.503982,43.964474,0.129776,0.052443,39.000000,40.000000,34.000000,9.000000,-1.990379,-0.466577,0.017052,-0.008271,-0.076723,9.831877,0.012518,-1.890521,-0.497853,-44.835442,0.016482,0.049960,-0.059268,-0.663557,-0.564441,0.200912,-0.041732,0.108601,0.069929,-0.028922,0.020602,0.050542,0.146356,0.143287,0.002436,0.002362,0.161744,-0.096182,-0.093890,-0.022121,-0.078267,0.004541,0.000000,1.000000,
41.500000,0.003249,-0.694307,46.426138,-0.012806,-0.030093,-1.457548,-0.225786,-0.424562,43.597482,-0.019466,45.497644,-1.233977,-0.625894,44.915474,0.133475,0.049898,40.000000,41.000000,34.000000,9.000000,-2.108319,-0.931927,0.017177,-0.008233,-0.076785,9.831932,0.012575,-1.884958,-0.503736,-44.822619,-0.034419,0.045850,-0.041646,-0.694735,-0.544831,0.237095,-0.041826,0.107759,0.071605,-0.014707,0.000646,0.051068,0.099333,0.097385,0.002405,0.002333,0.031554,0.005327,-0.631136,-0.053906,-0.011519,0.029696,0.000000,1.000000,
42.000000,0.017687,-0.708867,47.148752,0.008889,-0.053237,-1.444843,-0.314701,-0.054028,43.591141,0.000835,45.497644,-1.233977,-0.625894,44.915474,0.112184,0.054987,40.000000,41.000000,34.000000,9.000000,-2.192776,-0.571418,0.017177,-0.008233,-0.076785,9.831930,0.012575,-1.879827,-0.510248,-44.837630,-0.036580,0.049010,-0.054033,-0.711627,-0.522154,0.213124,-0.039622,0.108206,0.066521,-0.017277,0.033076,0.049763,0.146310,0.143246,0.002405,0.002333,0.031554,0.005327,-0.631136,-0.053906,-0.011519,0.029696,0.000000,1.000000,
42.500000,0.039231,-0.730230,47.874158,-0.016385,-0.058905,-1.462214,0.140599,0.557986,43.585768,-0.016710,46.926066,-1.527414,-0.703475,46.734474,0.128823,0.052443,41.000000,42.000000,34.000000,9.000000,-1.734528,0.038938,0.017069,-0.008126,-0.076845,9.832016,0.012663,-1.877605,-0.518569,-44.861508,0.001338,0.042802,-0.037269,-0.698730,-0.572839,0.229190,-0.038488,0.108158,0.074842,0.003510,0.049135,0.050450,0.099320,0.097372,0.002376,0.002304,-0.010002,-0.298484,-0.252394,0.041577,-0.046380,0.029205,0.000000,1.000000,
43.000000,0.045456,-0.763405,48.601118,-0.052500,-0.059416,-1.449496,-0.190255,0.258416,43.581646,-0.016789,46.926066,-1.527414,-0.703475,46.734474,0.126936,0.049898,41.000000,42.000000,34.000000,9.000000,-2.055787,-0.258187,0.017069,-0.008126,-0.076845,9.832013,0.012663,-1.871795,-0.520802,-44.855030,0.000101,0.094559,-0.049218,-0.697858,-0.537352,0.207516,-0.039558,0.109986,0.073226,-0.025005,0.023981,0.050230,0.146269,0.143207,0.002376,0.002304,-0.010002,-0.298484,-0.252394,0.041577,-0.046380,0.029205,0.000000,1.000000,
43.500000,0.043904,-0.805412,49.348156,-0.065675,-0.042513,-1.503764,0.543632,0.105766,43.577852,-0.012392,48.223979,-1.390477,-0.692392,48.482474,0.115951,0.051170,42.000000,43.000000,34.000000,9.000000,-1.318956,-0.415968,0.017057,-0.007915,-0.076976,9.832164,0.012817,-1.867577,-0.521291,-44.851953,0.016259,0.047074,0.002943,-0.703060,-0.567059,0.258640,-0.038799,0.108288,0.075631,0.023365,0.020818,0.048068,0.099310,0.097361,0.002348,0.002277,-0.040188,-0.092229,0.056212,-0.000865,-0.087443,0.058573,0.000000,1.000000,
44.000000,0.027960,-0.839138,50.101373,-0.073523,-0.020672,-1.490969,-0.079904,0.103324,43.573442,-0.015397,48.223979,-1.390477,-0.692392,48.482474,0.131370,0.052443,42.000000,43.000000,34.000000,9.000000,-1.930658,-0.424180,0.017057,-0.007915,-0.076976,9.832162,0.012817,-1.861617,-0.525956,-44.854875,0.039920,0.084891,-0.008089,-0.687259,-0.533299,0.257294,-0.037905,0.110193,0.075694,-0.031122,0.025421,0.050552,0.146233,0.143171,0.002348,0.002277,-0.040188,-0.092229,0.056212,-0.000865,-0.087443,0.058573,0.000000,1.000000,
44.500000,0.007058,-0.870950,50.855088,-0.069697,0.000514,-1.493592,0.564283,-0.148618,43.568212,-0.021500,49.786565,-1.507852,-0.282323,49.329474,0.134232,0.053715,43.000000,44.000000,34.000000,9.000000,-1.288947,-0.682856,0.017129,-0.007707,-0.077002,9.832158,0.012815,-1.859015,-0.531680,-44.849316,0.036892,0.022972,-0.005395,-0.632701,-0.580444,0.307676,-0.037497,0.107720,0.078996,0.017841,0.012538,0.050447,0.099296,0.097349,0.002320,0.002251,0.376486,-0.138314,-0.560413,-0.031347,-0.092632,0.006382,0.000000,1.000000,
45.000000,-0.022308,-0.887577,51.607111,-0.064225,0.022504,-1.482360,-0.082739,0.048639,43.564456,-0.014002,49.786565,-1.507852,-0.282323,49.329474,0.128358,0.049898,43.000000,44.000000,34.000000,9.000000,-1.924878,-0.493708,0.017129,-0.007707,-0.077002,9.832156,0.012815,-1.852994,-0.537892,-44.858668,0.065317,0.050831,-0.016256,-0.605049,-0.561739,0.302220,-0.035938,0.110256,0.069715,-0.031258,0.023850,0.050101,0.146196,0.143135,0.002320,0.002251,0.376486,-0.138314,-0.560413,-0.031347,-0.092632,0.006382,0.000000,1.000000,
45.500000,-0.050346,-0.901137,52.366469,-0.043267,0.020472,-1.509022,0.081536,-0.488625,43.561128,-0.013220,51.486065,-0.969885,-0.769973,51.081474,0.105591,0.054987,44.000000,45.000000,34.000000,9.000000,-1.760570,-1.035793,0.017261,-0.007590,-0.077075,9.832212,0.012873,-1.845942,-0.542937,-44.843439,0.017273,0.018113,0.008935,-0.644513,-0.499403,0.322640,-0.036316,0.109000,0.069411,-0.005989,-0.004160,0.050934,0.099285,0.097339,0.002294,0.002226,-0.143608,0.476467,-0.295012,-0.064526,-0.046005,0.051863,0.000000,1.000000,
46.000000,-0.067195,-0.903537,53.122800,-0.018877,0.014341,-1.497331,-0.230130,-0.044288,43.555921,-0.015979,51.486065,-0.969885,-0.769973,51.081474,0.126471,0.053715,44.000000,45.000000,34.000000,9.000000,-2.064569,-0.602154,0.017261,-0.007590,-0.077075,9.832210,0.012873,-1.839846,-0.549445,-44.860534,0.031228,0.024519,-0.001588,-0.630827,-0.489657,0.324421,-0.033898,0.110343,0.072717,-0.024421,0.033050,0.051443,0.146158,0.143103,0.002294,0.002226,-0.143608,0.476467,-0.295012,-0.064526,-0.046005,0.051863,0.000000,1.000000,
46.500000,-0.075631,-0.907085,53.867358,-0.012471,0.003494,-1.476713,-0.018574,-0.128345,43.551799,-0.024937,53.155445,-1.605665,-0.769974,52.713474,0.121767,0.052443,45.000000,46.000000,34.000000,9.000000,-1.853703,-0.684006,0.017326,-0.007523,-0.077061,9.832165,0.012831,-1.837789,-0.552229,-44.861605,0.006652,0.010341,-0.021677,-0.650508,-0.531513,0.281115,-0.034908,0.109292,0.076287,-0.008904,0.009658,0.051111,0.099274,0.097327,0.002268,0.002201,-0.073137,-0.214981,-0.173753,-0.029955,-0.032893,0.014023,0.000000,1.000000,
47.000000,-0.079056,-0.910497,54.604548,-0.009897,-0.007445,-1.466063,-0.249687,0.075646,43.547205,-0.023289,53.155445,-1.605665,-0.769974,52.713474,0.121609,0.049898,45.000000,46.000000,34.000000,9.000000,-2.077181,-0.486941,0.017326,-0.007523,-0.077061,9.832163,0.012831,-1.831968,-0.558451,-44.871172,0.011221,0.031365,-0.032329,-0.645058,-0.521465,0.267557,-0.033582,0.110525,0.070981,-0.016832,0.028976,0.049870,0.146125,0.143069,0.002268,0.002201,-0.073137,-0.214981,-0.173753,-0.029955,-0.032893,0.014023,0.000000,1.000000,
47.500000,-0.079924,-0.921676,55.356264,-0.027247,-0.015952,-1.512173,0.049352,0.297948,43.542471,-0.009349,54.328908,-1.165510,-0.393153,54.151474,0.119927,0.049898,46.000000,47.000000,34.000000,9.000000,-1.774719,-0.272344,0.017297,-0.007427,-0.077163,9.832291,0.012962,-1.826986,-0.569053,-44.881909,0.024186,0.027827,0.011466,-0.581892,-0.492374,0.312726,-0.032202,0.109895,0.072866,-0.000080,0.028946,0.048053,0.099265,0.097318,0.002243,0.002178,0.329879,0.264176,-0.216310,0.010155,-0.040123,0.060552,0.000000,1.000000,
48.000000,-0.088033,-0.941314,56.111876,-0.048937,-0.022900,-1.500352,-0.232216,0.204683,43.538013,-0.021903,54.328908,-1.165510,-0.393153,54.151474,0.126272,0.049898,46.000000,47.000000,34.000000,9.000000,-2.048168,-0.367393,0.017297,-0.007427,-0.077163,9.832289,0.012962,-1.821144,-0.572494,-44.882111,0.025956,0.068124,0.001309,-0.568673,-0.467876,0.315862,-0.032255,0.111349,0.073162,-0.026425,0.020423,0.051039,0.146092,0.143039,0.002243,0.002178,0.329879,0.264176,-0.216310,0.010155,-0.040123,0.060552,0.000000,1.000000,
48.500000,-0.098056,-0.969493,56.857422,-0.052192,-0.019080,-1.478957,0.346871,-0.094990,43.533673,-0.031446,56.253525,-1.586104,-0.803223,55.682474,0.110264,0.051170,47.000000,48.000000,34.000000,9.000000,-1.469673,-0.670377,0.017347,-0.007287,-0.077148,9.832237,0.012912,-1.819317,-0.573928,-44.875098,0.014301,0.030236,-0.019609,-0.597531,-0.509271,0.264487,-0.032299,0.109677,0.073757,0.009624,0.014162,0.048337,0.096942,0.095052,0.002219,0.002154,-0.147425,-0.179834,-0.243725,-0.025291,-0.069734,0.019704,0.000000,1.000000,
49.000000,-0.112744,-0.990154,57.598638,-0.049937,-0.007597,-1.468612,-0.127577,0.076346,43.529668,-0.031424,56.253525,-1.586104,-0.803223,55.682474,0.121007,0.052443,47.000000,48.000000,34.000000,9.000000,-1.931921,-0.508190,0.017347,-0.007287,-0.077148,9.832235,0.012912,-1.813310,-0.580241,-44.883426,0.036690,0.058505,-0.029717,-0.583171,-0.487001,0.252092,-0.030593,0.112175,0.077032,-0.026784,0.031652,0.051097,0.144468,0.141452,0.002219,0.002154,-0.147425,-0.179834,-0.243725,-0.025291,-0.069734,0.019704,0.000000,1.000000,
49.500000,-0.127910,-1.010983,58.339261,-0.045804,0.000178,-1.473170,0.369011,-0.179624,43.525021,-0.010441,57.531398,-1.732822,-0.714559,57.220474,0.120837,0.049898,48.000000,49.000000,34.000000,9.000000,-1.437454,-0.767391,0.017418,-0.007143,-0.077175,9.832239,0.012918,-1.809996,-0.585126,-44.878573,0.020188,0.013505,-0.026015,-0.594909,-0.547255,0.237011,-0.030809,0.110265,0.074731,0.013229,0.006043,0.048239,0.096928,0.095040,0.002196,0.002132,-0.019778,-0.258680,-0.209073,-0.037237,-0.071792,0.028236,0.000000,1.000000,
50.000000,-0.146144,-1.021465,59.078358,-0.039675,0.012054,-1.462670,-0.131396,0.065881,43.520996,-0.014498,57.531398,-1.732822,-0.714559,57.220474,0.130048,0.052443,48.000000,49.000000,34.000000,9.000000,-1.926278,-0.530813,0.017418,-0.007143,-0.077175,9.832236,0.012918,-1.803995,-0.591399,-44.889247,0.044695,0.039146,-0.036002,-0.576904,-0.534175,0.221460,-0.029059,0.112673,0.070396,-0.027948,0.029194,0.052061,0.144436,0.141422,0.002196,0.002132,-0.019778,-0.258680,-0.209073,-0.037237,-0.071792,0.028236,0.000000,1.000000,
50.500000,-0.209911,-0.983294,59.576038,-0.035301,0.416344,-0.289293,10.967927,-0.283494,43.465245,4.265037,59.012872,-1.850198,-0.836472,58.721474,1.702197,0.067710,49.000000,50.000000,34.000000,9.000000,9.195357,-0.880186,0.017491,-0.007051,-0.077177,9.832214,0.012898,-1.800531,-0.598054,-44.881585,0.291364,0.147054,-0.039409,-0.557084,-0.566920,0.199761,-0.029437,0.122446,0.126791,0.467441,0.004985,0.056815,0.098033,0.095607,0.002173,0.002111,-0.114805,-0.298206,-0.197398,-0.038253,-0.047561,0.011950,0.000000,1.000000,
51.000000,-0.459440,-0.739370,59.438021,-0.016474,0.968412,0.535197,4.617984,-0.181557,43.473529,-1.634895,59.012872,-1.850198,-0.836472,58.721474,-1.735158,0.053715,49.000000,50.000000,34.000000,9.000000,2.967836,-0.792834,0.017491,-0.007051,-0.077177,9.832215,0.012898,-1.792025,-0.602771,-44.888311,0.698125,0.346913,-0.041409,-0.309190,-0.435037,0.184755,-0.026934,0.141886,0.015772,-0.027644,0.012364,0.039250,0.147298,0.142787,0.002173,0.002111,-0.114805,-0.298206,-0.197398,-0.038253,-0.047561,0.011950,0.000000,1.000000,
51.500000,-0.827853,-0.312530,59.464669,0.244286,1.269152,-0.002173,3.106357,-6.754295,43.114234,-0.232837,58.884987,-0.852512,-1.346289,58.774474,-0.127920,0.052443,50.000000,51.000000,34.000000,9.000000,1.597634,-7.931637,0.018904,-0.006332,-0.077245,9.832474,0.013156,-1.552684,-1.171829,-44.449910,0.299708,-0.093823,0.025789,-0.578606,-0.535501,0.252117,0.053956,0.156627,0.062078,0.093225,-0.392034,0.048709,0.097040,0.095137,0.002151,0.002089,-0.587713,0.186418,-0.198500,-0.757104,-0.379929,0.077318,0.000000,1.000000,
52.000000,-1.115233,0.345922,59.541411,0.642406,1.392393,-0.011550,0.094353,-1.831765,43.224339,-0.036828,58.884987,-0.852512,-1.346289,58.774474,0.069239,0.054987,50.000000,51.000000,34.000000,9.000000,-1.403072,-3.102745,0.018904,-0.006332,-0.077245,9.832474,0.013156,-1.536486,-1.178695,-44.583788,0.563150,-0.298174,0.022555,-0.347138,-0.643097,0.264377,0.074686,0.157760,0.066400,-0.074213,0.104042,0.050707,0.144520,0.141707,0.002151,0.002089,-0.587713,0.186418,-0.198500,-0.757104,-0.379929,0.077318,0.000000,1.000000,
52.500000,-1.315090,1.078015,59.560170,0.861600,1.212427,0.062911,-3.829309,-5.019062,43.417434,-0.324903,58.918675,0.086487,-2.310507,59.411474,-0.248613,0.057532,51.000000,52.000000,34.000000,9.000000,-5.355024,-6.096447,0.019998,-0.006853,-0.077299,9.831743,0.012426,-1.527475,-1.079347,-44.336727,-0.017563,-0.154895,-0.005763,-0.654701,-0.534552,0.221367,0.025845,0.159225,0.032734,-0.205460,-0.308183,0.050614,0.096919,0.095059,0.002130,0.002069,-0.865619,0.245803,0.511258,-0.579606,0.299761,-0.019714,0.000000,1.000000,
53.000000,-1.303983,1.821329,59.538640,1.154030,0.953996,0.027657,-1.724838,-1.425721,43.239331,-0.058553,58.918675,0.086487,-2.310507,59.411474,0.067212,0.052443,51.000000,52.000000,34.000000,9.000000,-3.279147,-2.588767,0.019998,-0.006853,-0.077299,9.831743,0.012426,-1.515866,-1.093132,-44.433115,-0.072667,-0.395059,-0.014892,-0.677300,-0.685729,0.215945,0.045417,0.150768,0.062589,0.003374,0.080619,0.052236,0.144429,0.141512,0.002130,0.002069,-0.865619,0.245803,0.511258,-0.579606,0.299761,-0.019714,0.000000,1.000000,
53.500000,-1.175514,2.532558,59.513310,1.125737,0.708740,0.000446,-4.594569,1.331058,43.122396,0.010546,58.893615,1.524328,-2.133179,58.521473,0.150350,0.052443,52.000000,53.000000,34.000000,9.000000,-6.103195,0.212316,0.019872,-0.007589,-0.077267,9.832060,0.012742,-1.504716,-1.106748,-44.412945,-0.141401,-0.007201,-0.022032,-0.705468,-0.527165,0.233480,0.037285,0.166218,0.060600,-0.230032,0.095112,0.052414,0.096928,0.095009,0.002109,0.002050,-0.167251,0.261700,-0.373892,0.066011,0.402752,0.003688,0.000000,1.000000,
54.000000,-0.970902,3.094055,59.452613,1.012536,0.410203,0.033934,-2.004653,1.000556,43.133643,-0.020506,58.893615,1.524328,-2.133179,58.521473,0.120384,0.053715,52.000000,53.000000,34.000000,9.000000,-3.555513,-0.098928,0.019872,-0.007589,-0.077267,9.832060,0.012742,-1.504154,-1.109134,-44.407818,-0.339863,0.042140,-0.035796,-0.833321,-0.521587,0.218963,0.033133,0.157963,0.074556,0.012678,0.024481,0.051190,0.144448,0.141323,0.002109,0.002050,-0.167251,0.261700,-0.373892,0.066011,0.402752,0.003688,0.000000,1.000000,
54.500000,-0.751720,3.546635,59.361272,0.798036,0.343100,0.063287,0.052898,4.253617,43.098245,-0.141760,59.116802,1.944922,-1.556865,59.028473,-0.011938,0.052443,53.000000,54.000000,34.000000,9.000000,-1.462912,3.148105,0.019202,-0.007494,-0.077289,9.832138,0.012821,-1.508988,-1.106605,-44.431051,-0.049015,0.158513,-0.037921,-0.694494,-0.631623,0.173885,0.039481,0.163723,0.086452,0.028030,0.222871,0.048875,0.096889,0.095023,0.002089,0.002030,0.236874,-0.751778,0.103181,0.363346,-0.063737,0.028087,0.000000,1.000000,
55.000000,-0.635287,3.890588,59.304125,0.519348,0.337393,0.056225,-0.310648,1.856956,43.096831,-0.036895,59.116802,1.944922,-1.556865,59.028473,0.099219,0.054987,53.000000,54.000000,34.000000,9.000000,-1.801056,0.793301,0.019202,-0.007494,-0.077289,9.832138,0.012821,-1.501420,-1.107001,-44.372330,-0.081711,0.409246,-0.050025,-0.729815,-0.482743,0.151631,0.031922,0.168533,0.079891,-0.021780,-0.002481,0.050701,0.144307,0.141393,0.002089,0.002030,0.236874,-0.751778,0.103181,0.363346,-0.063737,0.028087,0.000000,1.000000,
55.500000,-0.413032,4.132959,59.247292,0.963114,-0.562833,0.006697,-16.402140,-8.497093,44.250692,-0.960196,59.016954,3.079545,-1.656611,58.355473,-0.979341,0.056260,54.000000,55.000000,34.000000,9.000000,-18.057710,-9.625258,0.019034,-0.006739,-0.077337,9.832063,0.012746,-1.545476,-1.066153,-44.025614,-0.444297,-0.480947,-0.038386,-0.815339,-0.757357,0.163272,0.045322,0.154671,-0.037087,-0.685763,-0.340730,0.047579,0.097434,0.095131,0.002069,0.002012,-0.297704,-0.454801,-0.556338,0.083364,-0.428066,0.031191,0.000000,1.000000,
56.000000,0.416104,4.161809,59.027163,1.419363,-1.453926,0.046017,-4.750967,-1.587385,42.963798,-0.039759,59.016954,3.079545,-1.656611,58.355473,0.057547,0.051170,54.000000,55.000000,34.000000,9.000000,-6.419728,-2.804898,0.019034,-0.006739,-0.077337,9.832063,0.012746,-1.500434,-1.110300,-44.212485,-0.917732,-1.018987,-0.053383,-1.177325,-1.169486,0.140322,0.066038,0.126285,0.038529,0.160106,0.144342,0.048939,0.145963,0.141678,0.002069,0.002012,-0.297704,-0.454801,-0.556338,0.083364,-0.428066,0.031191,0.000000,1.000000,
