Time ,N (m),E (m),gndAlt,velLL X  ,velLL Y  ,velLL Z  ,r,Roll ,Pitch,Yaw  ,Nav Yaw Rate,Baro Update Count,GPS Update Count,Accel Update Count,Ground Align Update Count,Nav Accel Roll,Nav Accel Pitch,Nav Roll,Nav Pitch,Gyro Bias X (deg/s),Gyro Bias Y (deg/s),Gyro Bias Z (deg/s),Accel Bias X (g),Accel Bias Y (g),Accel Bias Z (g),Roll Error,Pitch Error,Yaw Error,Vel N Error,Vel E Error,Vel D Error,velLL X Error,velLL Y Error,velLL Z Error,N Error (m),E Error (m),Alt Error (m),Acc Body X Error,Acc Body Y Error,Acc Body Z Error,Acc LL X Error,Acc LL Y Error,Acc LL Z Error,Acc Mag Error,p Error,q Error,r Error,Roll Stdev,Pitch Stdev,Yaw Stdev,VN Stdev,VE Stdev,VD Stdev,Accel Bias X Stdev,Accel Bias Y Stdev,Accel Bias Z Stdev,Alt Stdev,GPSResidual[GPS_VN],GPSResidual[GPS_VE],GPSResidual[GPS_VD],GPSFilterError[GPS_VN],GPSFilterError[GPS_VE],GPSFilterError[GPS_VD],GroundResiudal[GROUND_N],GroundResiudal[GROUND_E],GroundResiudal[GROUND_ALT],GroundResiudal[GROUND_VN],GroundResiudal[GROUND_VE],GroundResiudal[GROUND_VD],
0.100000,-0.000000,-0.000000,0.098892,0.000000,0.000000,0.002867,0.000000,-0.000000,0.000000,45.000000,0.000000,0.000000,0.000000,0.000000,0.000000,0.000000,0.000000,0.000000,0.000000,0.000000,0.000000,0.000000,0.000000,0.000000,0.000000,0.000000,0.000000,0.000000,0.000000,0.000000,0.000000,0.000000,0.000000,0.000000,0.000000,0.000000,0.000000,0.000000,0.000000,0.000000,0.000000,0.000000,0.000000,0.000000,0.000000,0.000000,0.000000,0.000000,0.000000,0.000000,0.000000,0.000000,0.000000,0.000000,0.000000,0.000000,0.000000,0.000000,0.000000,0.000000,0.000000,0.000000,0.000000,0.000000,0.000000,0.000000,0.000000,0.000000,0.000000,
0.200000,-0.000000,-0.000000,0.098783,-0.000000,0.000000,0.000252,0.000000,-0.000000,0.000000,45.000000,0.000000,0.000000,0.000000,0.000000,0.000000,0.000000,0.000000,0.000000,0.000000,0.000000,0.000000,0.000000,0.000000,0.000000,0.000000,0.000000,0.000000,0.000000,0.000000,0.000000,0.000000,0.000000,0.000000,0.000000,0.000000,0.000000,0.000000,0.000000,0.000000,0.000000,0.000000,0.000000,0.000000,0.000000,0.000000,0.000000,0.000000,0.000000,0.000000,0.000000,0.000000,0.000000,0.000000,0.000000,0.000000,0.000000,0.000000,0.000000,0.000000,0.000000,0.000000,0.000000,0.000000,0.000000,0.000000,0.000000,0.000000,0.000000,0.000000,
0.300000,-0.000000,-0.000000,0.098773,-0.000000,0.000000,0.000022,0.000000,0.000000,0.000000,45.000000,0.000000,0.000000,0.000000,0.000000,0.000000,0.000000,0.000000,0.000000,0.000000,0.000000,0.000000,0.000000,0.000000,0.000000,0.000000,0.000000,0.000000,0.000000,0.000000,0.000000,0.000000,0.000000,0.000000,0.000000,0.000000,0.000000,0.000000,0.000000,0.000000,0.000000,0.000000,0.000000,0.000000,0.000000,0.000000,0.000000,0.000000,0.000000,0.000000,0.000000,0.000000,0.000000,0.000000,0.000000,0.000000,0.000000,0.000000,0.000000,0.000000,0.000000,0.000000,0.000000,0.000000,0.000000,0.000000,0.000000,0.000000,0.000000,0.000000,
0.400000,-0.000000,-0.000000,0.098773,-0.000000,0.000000,0.000002,0.000000,0.000000,0.000000,45.000000,0.000000,0.000000,0.000000,0.000000,0.000000,0.000000,0.000000,0.000000,0.000000,0.000000,0.000000,0.000000,0.000000,0.000000,0.000000,0.000000,0.000000,0.000000,0.000000,0.000000,0.000000,0.000000,0.000000,0.000000,0.000000,0.000000,0.000000,0.000000,0.000000,0.000000,0.000000,0.000000,0.000000,0.000000,0.000000,0.000000,0.000000,0.000000,0.000000,0.000000,0.000000,0.000000,0.000000,0.000000,0.000000,0.000000,0.000000,0.000000,0.000000,0.000000,0.000000,0.000000,0.000000,0.000000,0.000000,0.000000,0.000000,0.000000,0.000000,
0.500000,-0.000000,-0.000000,0.098772,-0.000000,0.000000,0.000000,0.000000,0.000000,0.000000,45.000000,0.000000,0.000000,0.000000,0.000000,0.000000,0.000000,0.000000,0.000000,0.000000,0.000000,0.000000,0.000000,0.000000,0.000000,0.000000,0.000000,0.000000,0.000000,0.000000,0.000000,0.000000,0.000000,0.000000,0.000000,0.000000,0.000000,0.000000,0.000000,0.000000,0.000000,0.000000,0.000000,0.000000,0.000000,0.000000,0.000000,0.000000,0.000000,0.000000,0.000000,0.000000,0.000000,0.000000,0.000000,0.000000,0.000000,0.000000,0.000000,0.000000,0.000000,0.000000,0.000000,0.000000,0.000000,0.000000,0.000000,0.000000,0.000000,0.000000,
0.600000,-0.000000,-0.000000,0.098772,-0.000000,0.000000,0.000000,0.000000,0.000000,0.000000,45.000000,0.000000,0.000000,0.000000,0.000000,0.000000,0.000000,0.000000,0.000000,0.000000,0.000000,0.000000,0.000000,0.000000,0.000000,0.000000,0.000000,0.000000,0.000000,0.000000,0.000000,0.000000,0.000000,0.000000,0.000000,0.000000,0.000000,0.000000,0.000000,0.000000,0.000000,0.000000,0.000000,0.000000,0.000000,0.000000,0.000000,0.000000,0.000000,0.000000,0.000000,0.000000,0.000000,0.000000,0.000000,0.000000,0.000000,0.000000,0.000000,0.000000,0.000000,0.000000,0.000000,0.000000,0.000000,0.000000,0.000000,0.000000,0.000000,0.000000,
0.700000,-0.000000,-0.000000,0.098772,-0.000000,0.000000,0.000000,0.000000,0.000000,0.000000,45.000000,0.000000,0.000000,0.000000,0.000000,0.000000,0.000000,0.000000,0.000000,0.000000,0.000000,0.000000,0.000000,0.000000,0.000000,0.000000,0.000000,0.000000,0.000000,0.000000,0.000000,0.000000,0.000000,0.000000,0.000000,0.000000,0.000000,0.000000,0.000000,0.000000,0.000000,0.000000,0.000000,0.000000,0.000000,0.000000,0.000000,0.000000,0.000000,0.000000,0.000000,0.000000,0.000000,0.000000,0.000000,0.000000,0.000000,0.000000,0.000000,0.000000,0.000000,0.000000,0.000000,0.000000,0.000000,0.000000,0.000000,0.000000,0.000000,0.000000,
0.800000,-0.000000,-0.000000,0.098772,-0.000000,0.000000,0.000000,0.000000,0.000000,0.000000,45.000000,0.000000,0.000000,0.000000,0.000000,0.000000,0.000000,0.000000,0.000000,0.000000,0.000000,0.000000,0.000000,0.000000,0.000000,0.000000,0.000000,0.000000,0.000000,0.000000,0.000000,0.000000,0.000000,0.000000,0.000000,0.000000,0.000000,0.000000,0.000000,0.000000,0.000000,0.000000,0.000000,0.000000,0.000000,0.000000,0.000000,0.000000,0.000000,0.000000,0.000000,0.000000,0.000000,0.000000,0.000000,0.000000,0.000000,0.000000,0.000000,0.000000,0.000000,0.000000,0.000000,0.000000,0.000000,0.000000,0.000000,0.000000,0.000000,0.000000,
0.900000,-0.000000,-0.000000,0.098772,-0.000000,0.000000,0.000000,0.000000,0.000000,0.000000,45.000000,0.000000,0.000000,0.000000,0.000000,0.000000,0.000000,0.000000,0.000000,0.000000,0.000000,0.000000,0.000000,0.000000,0.000000,0.000000,0.000000,0.000000,0.000000,0.000000,0.000000,0.000000,0.000000,0.000000,0.000000,0.000000,0.000000,0.000000,0.000000,0.000000,0.000000,0.000000,0.000000,0.000000,0.000000,0.000000,0.000000,0.000000,0.000000,0.000000,0.000000,0.000000,0.000000,0.000000,0.000000,0.000000,0.000000,0.000000,0.000000,0.000000,0.000000,0.000000,0.000000,0.000000,0.000000,0.000000,0.000000,0.000000,0.000000,0.000000,
1.000000,-0.000000,-0.000000,0.098772,-0.000000,0.000000,0.000000,0.000000,0.000000,0.000000,45.000000,0.000000,0.000000,0.000000,0.000000,0.000000,0.000000,0.000000,0.000000,0.000000,0.000000,0.000000,0.000000,0.000000,0.000000,0.000000,0.000000,0.000000,0.000000,0.000000,0.000000,0.000000,0.000000,0.000000,0.000000,0.000000,0.000000,0.000000,0.000000,0.000000,0.000000,0.000000,0.000000,0.000000,0.000000,0.000000,0.000000,0.000000,0.000000,0.000000,0.000000,0.000000,0.000000,0.000000,0.000000,0.000000,0.000000,0.000000,0.000000,0.000000,0.000000,0.000000,0.000000,0.000000,0.000000,0.000000,0.000000,0.000000,0.000000,0.000000,
1.100000,-0.000000,-0.000000,0.098772,-0.000000,0.000000,0.000000,0.000000,0.000000,0.000000,45.000000,0.000000,0.000000,0.000000,0.000000,0.000000,0.000000,0.000000,0.000000,0.000000,0.000000,0.000000,0.000000,0.000000,0.000000,0.000000,0.000000,0.000000,0.000000,0.000000,0.000000,0.000000,0.000000,-0.000000,-0.000000,0.000000,0.000000,-0.000000,0.000000,0.000000,0.000000,-0.000000,-0.000000,0.000000,0.000000,0.000000,0.000000,0.000000,1.666667,1.666667,60.000000,0.333333,0.333333,0.333333,0.016667,0.016667,0.026667,3.333333,0.000000,0.000000,0.000000,0.000000,0.000000,0.000000,0.000000,0.000000,0.000000,0.000000,0.000000,0.000000,
1.200000,-0.000000,-0.000000,0.098772,-0.000000,0.000000,0.000000,0.000000,0.000000,0.000000,45.000000,0.000000,0.000000,0.000000,0.000000,0.000000,-1.578211,0.517367,-1.578211,0.517367,0.000000,0.000000,0.000000,0.000000,0.000000,0.000000,0.000000,0.000000,0.000000,0.000000,0.000000,0.000000,0.000000,-0.000000,-0.000000,0.000000,0.000000,-0.000000,0.000000,0.000000,0.000000,0.000000,0.000000,-0.000000,0.000000,0.000000,0.000000,0.000000,1.295328,0.895456,60.000000,0.333333,0.333333,0.333333,0.016667,0.016667,0.026667,3.333333,0.000000,0.000000,0.000000,0.000000,0.000000,0.000000,0.000000,0.000000,0.000000,0.000000,0.000000,0.000000,
1.300000,-0.000000,-0.000000,0.098772,-0.000000,0.000000,0.000000,0.000000,0.000000,0.000000,45.000000,0.000000,0.000000,0.000000,0.000000,0.000000,-1.578211,0.517367,-1.578211,0.517367,0.000000,0.000000,0.000000,0.000000,0.000000,0.000000,0.000000,0.000000,0.000000,0.000000,0.000000,0.000000,0.000000,-0.000000,-0.000000,0.000000,0.000000,-0.000000,0.000000,0.000000,0.000000,0.000000,0.000000,0.000000,0.000000,0.000000,0.000000,0.000000,1.295328,0.895456,60.000000,0.333333,0.333333,0.333333,0.016667,0.016667,0.026667,3.333333,0.000000,0.000000,0.000000,0.000000,0.000000,0.000000,0.000000,0.000000,0.000000,0.000000,0.000000,0.000000,
1.400000,-0.000000,-0.000000,0.098772,-0.000000,0.000000,0.000000,0.000000,0.000000,0.000000,45.000000,0.000000,0.000000,0.000000,0.000000,0.000000,-1.578211,0.517367,-1.578211,0.517367,0.000000,0.000000,0.000000,0.000000,0.000000,0.000000,0.000000,0.000000,0.000000,0.000000,0.000000,0.000000,0.000000,-0.000000,-0.000000,0.000000,0.000000,-0.000000,0.000000,0.000000,0.000000,0.000000,0.000000,-0.000000,0.000000,0.000000,0.000000,0.000000,1.295328,0.895456,60.000000,0.333333,0.333333,0.333333,0.016667,0.016667,0.026667,3.333333,0.000000,0.000000,0.000000,0.000000,0.000000,0.000000,0.000000,0.000000,0.000000,0.000000,0.000000,0.000000,
1.500000,-0.000000,-0.000000,0.098772,-0.000000,0.000000,0.000000,0.000000,0.000000,0.000000,45.000000,0.000000,0.000000,0.000000,0.000000,0.000000,-1.578211,0.517367,-1.578211,0.517367,0.000000,0.000000,0.000000,0.000000,0.000000,0.000000,0.000000,0.000000,0.000000,0.000000,0.000000,0.000000,0.000000,-0.000000,-0.000000,0.000000,0.000000,-0.000000,0.000000,0.000000,0.000000,0.000000,-0.000000,0.000000,0.000000,0.000000,0.000000,0.000000,1.295328,0.895456,60.000000,0.333333,0.333333,0.333333,0.016667,0.016667,0.026667,3.333333,0.000000,0.000000,0.000000,0.000000,0.000000,0.000000,0.000000,0.000000,0.000000,0.000000,0.000000,0.000000,
1.600000,-0.000000,-0.000000,0.098772,-0.000000,0.000000,0.000000,0.000000,0.000000,0.000000,45.000000,0.000000,0.000000,0.000000,0.000000,0.000000,-1.578211,0.517367,-1.578211,0.517367,0.000000,0.000000,0.000000,0.000000,0.000000,0.000000,0.000000,0.000000,0.000000,0.000000,0.000000,0.000000,0.000000,-0.000000,-0.000000,0.000000,0.000000,-0.000000,0.000000,0.000000,0.000000,-0.000000,-0.000000,-0.000000,0.000000,0.000000,0.000000,0.000000,1.295328,0.895456,60.000000,0.333333,0.333333,0.333333,0.016667,0.016667,0.026667,3.333333,0.000000,0.000000,0.000000,0.000000,0.000000,0.000000,0.000000,0.000000,0.000000,0.000000,0.000000,0.000000,
1.700000,-0.000000,-0.000000,0.098772,-0.000000,0.000000,0.000000,0.000000,0.000000,0.000000,45.000000,0.049262,0.000000,1.000000,0.000000,0.000000,-1.578211,0.517367,-1.577853,0.516954,0.010687,0.089466,-0.039084,0.000736,0.002245,-0.081475,-1.577853,0.516954,-45.000581,0.005003,0.310001,-0.159808,0.005000,0.310001,-0.159808,0.000075,0.004650,-0.003625,0.000044,-0.000221,0.012850,0.000160,0.000133,0.012850,0.012852,-0.042494,0.050483,0.049262,1.295393,0.895588,60.000002,0.235702,0.235702,0.235702,0.000000,0.000000,0.000000,2.357025,0.010000,0.620000,-0.320129,0.000000,0.000000,0.000000,0.000000,0.000000,0.000000,0.000000,0.000000,0.000000,
1.800000,-0.000000,-0.000000,0.098772,-0.000000,0.000000,0.000000,0.000000,0.000000,0.000000,45.000000,-0.001628,0.000000,1.000000,0.000000,0.000000,-1.578211,0.517367,-1.577136,0.516024,0.010687,0.089466,-0.039084,0.000736,0.002245,-0.081475,-1.577136,0.516024,-45.001418,0.005021,0.310016,-0.158523,0.005014,0.310017,-0.158523,0.000576,0.035651,-0.019535,0.000109,-0.000171,0.012850,0.000225,0.000183,0.012848,0.012852,0.000763,-0.002952,-0.001628,1.295717,0.896245,60.000011,0.235703,0.235703,0.235703,0.000000,0.000000,0.000000,2.357178,0.010000,0.620000,-0.320129,0.000000,0.000000,0.000000,0.000000,0.000000,0.000000,0.000000,0.000000,0.000000,
1.900000,-0.000000,-0.000000,0.098772,-0.000000,0.000000,0.000000,0.000000,0.000000,0.000000,45.000000,-0.052519,0.000000,1.000000,0.000000,0.000000,-1.578211,0.517367,-1.576392,0.515121,0.010687,0.089466,-0.039084,0.000736,0.002245,-0.081475,-1.576392,0.515121,-45.002231,0.005055,0.310044,-0.157238,0.005043,0.310044,-0.157238,0.001080,0.066654,-0.035317,0.000174,-0.000121,0.012852,0.000290,0.000232,0.012848,0.012854,0.046565,-0.053842,-0.052519,1.296041,0.896901,60.000020,0.235703,0.235703,0.235703,0.000000,0.000000,0.000000,2.357567,0.010000,0.620000,-0.320129,0.000000,0.000000,0.000000,0.000000,0.000000,0.000000,0.000000,0.000000,0.000000,
2.000000,-0.000000,-0.000000,0.098772,-0.000000,0.000000,0.000000,0.000000,0.000000,0.000000,45.000000,0.065802,0.000000,1.000000,0.000000,0.000000,-1.578211,0.517367,-1.575649,0.514205,0.010687,0.089466,-0.039084,0.000736,0.002245,-0.081475,-1.575649,0.514205,-45.003043,0.005107,0.310086,-0.155953,0.005090,0.310086,-0.155953,0.001588,0.097661,-0.050970,0.000546,0.000181,0.012864,0.000661,0.000534,0.012848,0.012876,-0.056489,0.068295,0.065802,1.296364,0.897557,60.000029,0.235703,0.235703,0.235703,0.000000,0.000000,0.000000,2.358192,0.010000,0.620000,-0.320129,0.000000,0.000000,0.000000,0.000000,0.000000,0.000000,0.000000,0.000000,0.000000,
2.100000,-0.000000,-0.000000,0.098772,-0.000000,0.000000,0.000000,0.000000,0.000000,0.000000,45.000000,-0.069059,1.000000,2.000000,0.000000,1.000000,-1.578211,0.517367,-1.573509,0.512348,0.010687,0.089466,-0.039084,0.000736,0.002245,-0.081475,-1.573509,0.512348,-45.030916,-0.001970,0.028325,-0.016425,-0.001985,0.028324,-0.016425,0.012144,-0.013165,0.050595,0.000618,0.000351,0.012869,0.000733,0.000704,0.012849,0.012889,0.059288,-0.071654,-0.069059,1.296688,0.898212,60.000030,0.088730,0.088730,0.088714,0.000000,0.000000,0.000000,0.195144,-0.040834,-0.267330,0.082994,0.000000,0.000000,0.000000,-0.001639,-0.100761,-0.051301,-0.005112,-0.310090,0.155824,
2.200000,-0.000000,-0.000000,0.098772,-0.000000,0.000000,0.000000,0.000000,0.000000,0.000000,45.000000,0.049262,1.000000,2.000000,0.000000,1.000000,-1.578211,0.517367,-1.573496,0.512345,0.010687,0.089466,-0.039084,0.000736,0.002245,-0.081475,-1.573496,0.512345,-45.030913,-0.001888,0.028402,-0.015140,-0.001903,0.028401,-0.015140,0.011951,-0.010328,0.049024,0.000833,0.000526,0.012876,0.000948,0.000879,0.012849,0.012914,-0.042494,0.050483,0.049262,1.297011,0.898867,60.000039,0.088730,0.088730,0.088715,0.000000,0.000000,0.000000,0.195519,-0.040834,-0.267330,0.082994,0.000000,0.000000,0.000000,-0.001639,-0.100761,-0.051301,-0.005112,-0.310090,0.155824,
2.300000,-0.000000,-0.000000,0.098772,-0.000000,0.000000,0.000000,0.000000,0.000000,0.000000,45.000000,-0.001628,1.000000,2.000000,0.000000,1.000000,-1.578211,0.517367,-1.572778,0.511416,0.010687,0.089466,-0.039084,0.000736,0.002245,-0.081475,-1.572778,0.511416,-45.031751,-0.001791,0.028492,-0.013855,-0.001806,0.028491,-0.013855,0.011768,-0.007483,0.047580,0.000899,0.000575,0.012878,0.001013,0.000928,0.012849,0.012922,0.000763,-0.002952,-0.001628,1.297335,0.899521,60.000048,0.088731,0.088731,0.088715,0.000000,0.000000,0.000000,0.196296,-0.040834,-0.267330,0.082994,0.000000,0.000000,0.000000,-0.001639,-0.100761,-0.051301,-0.005112,-0.310090,0.155824,
2.400000,-0.000000,-0.000000,0.098772,-0.000000,0.000000,0.000000,0.000000,0.000000,0.000000,45.000000,-0.052519,1.000000,2.000000,0.000000,1.000000,-1.578211,0.517367,-1.572035,0.510513,0.010687,0.089466,-0.039084,0.000736,0.002245,-0.081475,-1.572035,0.510513,-45.032563,-0.001677,0.028594,-0.012570,-0.001694,0.028593,-0.012570,0.011595,-0.004628,0.046266,0.000964,0.000625,0.012880,0.001078,0.000978,0.012849,0.012931,0.046565,-0.053842,-0.052519,1.297658,0.900175,60.000056,0.088733,0.088732,0.088716,0.000000,0.000000,0.000000,0.197468,-0.040834,-0.267330,0.082994,0.000000,0.000000,0.000000,-0.001639,-0.100761,-0.051301,-0.005112,-0.310090,0.155824,
2.500000,-0.000000,-0.000000,0.098772,-0.000000,0.000000,0.000000,0.000000,0.000000,0.000000,45.000000,0.065802,1.000000,2.000000,0.000000,1.000000,-1.578211,0.517367,-1.571292,0.509597,0.010687,0.089466,-0.039084,0.000736,0.002245,-0.081475,-1.571292,0.509597,-45.033376,-0.001547,0.028711,-0.011285,-0.001564,0.028710,-0.011285,0.011434,-0.001762,0.045079,0.001336,0.000927,0.012891,0.001450,0.001280,0.012849,0.012994,-0.056489,0.068295,0.065802,1.297982,0.900829,60.000065,0.088734,0.088734,0.088717,0.000000,0.000000,0.000000,0.199030,-0.040834,-0.267330,0.082994,0.000000,0.000000,0.000000,-0.001639,-0.100761,-0.051301,-0.005112,-0.310090,0.155824,
2.600000,-0.000000,-0.000000,0.098772,-0.000000,0.000000,0.000000,0.000000,0.000000,0.000000,45.000000,-0.069059,1.000000,2.000000,0.000000,1.000000,-1.578211,0.517367,-1.569830,0.507755,0.010687,0.089466,-0.039084,0.000736,0.002245,-0.081475,-1.569830,0.507755,-45.035015,-0.001404,0.028837,-0.010000,-0.001421,0.028836,-0.010000,0.011287,0.001115,0.044021,0.001405,0.000981,0.012894,0.001519,0.001334,0.012849,0.013007,0.059288,-0.071654,-0.069059,1.298305,0.901482,60.000074,0.088735,0.088735,0.088717,0.000000,0.000000,0.000000,0.200971,-0.040834,-0.267330,0.082994,0.000000,0.000000,0.000000,-0.001639,-0.100761,-0.051301,-0.005112,-0.310090,0.155824,
2.700000,-0.000000,-0.000000,0.098772,-0.000000,0.000000,0.000000,0.000000,0.000000,0.000000,45.000000,0.049262,1.000000,2.000000,0.000000,1.000000,-1.578211,0.517367,-1.569818,0.507753,0.010687,0.089466,-0.039084,0.000736,0.002245,-0.081475,-1.569818,0.507753,-45.035013,-0.001243,0.028977,-0.008715,-0.001261,0.028976,-0.008715,0.011155,0.004007,0.043092,0.001620,0.001156,0.012900,0.001734,0.001509,0.012849,0.013053,-0.042494,0.050483,0.049262,1.298628,0.902134,60.000083,0.088737,0.088737,0.088718,0.000000,0.000000,0.000000,0.203281,-0.040834,-0.267330,0.082994,0.000000,0.000000,0.000000,-0.001639,-0.100761,-0.051301,-0.005112,-0.310090,0.155824,
2.800000,-0.000000,-0.000000,0.098772,-0.000000,0.000000,0.000000,0.000000,0.000000,0.000000,45.000000,-0.001628,1.000000,2.000000,0.000000,1.000000,-1.578211,0.517367,-1.569100,0.506824,0.010687,0.089466,-0.039084,0.000736,0.002245,-0.081475,-1.569100,0.506824,-45.035850,-0.001067,0.029129,-0.007430,-0.001086,0.029129,-0.007430,0.011041,0.006913,0.042291,0.001686,0.001205,0.012902,0.001799,0.001558,0.012849,0.013067,0.000763,-0.002952,-0.001628,1.298951,0.902786,60.000092,0.088739,0.088740,0.088719,0.000000,0.000000,0.000000,0.205948,-0.040834,-0.267330,0.082994,0.000000,0.000000,0.000000,-0.001639,-0.100761,-0.051301,-0.005112,-0.310090,0.155824,
2.900000,-0.000000,-0.000000,0.098772,-0.000000,0.000000,0.000000,0.000000,0.000000,0.000000,45.000000,-0.052519,1.000000,2.000000,0.000000,1.000000,-1.578211,0.517367,-1.568356,0.505921,0.010687,0.089466,-0.039084,0.000736,0.002245,-0.081475,-1.568356,0.505921,-45.036663,-0.000876,0.029294,-0.006146,-0.000894,0.029294,-0.006146,0.010944,0.009835,0.041619,0.001751,0.001255,0.012904,0.001864,0.001608,0.012849,0.013083,0.046565,-0.053842,-0.052519,1.299274,0.903438,60.000101,0.088742,0.088743,0.088720,0.000000,0.000000,0.000000,0.208958,-0.040834,-0.267330,0.082994,0.000000,0.000000,0.000000,-0.001639,-0.100761,-0.051301,-0.005112,-0.310090,0.155824,
3.000000,-0.000000,-0.000000,0.098772,-0.000000,0.000000,0.000000,0.000000,0.000000,0.000000,45.000000,0.065802,1.000000,2.000000,0.000000,1.000000,-1.578211,0.517367,-1.567613,0.505005,0.010687,0.089466,-0.039084,0.000736,0.002245,-0.081475,-1.567613,0.505005,-45.037475,-0.000666,0.029473,-0.004861,-0.000686,0.029473,-0.004861,0.010868,0.012774,0.041075,0.002123,0.001557,0.012916,0.002236,0.001910,0.012849,0.013181,-0.056489,0.068295,0.065802,1.299597,0.904089,60.000110,0.088745,0.088746,0.088720,0.000000,0.000000,0.000000,0.212296,-0.040834,-0.267330,0.082994,0.000000,0.000000,0.000000,-0.001639,-0.100761,-0.051301,-0.005112,-0.310090,0.155824,
3.100000,-0.000000,-0.000000,0.098772,-0.000000,0.000000,0.000000,0.000000,0.000000,0.000000,45.000000,-0.069059,2.000000,3.000000,0.000000,2.000000,-1.578211,0.517367,-1.564731,0.503464,0.010687,0.089466,-0.039084,0.000736,0.002245,-0.081475,-1.564731,0.503464,-45.470170,0.010707,0.003115,0.001846,0.010681,0.003202,0.001846,0.016512,-0.002936,0.088391,0.002141,0.001854,0.012924,0.002254,0.002207,0.012849,0.013231,0.059288,-0.071654,-0.069059,1.299916,0.904738,59.993930,0.064403,0.064404,0.063343,0.000000,0.000000,0.000000,0.142424,0.290433,-0.366618,-0.046816,1.000000,0.000000,0.000000,-0.010862,-0.013069,0.042255,0.000645,-0.029492,0.004732,
3.200000,-0.000000,-0.000000,0.098772,-0.000000,0.000000,0.000000,0.000000,0.000000,0.000000,45.000000,0.049262,2.000000,3.000000,0.000000,2.000000,-1.578211,0.517367,-1.564718,0.503461,0.010687,0.089466,-0.039084,0.000736,0.002245,-0.081475,-1.564718,0.503461,-45.470167,0.010942,0.003340,0.003131,0.010914,0.003430,0.003131,0.017595,-0.002613,0.088646,0.002356,0.002029,0.012931,0.002469,0.002381,0.012849,0.013299,-0.042494,0.050483,0.049262,1.300239,0.905388,59.993939,0.064408,0.064409,0.063344,0.000000,0.000000,0.000000,0.144087,0.290433,-0.366618,-0.046816,1.000000,0.000000,0.000000,-0.010862,-0.013069,0.042255,0.000645,-0.029492,0.004732,
3.300000,-0.000000,-0.000000,0.098772,-0.000000,0.000000,0.000000,0.000000,0.000000,0.000000,45.000000,-0.001628,2.000000,3.000000,0.000000,2.000000,-1.578211,0.517367,-1.564000,0.502532,0.010687,0.089466,-0.039084,0.000736,0.002245,-0.081475,-1.564000,0.502532,-45.471005,0.011194,0.003578,0.004416,0.011164,0.003670,0.004416,0.018703,-0.002266,0.089030,0.002421,0.002079,0.012933,0.002534,0.002431,0.012849,0.013321,0.000763,-0.002952,-0.001628,1.300562,0.906038,59.993948,0.064414,0.064415,0.063345,0.000000,0.000000,0.000000,0.146006,0.290433,-0.366618,-0.046816,1.000000,0.000000,0.000000,-0.010862,-0.013069,0.042255,0.000645,-0.029492,0.004732,
3.400000,-0.000000,-0.000000,0.098772,-0.000000,0.000000,0.000000,0.000000,0.000000,0.000000,45.000000,-0.052519,2.000000,3.000000,1.000000,2.000000,-1.578211,0.517367,-1.577749,0.516813,0.010687,0.089466,-0.039084,0.000736,0.002245,-0.081475,-1.577749,0.516813,-45.471814,0.011439,0.003808,0.005696,0.011407,0.003902,0.005696,0.019838,-0.001893,0.089542,-0.000116,-0.000354,0.012843,0.000000,0.000000,0.012849,0.012849,0.046565,-0.053842,-0.052519,0.014423,0.013904,59.993957,0.064420,0.064421,0.063346,0.000000,0.000000,0.000000,0.148171,0.290433,-0.366618,-0.046816,1.000000,0.000000,0.000000,-0.010862,-0.013069,0.042255,0.000645,-0.029492,0.004732,
3.500000,-0.000000,-0.000000,0.098772,-0.000000,0.000000,0.000000,0.000000,0.000000,0.000000,45.000000,0.065802,2.000000,3.000000,1.000000,2.000000,-1.578211,0.517367,-1.577005,0.515897,0.010687,0.089466,-0.039084,0.000736,0.002245,-0.081475,-1.577005,0.515897,-45.472626,0.011462,0.003827,0.006981,0.011430,0.003921,0.006981,0.020983,-0.001512,0.090182,0.000256,-0.000052,0.012855,0.000372,0.000302,0.012849,0.012858,-0.056489,0.068295,0.065802,0.032368,0.037016,59.993966,0.064421,0.064422,0.063347,0.000000,0.000000,0.000000,0.150572,0.290433,-0.366618,-0.046816,1.000000,0.000000,0.000000,-0.010862,-0.013069,0.042255,0.000645,-0.029492,0.004732,
3.600000,-0.000000,-0.000000,0.098772,-0.000000,0.000000,0.000000,0.000000,0.000000,0.000000,45.000000,-0.069059,2.000000,3.000000,2.000000,2.000000,-1.578211,0.517367,-1.577490,0.516554,0.010687,0.089466,-0.039084,0.000736,0.002245,-0.081475,-1.577490,0.516554,-45.474266,0.011494,0.003852,0.008265,0.011461,0.003947,0.008265,0.022131,-0.001128,0.090951,-0.000103,-0.000331,0.012844,0.000013,0.000023,0.012849,0.012849,0.059288,-0.071654,-0.069059,0.014144,0.013822,59.993975,0.064423,0.064424,0.063348,0.000000,0.000000,0.000000,0.153197,0.290433,-0.366618,-0.046816,1.000000,0.000000,0.000000,-0.010862,-0.013069,0.042255,0.000645,-0.029492,0.004732,
3.700000,-0.000000,-0.000000,0.098772,-0.000000,0.000000,0.000000,0.000000,0.000000,0.000000,45.000000,0.049262,2.000000,3.000000,2.000000,2.000000,-1.578211,0.517367,-1.577477,0.516551,0.010687,0.089466,-0.039084,0.000736,0.002245,-0.081475,-1.577477,0.516551,-45.474263,0.011503,0.003861,0.009550,0.011471,0.003956,0.009550,0.023281,-0.000742,0.091849,0.000113,-0.000156,0.012851,0.000228,0.000198,0.012849,0.012852,-0.042494,0.050483,0.049262,0.032245,0.036985,59.993983,0.064424,0.064425,0.063349,0.000000,0.000000,0.000000,0.156035,0.290433,-0.366618,-0.046816,1.000000,0.000000,0.000000,-0.010862,-0.013069,0.042255,0.000645,-0.029492,0.004732,
3.800000,-0.000000,-0.000000,0.098772,-0.000000,0.000000,0.000000,0.000000,0.000000,0.000000,45.000000,-0.001628,2.000000,3.000000,3.000000,2.000000,-1.578211,0.517367,-1.578110,0.517285,0.010687,0.089466,-0.039084,0.000736,0.002245,-0.081475,-1.578110,0.517285,-45.475100,0.011526,0.003880,0.010835,0.011494,0.003976,0.010835,0.024432,-0.000355,0.092874,-0.000107,-0.000338,0.012844,0.000009,0.000016,0.012849,0.012849,0.000763,-0.002952,-0.001628,0.014143,0.013822,59.993992,0.064426,0.064426,0.063350,0.000000,0.000000,0.000000,0.159075,0.290433,-0.366618,-0.046816,1.000000,0.000000,0.000000,-0.010862,-0.013069,0.042255,0.000645,-0.029492,0.004732,
3.900000,-0.000000,-0.000000,0.098772,-0.000000,0.000000,0.000000,0.000000,0.000000,0.000000,45.000000,-0.052519,2.000000,3.000000,3.000000,2.000000,-1.578211,0.517367,-1.577367,0.516382,0.010687,0.089466,-0.039084,0.000736,0.002245,-0.081475,-1.577367,0.516382,-45.475913,0.011539,0.003891,0.012120,0.011506,0.003987,0.012120,0.025585,0.000034,0.094028,-0.000042,-0.000288,0.012846,0.000074,0.000065,0.012849,0.012849,0.046565,-0.053842,-0.052519,0.032244,0.036985,59.994001,0.064427,0.064427,0.063351,0.000000,0.000000,0.000000,0.162306,0.290433,-0.366618,-0.046816,1.000000,0.000000,0.000000,-0.010862,-0.013069,0.042255,0.000645,-0.029492,0.004732,
4.000000,-0.000000,-0.000000,0.098772,-0.000000,0.000000,0.000000,0.000000,0.000000,0.000000,45.000000,0.065802,2.000000,3.000000,4.000000,2.000000,-1.578211,0.517367,-1.578631,0.517989,0.010687,0.089466,-0.039084,0.000736,0.002245,-0.081475,-1.578631,0.517989,-45.476725,0.011566,0.003913,0.013404,0.011533,0.004009,0.013404,0.026741,0.000424,0.095311,-0.000103,-0.000330,0.012844,0.000014,0.000024,0.012849,0.012849,-0.056489,0.068295,0.065802,0.014143,0.013822,59.994010,0.064429,0.064428,0.063352,0.000000,0.000000,0.000000,0.165716,0.290433,-0.366618,-0.046816,1.000000,0.000000,0.000000,-0.010862,-0.013069,0.042255,0.000645,-0.029492,0.004732,
4.100000,-0.000000,-0.000000,0.098772,-0.000000,0.000000,0.000000,0.000000,0.000000,0.000000,45.000000,-0.069059,3.000000,4.000000,4.000000,3.000000,-1.578211,0.517367,-1.577170,0.516147,0.010687,0.089466,-0.039084,0.000736,0.002245,-0.081475,-1.577170,0.516147,-45.408494,0.007372,0.003279,-0.003799,0.007348,0.003331,-0.003799,0.014498,0.005968,0.003934,-0.000033,-0.000276,0.012846,0.000083,0.000078,0.012849,0.012849,0.059288,-0.071654,-0.069059,0.032244,0.036985,59.980787,0.052328,0.052328,0.050157,0.000000,0.000000,0.000000,0.124449,-0.007551,-0.002809,-0.007400,1.000000,0.000000,0.000000,-0.026856,-0.000463,0.096674,-0.011564,-0.003912,-0.013533,
4.200000,-0.000000,-0.000000,0.098772,-0.000000,0.000000,0.000000,0.000000,0.000000,0.000000,45.000000,0.049262,3.000000,4.000000,5.000000,3.000000,-1.578211,0.517367,-1.578536,0.517832,0.010687,0.089466,-0.039084,0.000736,0.002245,-0.081475,-1.578536,0.517832,-45.408491,0.007386,0.003291,-0.002515,0.007362,0.003343,-0.002515,0.015236,0.006296,0.003625,-0.000107,-0.000338,0.012844,0.000009,0.000016,0.012848,0.012849,-0.042494,0.050483,0.049262,0.014143,0.013822,59.980795,0.052330,0.052329,0.050159,0.000000,0.000000,0.000000,0.126640,-0.007551,-0.002809,-0.007400,1.000000,0.000000,0.000000,-0.026856,-0.000463,0.096674,-0.011564,-0.003912,-0.013533,
4.300000,-0.000000,-0.000000,0.098772,-0.000000,0.000000,0.000000,0.000000,0.000000,0.000000,45.000000,-0.001628,3.000000,4.000000,5.000000,3.000000,-1.578211,0.517367,-1.577818,0.516903,0.010687,0.089466,-0.039084,0.000736,0.002245,-0.081475,-1.577818,0.516903,-45.409329,0.007389,0.003294,-0.001230,0.007365,0.003347,-0.001230,0.015975,0.006625,0.003444,-0.000042,-0.000288,0.012846,0.000074,0.000066,0.012848,0.012849,0.000763,-0.002952,-0.001628,0.032244,0.036985,59.980804,0.052331,0.052330,0.050160,0.000000,0.000000,0.000000,0.128990,-0.007551,-0.002809,-0.007400,1.000000,0.000000,0.000000,-0.026856,-0.000463,0.096674,-0.011564,-0.003912,-0.013533,
4.400000,-0.000000,-0.000000,0.098772,-0.000000,0.000000,0.000000,0.000000,0.000000,0.000000,45.000000,-0.052519,3.000000,4.000000,6.000000,3.000000,-1.578211,0.517367,-1.577706,0.516789,0.010687,0.089466,-0.039084,0.000736,0.002245,-0.081475,-1.577706,0.516789,-45.410141,0.007407,0.003309,0.000055,0.007383,0.003362,0.000055,0.016715,0.006956,0.003392,-0.000112,-0.000346,0.012843,0.000004,0.000007,0.012848,0.012848,0.046565,-0.053842,-0.052519,0.014143,0.013822,59.980813,0.052333,0.052331,0.050161,0.000000,0.000000,0.000000,0.131488,-0.007551,-0.002809,-0.007400,1.000000,0.000000,0.000000,-0.026856,-0.000463,0.096674,-0.011564,-0.003912,-0.013533,
4.500000,-0.000000,-0.000000,0.098772,-0.000000,0.000000,0.000000,0.000000,0.000000,0.000000,45.000000,0.065802,3.000000,4.000000,6.000000,3.000000,-1.578211,0.517367,-1.576963,0.515874,0.010687,0.089466,-0.039084,0.000736,0.002245,-0.081475,-1.576963,0.515874,-45.410953,0.007430,0.003328,0.001340,0.007406,0.003381,0.001340,0.017456,0.007287,0.003468,0.000260,-0.000044,0.012855,0.000376,0.000309,0.012848,0.012858,-0.056489,0.068295,0.065802,0.032244,0.036985,59.980822,0.052334,0.052333,0.050163,0.000000,0.000000,0.000000,0.134128,-0.007551,-0.002809,-0.007400,1.000000,0.000000,0.000000,-0.026856,-0.000463,0.096674,-0.011564,-0.003912,-0.013533,
4.600000,-0.000000,-0.000000,0.098772,-0.000000,0.000000,0.000000,0.000000,0.000000,0.000000,45.000000,-0.069059,3.000000,4.000000,7.000000,3.000000,-1.578211,0.517367,-1.577487,0.516553,0.010687,0.089466,-0.039084,0.000736,0.002245,-0.081475,-1.577487,0.516553,-45.412593,0.007462,0.003354,0.002624,0.007437,0.003407,0.002624,0.018201,0.007622,0.003672,-0.000103,-0.000330,0.012844,0.000013,0.000023,0.012848,0.012849,0.059288,-0.071654,-0.069059,0.014143,0.013822,59.980831,0.052336,0.052335,0.050164,0.000000,0.000000,0.000000,0.136901,-0.007551,-0.002809,-0.007400,1.000000,0.000000,0.000000,-0.026856,-0.000463,0.096674,-0.011564,-0.003912,-0.013533,
4.700000,-0.000000,-0.000000,0.098772,-0.000000,0.000000,0.000000,0.000000,0.000000,0.000000,45.000000,0.049262,3.000000,4.000000,7.000000,3.000000,-1.578211,0.517367,-1.577474,0.516550,0.010687,0.089466,-0.039084,0.000736,0.002245,-0.081475,-1.577474,0.516550,-45.412590,0.007471,0.003363,0.003909,0.007447,0.003416,0.003909,0.018948,0.007957,0.004006,0.000113,-0.000156,0.012851,0.000229,0.000198,0.012848,0.012852,-0.042494,0.050483,0.049262,0.032244,0.036985,59.980840,0.052338,0.052336,0.050165,0.000000,0.000000,0.000000,0.139799,-0.007551,-0.002809,-0.007400,1.000000,0.000000,0.000000,-0.026856,-0.000463,0.096674,-0.011564,-0.003912,-0.013533,
4.800000,-0.000000,-0.000000,0.098772,-0.000000,0.000000,0.000000,0.000000,0.000000,0.000000,45.000000,-0.001628,3.000000,4.000000,8.000000,3.000000,-1.578211,0.517367,-1.578110,0.517285,0.010687,0.089466,-0.039084,0.000736,0.002245,-0.081475,-1.578110,0.517285,-45.413428,0.007494,0.003382,0.005194,0.007470,0.003436,0.005194,0.019696,0.008295,0.004467,-0.000107,-0.000338,0.012844,0.000009,0.000016,0.012848,0.012849,0.000763,-0.002952,-0.001628,0.014143,0.013822,59.980849,0.052339,0.052337,0.050166,0.000000,0.000000,0.000000,0.142814,-0.007551,-0.002809,-0.007400,1.000000,0.000000,0.000000,-0.026856,-0.000463,0.096674,-0.011564,-0.003912,-0.013533,
4.900000,-0.000000,-0.000000,0.098772,-0.000000,0.000000,0.000000,0.000000,0.000000,0.000000,45.000000,-0.052519,3.000000,4.000000,8.000000,3.000000,-1.578211,0.517367,-1.577366,0.516382,0.010687,0.089466,-0.039084,0.000736,0.002245,-0.081475,-1.577366,0.516382,-45.414240,0.007507,0.003393,0.006478,0.007482,0.003447,0.006478,0.020446,0.008633,0.005057,-0.000042,-0.000288,0.012846,0.000074,0.000065,0.012848,0.012849,0.046565,-0.053842,-0.052519,0.032244,0.036985,59.980858,0.052341,0.052338,0.050168,0.000000,0.000000,0.000000,0.145940,-0.007551,-0.002809,-0.007400,1.000000,0.000000,0.000000,-0.026856,-0.000463,0.096674,-0.011564,-0.003912,-0.013533,
5.000000,-0.000000,-0.000000,0.098772,-0.000000,0.000000,0.000000,0.000000,0.000000,0.000000,45.000000,0.065802,3.000000,4.000000,9.000000,3.000000,-1.578211,0.517367,-1.578631,0.517989,0.010687,0.089466,-0.039084,0.000736,0.002245,-0.081475,-1.578631,0.517989,-45.415053,0.007533,0.003415,0.007763,0.007508,0.003469,0.007763,0.021198,0.008974,0.005776,-0.000103,-0.000330,0.012844,0.000014,0.000024,0.012848,0.012849,-0.056489,0.068295,0.065802,0.014143,0.013822,59.980867,0.052343,0.052340,0.050169,0.000000,0.000000,0.000000,0.149169,-0.007551,-0.002809,-0.007400,1.000000,0.000000,0.000000,-0.026856,-0.000463,0.096674,-0.011564,-0.003912,-0.013533,
5.100000,-0.000000,-0.000000,0.098772,-0.000000,0.000000,0.000000,0.000000,0.000000,0.000000,45.000000,-0.069059,4.000000,5.000000,9.000000,4.000000,-1.578211,0.517367,-1.577170,0.516147,0.010687,0.089466,-0.039084,0.000736,0.002245,-0.081475,-1.577170,0.516147,-45.499695,0.006840,0.000349,0.018131,0.006837,0.000409,0.018131,0.005386,0.000110,0.058624,-0.000033,-0.000276,0.012846,0.000083,0.000078,0.012848,0.012849,0.059288,-0.071654,-0.069059,0.032244,0.036985,59.972553,0.044523,0.044521,0.041353,0.000000,0.000000,0.000000,0.116787,0.154640,-0.102453,0.003054,2.000000,0.000000,0.000000,-0.021274,-0.009008,0.007082,-0.007532,-0.003414,-0.007892,
5.200000,-0.000000,-0.000000,0.098772,-0.000000,0.000000,0.000000,0.000000,0.000000,0.000000,45.000000,0.049262,4.000000,5.000000,10.000000,4.000000,-1.578211,0.517367,-1.578536,0.517832,0.010687,0.089466,-0.039084,0.000736,0.002245,-0.081475,-1.578536,0.517832,-45.499692,0.006854,0.000362,0.019416,0.006851,0.000421,0.019416,0.006071,0.000145,0.060508,-0.000107,-0.000338,0.012844,0.000009,0.000016,0.012849,0.012849,-0.042494,0.050483,0.049262,0.014143,0.013822,59.972562,0.044524,0.044522,0.041354,0.000000,0.000000,0.000000,0.119097,0.154640,-0.102453,0.003054,2.000000,0.000000,0.000000,-0.021274,-0.009008,0.007082,-0.007532,-0.003414,-0.007892,
5.300000,-0.000000,-0.000000,0.098772,-0.000000,0.000000,0.000000,0.000000,0.000000,0.000000,45.000000,-0.001628,4.000000,5.000000,10.000000,4.000000,-1.578211,0.517367,-1.577818,0.516903,0.010687,0.089466,-0.039084,0.000736,0.002245,-0.081475,-1.577818,0.516903,-45.500530,0.006858,0.000365,0.020701,0.006854,0.000425,0.020701,0.006757,0.000181,0.062520,-0.000042,-0.000288,0.012846,0.000074,0.000066,0.012849,0.012849,0.000763,-0.002952,-0.001628,0.032244,0.036985,59.972570,0.044526,0.044523,0.041356,0.000000,0.000000,0.000000,0.121503,0.154640,-0.102453,0.003054,2.000000,0.000000,0.000000,-0.021274,-0.009008,0.007082,-0.007532,-0.003414,-0.007892,
5.400000,-0.000000,-0.000000,0.098772,-0.000000,0.000000,0.000000,0.000000,0.000000,0.000000,45.000000,-0.052519,4.000000,5.000000,11.000000,4.000000,-1.578211,0.517367,-1.577706,0.516789,0.010687,0.089466,-0.039084,0.000736,0.002245,-0.081475,-1.577706,0.516789,-45.501342,0.006876,0.000380,0.021986,0.006873,0.000440,0.021986,0.007443,0.000219,0.064661,-0.000112,-0.000346,0.012844,0.000004,0.000007,0.012849,0.012849,0.046565,-0.053842,-0.052519,0.014143,0.013822,59.972579,0.044528,0.044525,0.041357,0.000000,0.000000,0.000000,0.124001,0.154640,-0.102453,0.003054,2.000000,0.000000,0.000000,-0.021274,-0.009008,0.007082,-0.007532,-0.003414,-0.007892,
5.500000,-0.000000,-0.000000,0.098772,-0.000000,0.000000,0.000000,0.000000,0.000000,0.000000,45.000000,0.065802,4.000000,5.000000,11.000000,4.000000,-1.578211,0.517367,-1.576963,0.515874,0.010687,0.089466,-0.039084,0.000736,0.002245,-0.081475,-1.576963,0.515874,-45.502155,0.006899,0.000399,0.023271,0.006896,0.000459,0.023271,0.008132,0.000258,0.066930,0.000260,-0.000044,0.012855,0.000376,0.000309,0.012849,0.012858,-0.056489,0.068295,0.065802,0.032244,0.036985,59.972588,0.044529,0.044526,0.041359,0.000000,0.000000,0.000000,0.126585,0.154640,-0.102453,0.003054,2.000000,0.000000,0.000000,-0.021274,-0.009008,0.007082,-0.007532,-0.003414,-0.007892,
5.600000,-0.000000,-0.000000,0.098772,-0.000000,0.000000,0.000000,0.000000,0.000000,0.000000,45.000000,-0.069059,4.000000,5.000000,12.000000,4.000000,-1.578211,0.517367,-1.577487,0.516553,0.010687,0.089466,-0.039084,0.000736,0.002245,-0.081475,-1.577487,0.516553,-45.503794,0.006932,0.000425,0.024555,0.006928,0.000486,0.024555,0.008824,0.000299,0.069328,-0.000103,-0.000330,0.012844,0.000013,0.000023,0.012849,0.012849,0.059288,-0.071654,-0.069059,0.014143,0.013822,59.972597,0.044531,0.044528,0.041360,0.000000,0.000000,0.000000,0.129249,0.154640,-0.102453,0.003054,2.000000,0.000000,0.000000,-0.021274,-0.009008,0.007082,-0.007532,-0.003414,-0.007892,
5.700000,-0.000000,-0.000000,0.098772,-0.000000,0.000000,0.000000,0.000000,0.000000,0.000000,45.000000,0.049262,4.000000,5.000000,12.000000,4.000000,-1.578211,0.517367,-1.577474,0.516550,0.010687,0.089466,-0.039084,0.000736,0.002245,-0.081475,-1.577474,0.516550,-45.503791,0.006942,0.000434,0.025840,0.006938,0.000495,0.025840,0.009517,0.000342,0.071854,0.000113,-0.000156,0.012851,0.000229,0.000198,0.012849,0.012852,-0.042494,0.050483,0.049262,0.032244,0.036985,59.972606,0.044533,0.044530,0.041362,0.000000,0.000000,0.000000,0.131990,0.154640,-0.102453,0.003054,2.000000,0.000000,0.000000,-0.021274,-0.009008,0.007082,-0.007532,-0.003414,-0.007892,
5.800000,-0.000000,-0.000000,0.098772,-0.000000,0.000000,0.000000,0.000000,0.000000,0.000000,45.000000,-0.001628,4.000000,5.000000,13.000000,4.000000,-1.578211,0.517367,-1.578110,0.517285,0.010687,0.089466,-0.039084,0.000736,0.002245,-0.081475,-1.578110,0.517285,-45.504629,0.006965,0.000454,0.027125,0.006961,0.000516,0.027125,0.010213,0.000386,0.074509,-0.000107,-0.000338,0.012844,0.000009,0.000016,0.012849,0.012849,0.000763,-0.002952,-0.001628,0.014143,0.013822,59.972615,0.044535,0.044531,0.041364,0.000000,0.000000,0.000000,0.134801,0.154640,-0.102453,0.003054,2.000000,0.000000,0.000000,-0.021274,-0.009008,0.007082,-0.007532,-0.003414,-0.007892,
5.900000,-0.000000,-0.000000,0.098772,-0.000000,0.000000,0.000000,0.000000,0.000000,0.000000,45.000000,-0.052519,4.000000,5.000000,13.000000,4.000000,-1.578211,0.517367,-1.577366,0.516382,0.010687,0.089466,-0.039084,0.000736,0.002245,-0.081475,-1.577366,0.516382,-45.505441,0.006978,0.000465,0.028409,0.006974,0.000527,0.028409,0.010910,0.000432,0.077292,-0.000042,-0.000288,0.012846,0.000074,0.000065,0.012849,0.012849,0.046565,-0.053842,-0.052519,0.032244,0.036985,59.972624,0.044537,0.044533,0.041365,0.000000,0.000000,0.000000,0.137680,0.154640,-0.102453,0.003054,2.000000,0.000000,0.000000,-0.021274,-0.009008,0.007082,-0.007532,-0.003414,-0.007892,
6.000000,-0.000000,-0.000000,0.098772,-0.000000,0.000000,0.000000,0.000000,0.000000,0.000000,45.000000,0.065802,4.000000,5.000000,14.000000,4.000000,-1.578211,0.517367,-1.578631,0.517989,0.010687,0.089466,-0.039084,0.000736,0.002245,-0.081475,-1.578631,0.517989,-45.506254,0.007005,0.000488,0.029694,0.007001,0.000549,0.029694,0.011609,0.000480,0.080204,-0.000103,-0.000330,0.012844,0.000014,0.000024,0.012849,0.012849,-0.056489,0.068295,0.065802,0.014143,0.013822,59.972633,0.044539,0.044535,0.041367,0.000000,0.000000,0.000000,0.140621,0.154640,-0.102453,0.003054,2.000000,0.000000,0.000000,-0.021274,-0.009008,0.007082,-0.007532,-0.003414,-0.007892,
6.100000,-0.000000,-0.000000,0.098772,-0.000000,0.000000,0.000000,0.000000,0.000000,0.000000,45.000000,-0.069059,5.000000,6.000000,14.000000,5.000000,-1.578211,0.517367,-1.577170,0.516147,0.010687,0.089466,-0.039084,0.000736,0.002245,-0.081475,-1.577170,0.516147,-45.425934,0.005771,0.001976,0.022381,0.005756,0.002018,0.022381,0.010868,0.007497,0.036754,-0.000033,-0.000276,0.012846,0.000083,0.000078,0.012849,0.012849,0.059288,-0.071654,-0.069059,0.032244,0.036985,59.966267,0.038814,0.038811,0.034839,0.000000,0.000000,0.000000,0.112780,-0.025573,0.069599,0.395914,2.000000,0.000000,1.000000,-0.011679,-0.000485,0.081730,-0.007004,-0.000487,-0.029823,
6.200000,-0.000000,-0.000000,0.098772,-0.000000,0.000000,0.000000,0.000000,0.000000,0.000000,45.000000,0.049262,5.000000,6.000000,15.000000,5.000000,-1.578211,0.517367,-1.578536,0.517832,0.010687,0.089466,-0.039084,0.000736,0.002245,-0.081475,-1.578536,0.517832,-45.425931,0.005786,0.001988,0.023666,0.005771,0.002031,0.023666,0.011446,0.007695,0.039063,-0.000107,-0.000338,0.012844,0.000009,0.000016,0.012849,0.012849,-0.042494,0.050483,0.049262,0.014143,0.013822,59.966276,0.038816,0.038813,0.034840,0.000000,0.000000,0.000000,0.115009,-0.025573,0.069599,0.395914,2.000000,0.000000,1.000000,-0.011679,-0.000485,0.081730,-0.007004,-0.000487,-0.029823,
6.300000,-0.000000,-0.000000,0.098772,-0.000000,0.000000,0.000000,0.000000,0.000000,0.000000,45.000000,-0.001628,5.000000,6.000000,15.000000,5.000000,-1.578211,0.517367,-1.577818,0.516903,0.010687,0.089466,-0.039084,0.000736,0.002245,-0.081475,-1.577818,0.516903,-45.426768,0.005789,0.001992,0.024951,0.005774,0.002035,0.024951,0.012025,0.007894,0.041500,-0.000042,-0.000288,0.012846,0.000074,0.000066,0.012849,0.012849,0.000763,-0.002952,-0.001628,0.032244,0.036985,59.966285,0.038818,0.038814,0.034842,0.000000,0.000000,0.000000,0.117299,-0.025573,0.069599,0.395914,2.000000,0.000000,1.000000,-0.011679,-0.000485,0.081730,-0.007004,-0.000487,-0.029823,
6.400000,-0.000000,-0.000000,0.098772,-0.000000,0.000000,0.000000,0.000000,0.000000,0.000000,45.000000,-0.052519,5.000000,6.000000,16.000000,5.000000,-1.578211,0.517367,-1.577706,0.516789,0.010687,0.089466,-0.039084,0.000736,0.002245,-0.081475,-1.577706,0.516789,-45.427581,0.005808,0.002007,0.026236,0.005793,0.002050,0.026236,0.012605,0.008094,0.044066,-0.000112,-0.000346,0.012843,0.000004,0.000007,0.012849,0.012849,0.046565,-0.053842,-0.052519,0.014143,0.013822,59.966294,0.038820,0.038816,0.034844,0.000000,0.000000,0.000000,0.119647,-0.025573,0.069599,0.395914,2.000000,0.000000,1.000000,-0.011679,-0.000485,0.081730,-0.007004,-0.000487,-0.029823,
6.500000,-0.000000,-0.000000,0.098772,-0.000000,0.000000,0.000000,0.000000,0.000000,0.000000,45.000000,0.065802,5.000000,6.000000,16.000000,5.000000,-1.578211,0.517367,-1.576963,0.515874,0.010687,0.089466,-0.039084,0.000736,0.002245,-0.081475,-1.576963,0.515874,-45.428393,0.005831,0.002026,0.027520,0.005815,0.002069,0.027520,0.013187,0.008296,0.046760,0.000260,-0.000044,0.012855,0.000376,0.000309,0.012849,0.012858,-0.056489,0.068295,0.065802,0.032244,0.036985,59.966303,0.038822,0.038818,0.034846,0.000000,0.000000,0.000000,0.122049,-0.025573,0.069599,0.395914,2.000000,0.000000,1.000000,-0.011679,-0.000485,0.081730,-0.007004,-0.000487,-0.029823,
6.600000,-0.000000,-0.000000,0.098772,-0.000000,0.000000,0.000000,0.000000,0.000000,0.000000,45.000000,-0.069059,5.000000,6.000000,17.000000,5.000000,-1.578211,0.517367,-1.577487,0.516553,0.010687,0.089466,-0.039084,0.000736,0.002245,-0.081475,-1.577487,0.516553,-45.430033,0.005864,0.002052,0.028805,0.005848,0.002096,0.028805,0.013771,0.008500,0.049583,-0.000103,-0.000330,0.012844,0.000013,0.000023,0.012849,0.012849,0.059288,-0.071654,-0.069059,0.014143,0.013822,59.966312,0.038824,0.038820,0.034848,0.000000,0.000000,0.000000,0.124503,-0.025573,0.069599,0.395914,2.000000,0.000000,1.000000,-0.011679,-0.000485,0.081730,-0.007004,-0.000487,-0.029823,
6.700000,-0.000000,-0.000000,0.098772,-0.000000,0.000000,0.000000,0.000000,0.000000,0.000000,45.000000,0.049262,5.000000,6.000000,17.000000,5.000000,-1.578211,0.517367,-1.577474,0.516550,0.010687,0.089466,-0.039084,0.000736,0.002245,-0.081475,-1.577474,0.516550,-45.430030,0.005873,0.002061,0.030090,0.005858,0.002105,0.030090,0.014358,0.008706,0.052534,0.000113,-0.000156,0.012851,0.000229,0.000198,0.012849,0.012852,-0.042494,0.050483,0.049262,0.032244,0.036985,59.966321,0.038826,0.038821,0.034850,0.000000,0.000000,0.000000,0.127004,-0.025573,0.069599,0.395914,2.000000,0.000000,1.000000,-0.011679,-0.000485,0.081730,-0.007004,-0.000487,-0.029823,
6.800000,-0.000000,-0.000000,0.098772,-0.000000,0.000000,0.000000,0.000000,0.000000,0.000000,45.000000,-0.001628,5.000000,6.000000,18.000000,5.000000,-1.578211,0.517367,-1.578110,0.517285,0.010687,0.089466,-0.039084,0.000736,0.002245,-0.081475,-1.578110,0.517285,-45.430868,0.005897,0.002081,0.031375,0.005881,0.002126,0.031375,0.014947,0.008913,0.055614,-0.000107,-0.000338,0.012844,0.000009,0.000016,0.012849,0.012849,0.000763,-0.002952,-0.001628,0.014143,0.013822,59.966330,0.038828,0.038823,0.034852,0.000000,0.000000,0.000000,0.129551,-0.025573,0.069599,0.395914,2.000000,0.000000,1.000000,-0.011679,-0.000485,0.081730,-0.007004,-0.000487,-0.029823,
6.900000,-0.000000,-0.000000,0.098772,-0.000000,0.000000,0.000000,0.000000,0.000000,0.000000,45.000000,-0.052519,5.000000,6.000000,18.000000,5.000000,-1.578211,0.517367,-1.577366,0.516382,0.010687,0.089466,-0.039084,0.000736,0.002245,-0.081475,-1.577366,0.516382,-45.431680,0.005910,0.002092,0.032659,0.005894,0.002137,0.032659,0.015537,0.009121,0.058822,-0.000042,-0.000288,0.012846,0.000074,0.000065,0.012849,0.012849,0.046565,-0.053842,-0.052519,0.032244,0.036985,59.966339,0.038830,0.038825,0.034854,0.000000,0.000000,0.000000,0.132141,-0.025573,0.069599,0.395914,2.000000,0.000000,1.000000,-0.011679,-0.000485,0.081730,-0.007004,-0.000487,-0.029823,
7.000000,-0.000000,-0.000000,0.098772,-0.000000,0.000000,0.000000,0.000000,0.000000,0.000000,45.000000,0.065802,5.000000,6.000000,19.000000,5.000000,-1.578211,0.517367,-1.578631,0.517989,0.010687,0.089466,-0.039084,0.000736,0.002245,-0.081475,-1.578631,0.517989,-45.432492,0.005937,0.002115,0.033944,0.005921,0.002160,0.033944,0.016130,0.009332,0.062159,-0.000103,-0.000330,0.012844,0.000014,0.000024,0.012849,0.012849,-0.056489,0.068295,0.065802,0.014143,0.013822,59.966348,0.038833,0.038827,0.034856,0.000000,0.000000,0.000000,0.134771,-0.025573,0.069599,0.395914,2.000000,0.000000,1.000000,-0.011679,-0.000485,0.081730,-0.007004,-0.000487,-0.029823,
7.100000,-0.000000,-0.000000,0.098772,-0.000000,0.000000,0.000000,0.000000,0.000000,0.000000,45.000000,-0.069059,6.000000,7.000000,19.000000,6.000000,-1.578211,0.517367,-1.577170,0.516147,0.010687,0.089466,-0.039084,0.000736,0.002245,-0.081475,-1.577170,0.516147,-45.389892,0.004719,0.002216,0.036772,0.004703,0.002248,0.036772,0.012191,0.012345,0.083425,-0.000033,-0.000276,0.012846,0.000083,0.000078,0.012849,0.012849,0.059288,-0.071654,-0.069059,0.032244,0.036985,59.960865,0.034341,0.034337,0.029782,0.000000,0.000000,0.000000,0.110037,-0.024741,-0.011584,-0.039711,2.000000,0.000000,1.000000,-0.016189,-0.009353,0.063727,-0.005936,-0.002114,-0.034073,
7.200000,-0.000000,-0.000000,0.098772,-0.000000,0.000000,0.000000,0.000000,0.000000,0.000000,45.000000,0.049262,6.000000,7.000000,20.000000,6.000000,-1.578211,0.517367,-1.578536,0.517832,0.010687,0.089466,-0.039084,0.000736,0.002245,-0.081475,-1.578536,0.517832,-45.389890,0.004734,0.002229,0.038056,0.004718,0.002261,0.038056,0.012663,0.012567,0.087173,-0.000107,-0.000338,0.012844,0.000009,0.000016,0.012849,0.012849,-0.042494,0.050483,0.049262,0.014143,0.013822,59.960874,0.034343,0.034338,0.029784,0.000000,0.000000,0.000000,0.112104,-0.024741,-0.011584,-0.039711,2.000000,0.000000,1.000000,-0.016189,-0.009353,0.063727,-0.005936,-0.002114,-0.034073,
7.300000,-0.000000,-0.000000,0.098772,-0.000000,0.000000,0.000000,0.000000,0.000000,0.000000,45.000000,-0.001628,6.000000,7.000000,20.000000,6.000000,-1.578211,0.517367,-1.577818,0.516903,0.010687,0.089466,-0.039084,0.000736,0.002245,-0.081475,-1.577818,0.516903,-45.390727,0.004737,0.002233,0.039341,0.004722,0.002265,0.039341,0.013137,0.012790,0.091049,-0.000042,-0.000288,0.012846,0.000074,0.000066,0.012849,0.012849,0.000763,-0.002952,-0.001628,0.032244,0.036985,59.960883,0.034345,0.034340,0.029786,0.000000,0.000000,0.000000,0.114212,-0.024741,-0.011584,-0.039711,2.000000,0.000000,1.000000,-0.016189,-0.009353,0.063727,-0.005936,-0.002114,-0.034073,
7.400000,-0.000000,-0.000000,0.098772,-0.000000,0.000000,0.000000,0.000000,0.000000,0.000000,45.000000,-0.052519,6.000000,7.000000,21.000000,6.000000,-1.578211,0.517367,-1.577706,0.516789,0.010687,0.089466,-0.039084,0.000736,0.002245,-0.081475,-1.577706,0.516789,-45.391540,0.004756,0.002248,0.040626,0.004740,0.002280,0.040626,0.013612,0.013014,0.095054,-0.000112,-0.000346,0.012844,0.000004,0.000007,0.012849,0.012849,0.046565,-0.053842,-0.052519,0.014143,0.013822,59.960892,0.034347,0.034342,0.029788,0.000000,0.000000,0.000000,0.116358,-0.024741,-0.011584,-0.039711,2.000000,0.000000,1.000000,-0.016189,-0.009353,0.063727,-0.005936,-0.002114,-0.034073,
7.500000,-0.000000,-0.000000,0.098772,-0.000000,0.000000,0.000000,0.000000,0.000000,0.000000,45.000000,0.065802,6.000000,7.000000,21.000000,6.000000,-1.578211,0.517367,-1.576963,0.515874,0.010687,0.089466,-0.039084,0.000736,0.002245,-0.081475,-1.576963,0.515874,-45.392352,0.004779,0.002267,0.041911,0.004763,0.002300,0.041911,0.014088,0.013240,0.099187,0.000260,-0.000044,0.012855,0.000376,0.000309,0.012849,0.012858,-0.056489,0.068295,0.065802,0.032244,0.036985,59.960901,0.034350,0.034344,0.029790,0.000000,0.000000,0.000000,0.118540,-0.024741,-0.011584,-0.039711,2.000000,0.000000,1.000000,-0.016189,-0.009353,0.063727,-0.005936,-0.002114,-0.034073,
7.600000,-0.000000,-0.000000,0.098772,-0.000000,0.000000,0.000000,0.000000,0.000000,0.000000,45.000000,-0.069059,6.000000,7.000000,22.000000,6.000000,-1.578211,0.517367,-1.577487,0.516553,0.010687,0.089466,-0.039084,0.000736,0.002245,-0.081475,-1.577487,0.516553,-45.393991,0.004812,0.002294,0.043195,0.004796,0.002327,0.043195,0.014568,0.013468,0.103449,-0.000103,-0.000330,0.012844,0.000013,0.000023,0.012849,0.012849,0.059288,-0.071654,-0.069059,0.014143,0.013822,59.960910,0.034352,0.034346,0.029793,0.000000,0.000000,0.000000,0.120756,-0.024741,-0.011584,-0.039711,2.000000,0.000000,1.000000,-0.016189,-0.009353,0.063727,-0.005936,-0.002114,-0.034073,
7.700000,-0.000000,-0.000000,0.098772,-0.000000,0.000000,0.000000,0.000000,0.000000,0.000000,45.000000,0.049262,6.000000,7.000000,22.000000,6.000000,-1.578211,0.517367,-1.577474,0.516550,0.010687,0.089466,-0.039084,0.000736,0.002245,-0.081475,-1.577474,0.516550,-45.393989,0.004822,0.002303,0.044480,0.004806,0.002336,0.044480,0.015049,0.013698,0.107839,0.000113,-0.000156,0.012851,0.000229,0.000198,0.012849,0.012852,-0.042494,0.050483,0.049262,0.032244,0.036985,59.960919,0.034355,0.034348,0.029795,0.000000,0.000000,0.000000,0.123004,-0.024741,-0.011584,-0.039711,2.000000,0.000000,1.000000,-0.016189,-0.009353,0.063727,-0.005936,-0.002114,-0.034073,
7.800000,-0.000000,-0.000000,0.098772,-0.000000,0.000000,0.000000,0.000000,0.000000,0.000000,45.000000,-0.001628,6.000000,7.000000,23.000000,6.000000,-1.578211,0.517367,-1.578110,0.517285,0.010687,0.089466,-0.039084,0.000736,0.002245,-0.081475,-1.578110,0.517285,-45.394826,0.004846,0.002323,0.045765,0.004830,0.002357,0.045765,0.015533,0.013929,0.112358,-0.000107,-0.000338,0.012844,0.000009,0.000016,0.012849,0.012849,0.000763,-0.002952,-0.001628,0.014143,0.013822,59.960928,0.034357,0.034350,0.029797,0.000000,0.000000,0.000000,0.125282,-0.024741,-0.011584,-0.039711,2.000000,0.000000,1.000000,-0.016189,-0.009353,0.063727,-0.005936,-0.002114,-0.034073,
7.900000,-0.000000,-0.000000,0.098772,-0.000000,0.000000,0.000000,0.000000,0.000000,0.000000,45.000000,-0.052519,6.000000,7.000000,23.000000,6.000000,-1.578211,0.517367,-1.577366,0.516382,0.010687,0.089466,-0.039084,0.000736,0.002245,-0.081475,-1.577366,0.516382,-45.395639,0.004859,0.002334,0.047050,0.004842,0.002368,0.047050,0.016018,0.014162,0.117005,-0.000042,-0.000288,0.012846,0.000074,0.000065,0.012849,0.012849,0.046565,-0.053842,-0.052519,0.032244,0.036985,59.960937,0.034359,0.034352,0.029799,0.000000,0.000000,0.000000,0.127590,-0.024741,-0.011584,-0.039711,2.000000,0.000000,1.000000,-0.016189,-0.009353,0.063727,-0.005936,-0.002114,-0.034073,
8.000000,-0.000000,-0.000000,0.098772,-0.000000,0.000000,0.000000,0.000000,0.000000,0.000000,45.000000,0.065802,6.000000,7.000000,24.000000,6.000000,-1.578211,0.517367,-1.578631,0.517989,0.010687,0.089466,-0.039084,0.000736,0.002245,-0.081475,-1.578631,0.517989,-45.396451,0.004887,0.002357,0.048335,0.004870,0.002391,0.048335,0.016505,0.014397,0.121781,-0.000103,-0.000330,0.012844,0.000014,0.000024,0.012849,0.012849,-0.056489,0.068295,0.065802,0.014143,0.013822,59.960946,0.034362,0.034354,0.029801,0.000000,0.000000,0.000000,0.129925,-0.024741,-0.011584,-0.039711,2.000000,0.000000,1.000000,-0.016189,-0.009353,0.063727,-0.005936,-0.002114,-0.034073,
8.100000,-0.000000,-0.000000,0.098772,-0.000000,0.000000,0.000000,0.000000,0.000000,0.000000,45.000000,-0.069059,7.000000,8.000000,24.000000,7.000000,-1.578211,0.517367,-1.577170,0.516147,0.010687,0.089466,-0.039084,0.000736,0.002245,-0.081475,-1.577170,0.516147,-45.393957,0.005484,0.003306,0.035929,0.005461,0.003344,0.035929,0.022937,0.025028,0.059244,-0.000033,-0.000276,0.012846,0.000083,0.000078,0.012849,0.012849,0.059288,-0.071654,-0.069059,0.032244,0.036985,59.955846,0.030689,0.030683,0.025754,0.000000,0.000000,0.000000,0.107672,0.026054,-0.041722,-0.172621,2.000000,0.000000,1.000000,-0.016554,-0.014420,0.123493,-0.004886,-0.002357,-0.048463,
8.200000,-0.000000,-0.000000,0.098772,-0.000000,0.000000,0.000000,0.000000,0.000000,0.000000,45.000000,0.049262,7.000000,8.000000,25.000000,7.000000,-1.578211,0.517367,-1.578536,0.517832,0.010687,0.089466,-0.039084,0.000736,0.002245,-0.081475,-1.578536,0.517832,-45.393954,0.005498,0.003319,0.037214,0.005476,0.003357,0.037214,0.023486,0.025360,0.062907,-0.000107,-0.000338,0.012844,0.000009,0.000016,0.012849,0.012849,-0.042494,0.050483,0.049262,0.014143,0.013822,59.955855,0.030691,0.030685,0.025756,0.000000,0.000000,0.000000,0.109556,0.026054,-0.041722,-0.172621,2.000000,0.000000,1.000000,-0.016554,-0.014420,0.123493,-0.004886,-0.002357,-0.048463,
8.300000,-0.000000,-0.000000,0.098772,-0.000000,0.000000,0.000000,0.000000,0.000000,0.000000,45.000000,-0.001628,7.000000,8.000000,25.000000,7.000000,-1.578211,0.517367,-1.577818,0.516903,0.010687,0.089466,-0.039084,0.000736,0.002245,-0.081475,-1.577818,0.516903,-45.394791,0.005502,0.003323,0.038499,0.005479,0.003361,0.038499,0.024036,0.025692,0.066700,-0.000042,-0.000288,0.012846,0.000074,0.000066,0.012849,0.012849,0.000763,-0.002952,-0.001628,0.032244,0.036985,59.955864,0.030693,0.030687,0.025759,0.000000,0.000000,0.000000,0.111467,0.026054,-0.041722,-0.172621,2.000000,0.000000,1.000000,-0.016554,-0.014420,0.123493,-0.004886,-0.002357,-0.048463,
8.400000,-0.000000,-0.000000,0.098772,-0.000000,0.000000,0.000000,0.000000,0.000000,0.000000,45.000000,-0.052519,7.000000,8.000000,26.000000,7.000000,-1.578211,0.517367,-1.577706,0.516789,0.010687,0.089466,-0.039084,0.000736,0.002245,-0.081475,-1.577706,0.516789,-45.395604,0.005521,0.003338,0.039784,0.005497,0.003376,0.039784,0.024587,0.026025,0.070620,-0.000112,-0.000346,0.012844,0.000004,0.000007,0.012849,0.012849,0.046565,-0.053842,-0.052519,0.014143,0.013822,59.955872,0.030696,0.030689,0.025761,0.000000,0.000000,0.000000,0.113405,0.026054,-0.041722,-0.172621,2.000000,0.000000,1.000000,-0.016554,-0.014420,0.123493,-0.004886,-0.002357,-0.048463,
8.500000,-0.000000,-0.000000,0.098772,-0.000000,0.000000,0.000000,0.000000,0.000000,0.000000,45.000000,0.065802,7.000000,8.000000,26.000000,7.000000,-1.578211,0.517367,-1.576963,0.515874,0.010687,0.089466,-0.039084,0.000736,0.002245,-0.081475,-1.576963,0.515874,-45.396416,0.005544,0.003357,0.041069,0.005520,0.003395,0.041069,0.025140,0.026360,0.074669,0.000260,-0.000044,0.012855,0.000376,0.000309,0.012849,0.012858,-0.056489,0.068295,0.065802,0.032244,0.036985,59.955881,0.030698,0.030691,0.025764,0.000000,0.000000,0.000000,0.115367,0.026054,-0.041722,-0.172621,2.000000,0.000000,1.000000,-0.016554,-0.014420,0.123493,-0.004886,-0.002357,-0.048463,
8.600000,-0.000000,-0.000000,0.098772,-0.000000,0.000000,0.000000,0.000000,0.000000,0.000000,45.000000,-0.069059,7.000000,8.000000,27.000000,7.000000,-1.578211,0.517367,-1.577487,0.516553,0.010687,0.089466,-0.039084,0.000736,0.002245,-0.081475,-1.577487,0.516553,-45.398056,0.005577,0.003384,0.042353,0.005553,0.003423,0.042353,0.025696,0.026697,0.078847,-0.000103,-0.000330,0.012844,0.000013,0.000023,0.012849,0.012849,0.059288,-0.071654,-0.069059,0.014143,0.013822,59.955890,0.030701,0.030694,0.025766,0.000000,0.000000,0.000000,0.117354,0.026054,-0.041722,-0.172621,2.000000,0.000000,1.000000,-0.016554,-0.014420,0.123493,-0.004886,-0.002357,-0.048463,
8.700000,-0.000000,-0.000000,0.098772,-0.000000,0.000000,0.000000,0.000000,0.000000,0.000000,45.000000,0.049262,7.000000,8.000000,27.000000,7.000000,-1.578211,0.517367,-1.577474,0.516550,0.010687,0.089466,-0.039084,0.000736,0.002245,-0.081475,-1.577474,0.516550,-45.398053,0.005587,0.003393,0.043638,0.005563,0.003432,0.043638,0.026254,0.027036,0.083153,0.000113,-0.000156,0.012851,0.000229,0.000198,0.012849,0.012852,-0.042494,0.050483,0.049262,0.032244,0.036985,59.955899,0.030704,0.030696,0.025769,0.000000,0.000000,0.000000,0.119362,0.026054,-0.041722,-0.172621,2.000000,0.000000,1.000000,-0.016554,-0.014420,0.123493,-0.004886,-0.002357,-0.048463,
8.800000,-0.000000,-0.000000,0.098772,-0.000000,0.000000,0.000000,0.000000,0.000000,0.000000,45.000000,-0.001628,7.000000,8.000000,28.000000,7.000000,-1.578211,0.517367,-1.578110,0.517285,0.010687,0.089466,-0.039084,0.000736,0.002245,-0.081475,-1.578110,0.517285,-45.398891,0.005611,0.003414,0.044923,0.005587,0.003453,0.044923,0.026814,0.027376,0.087587,-0.000107,-0.000338,0.012844,0.000009,0.000016,0.012849,0.012849,0.000763,-0.002952,-0.001628,0.014143,0.013822,59.955908,0.030706,0.030698,0.025771,0.000000,0.000000,0.000000,0.121393,0.026054,-0.041722,-0.172621,2.000000,0.000000,1.000000,-0.016554,-0.014420,0.123493,-0.004886,-0.002357,-0.048463,
8.900000,-0.000000,-0.000000,0.098772,-0.000000,0.000000,0.000000,0.000000,0.000000,0.000000,45.000000,-0.052519,7.000000,8.000000,28.000000,7.000000,-1.578211,0.517367,-1.577366,0.516382,0.010687,0.089466,-0.039084,0.000736,0.002245,-0.081475,-1.577366,0.516382,-45.399703,0.005624,0.003424,0.046207,0.005600,0.003464,0.046207,0.027376,0.027718,0.092150,-0.000042,-0.000288,0.012846,0.000074,0.000065,0.012849,0.012849,0.046565,-0.053842,-0.052519,0.032244,0.036985,59.955917,0.030709,0.030700,0.025774,0.000000,0.000000,0.000000,0.123444,0.026054,-0.041722,-0.172621,2.000000,0.000000,1.000000,-0.016554,-0.014420,0.123493,-0.004886,-0.002357,-0.048463,
9.000000,-0.000000,-0.000000,0.098772,-0.000000,0.000000,0.000000,0.000000,0.000000,0.000000,45.000000,0.065802,7.000000,8.000000,29.000000,7.000000,-1.578211,0.517367,-1.578631,0.517989,0.010687,0.089466,-0.039084,0.000736,0.002245,-0.081475,-1.578631,0.517989,-45.400516,0.005651,0.003448,0.047492,0.005627,0.003487,0.047492,0.027940,0.028062,0.096842,-0.000103,-0.000330,0.012844,0.000014,0.000024,0.012849,0.012849,-0.056489,0.068295,0.065802,0.014143,0.013822,59.955926,0.030711,0.030702,0.025776,0.000000,0.000000,0.000000,0.125514,0.026054,-0.041722,-0.172621,2.000000,0.000000,1.000000,-0.016554,-0.014420,0.123493,-0.004886,-0.002357,-0.048463,
