Time ,N (m),E (m),gndAlt,velLL X  ,velLL Y  ,velLL Z  ,Roll ,Pitch,Yaw  ,Body Accel Z,Baro Altitude,GPS posENU[0],GPS posENU[1],GPS posENU[2],Nav Acc Z,Nav Yaw Rate,Baro Update Count,GPS Update Count,Accel Update Count,Ground Align Update Count,Nav Roll,Nav Pitch,Accel Bias X (g),Accel Bias Y (g),Accel Bias Z (g),Gravity,Gravity Bias,Roll Error,Pitch Error,Yaw Error,Vel N Error,Vel E Error,Vel D Error,N Error (m),E Error (m),Alt Error (m),Acc Body X Error,Acc Body Y Error,Acc Body Z Error,p Error,q Error,r Error,VN Stdev,VE Stdev,Accel Bias X Stdev,Accel Bias Y Stdev,GPSResidual[GPS_N],GPSResidual[GPS_E],GPSResidual[GPS_ALT],GPSResidual[GPS_VN],GPSResidual[GPS_VE],GPSResidual[GPS_VD],onGround,movingDetection,
0.500000,-0.000000,-0.000000,0.098772,-0.000000,0.000000,0.000000,0.000000,0.000000,45.000000,-0.000000,0.000000,0.000000,0.000000,0.000000,0.000000,0.000000,0.000000,0.000000,0.000000,0.000000,0.000000,0.000000,0.000000,0.000000,0.000000,9.819500,0.000000,0.000000,0.000000,0.000000,0.000000,0.000000,0.000000,0.000000,0.000000,0.000000,0.000000,0.000000,0.000000,0.000000,0.000000,0.000000,0.000000,0.000000,0.000000,0.000000,0.000000,0.000000,0.000000,0.000000,0.000000,0.000000,1.000000,0.000000,
1.000000,-0.000000,-0.000000,0.098772,-0.000000,0.000000,0.000000,0.000000,0.000000,45.000000,-0.000000,0.000000,0.000000,0.000000,0.000000,0.000000,0.000000,0.000000,0.000000,0.000000,0.000000,0.000000,0.000000,0.000000,0.000000,0.000000,9.819500,0.000000,0.000000,0.000000,0.000000,0.000000,0.000000,0.000000,0.000000,0.000000,0.000000,0.000000,0.000000,0.000000,0.000000,0.000000,0.000000,0.000000,0.000000,0.000000,0.000000,0.000000,0.000000,0.000000,0.000000,0.000000,0.000000,1.000000,0.000000,
1.500000,-0.000000,-0.000000,0.098772,-0.000000,0.000000,0.000000,0.000000,0.000000,45.000000,-0.000000,0.000000,0.000000,0.000000,0.000000,0.000000,0.000000,0.000000,0.000000,0.000000,0.000000,-2.495256,-0.341344,0.000000,0.000000,0.000000,9.819500,0.000000,0.000000,0.000000,0.000000,0.000000,0.000000,0.000000,0.000000,0.000000,-0.000000,0.000000,0.000000,0.000000,0.000000,0.000000,0.000000,0.333333,0.333333,0.016667,0.016667,0.000000,0.000000,0.000000,0.000000,0.000000,0.000000,1.000000,0.000000,
2.000000,-0.000000,-0.000000,0.098815,-0.000000,0.000000,-0.000001,0.000000,0.000000,45.000000,0.000019,0.000000,0.000000,0.000000,0.000000,0.063469,0.065802,0.000000,1.000000,0.000000,0.000000,-2.492642,-0.344552,0.015056,-0.012970,-0.081239,9.819514,0.000000,-2.492642,-0.344552,-44.996679,0.016992,-0.001931,0.007205,0.005088,-0.000364,0.000666,-0.048574,0.050583,0.063450,-0.056489,0.068295,0.065802,0.244528,0.253967,0.015497,0.026983,-0.000007,0.000007,-0.000005,0.029308,0.000721,0.010528,1.000000,0.000000,
2.500000,-0.000000,-0.000000,0.098815,-0.000000,0.000000,-0.000000,0.000000,0.000000,45.000000,-0.000000,0.050926,-0.826507,3.058870,2.937500,0.063475,0.065802,1.000000,2.000000,0.000000,1.000000,-2.488870,-0.349214,0.015287,-0.012731,-0.081239,9.819505,-0.000000,-2.488870,-0.349214,-45.003563,0.002396,-0.005047,0.003408,0.030340,-0.009601,-0.043115,-0.050044,0.048888,0.063475,-0.056489,0.068295,0.065802,0.097734,0.139297,0.015178,0.025398,3.058860,-0.826517,2.937533,-0.010251,-0.090000,-0.020865,1.000000,0.000000,
3.000000,-0.000000,-0.000000,0.098815,-0.000000,0.000000,-0.000000,0.000000,0.000000,45.000000,0.000000,0.050926,-0.826507,3.058870,2.937500,0.063498,0.065802,1.000000,2.000000,0.000000,1.000000,-2.485130,-0.353872,0.015287,-0.012731,-0.081239,9.819505,-0.000000,-2.485130,-0.353872,-45.007588,0.005347,-0.008956,0.006754,0.032363,-0.013236,-0.040649,-0.049246,0.049528,0.063498,-0.056489,0.068295,0.065802,0.170796,0.262219,0.015178,0.025398,3.058860,-0.826517,2.937533,-0.010251,-0.090000,-0.020865,1.000000,0.000000,
3.500000,-0.000000,-0.000000,0.098815,-0.000000,0.000000,-0.000000,0.000000,0.000000,45.000000,-0.000000,0.016829,-3.680968,5.770474,-1.122335,0.064532,0.065802,2.000000,3.000000,1.000000,2.000000,-2.338887,-0.241838,0.015152,-0.013566,-0.081226,9.819506,-0.000000,-2.338887,-0.241838,-45.005933,0.008772,0.003027,0.003764,0.051505,-0.022636,-0.024446,-0.067119,0.082757,0.064532,-0.056489,0.068295,0.065802,0.079478,0.083281,0.007919,0.008810,5.752944,-3.676412,-1.152948,0.530085,-0.020332,-0.051650,1.000000,0.000000,
4.000000,-0.000000,-0.000000,0.098815,-0.000000,0.000000,-0.000000,0.000000,0.000000,45.000000,-0.000000,0.016829,-3.680968,5.770474,-1.122335,0.068057,0.065802,2.000000,3.000000,4.000000,2.000000,-1.759264,0.279617,0.015157,-0.013572,-0.081226,9.819506,-0.000000,-1.759264,0.279617,-45.010102,-0.014628,0.035944,0.007561,0.051515,-0.014519,-0.021760,-0.156533,0.182084,0.068057,-0.056489,0.068295,0.065802,0.121148,0.128879,0.007919,0.008810,5.752944,-3.676412,-1.152948,0.530085,-0.020332,-0.051650,1.000000,0.000000,
4.500000,-0.000000,-0.000000,0.098815,-0.000000,0.000000,-0.000000,0.000000,0.000000,45.000000,-0.000000,0.087171,-2.951459,1.551599,-2.481249,0.067141,0.065802,3.000000,4.000000,6.000000,3.000000,-1.887564,0.174202,0.014306,-0.011879,-0.081197,9.819509,-0.000000,-1.887564,0.174202,-45.013204,-0.037875,0.050640,-0.000625,0.047319,-0.022614,-0.040770,-0.130130,0.143506,0.067141,-0.056489,0.068295,0.065802,0.072556,0.074219,0.005694,0.006048,1.501388,-2.924775,-2.507876,0.307178,0.070783,-0.421793,1.000000,0.000000,
5.000000,-0.000000,-0.000000,0.098815,-0.000000,0.000000,-0.000000,0.000000,0.000000,45.000000,0.000000,0.087171,-2.951459,1.551599,-2.481249,0.068030,0.065802,3.000000,4.000000,9.000000,3.000000,-1.692604,0.363464,0.014308,-0.011881,-0.081196,9.819509,-0.000000,-1.692604,0.363464,-45.017335,-0.079761,0.098680,0.004158,0.018271,0.014356,-0.039913,-0.162584,0.176930,0.068030,-0.056489,0.068295,0.065802,0.105572,0.108748,0.005694,0.006048,1.501388,-2.924775,-2.507876,0.307178,0.070783,-0.421793,1.000000,0.000000,
5.500000,-0.000000,-0.000000,0.098815,-0.000000,0.000000,-0.000000,0.000000,0.000000,45.000000,-0.000000,-0.013269,-2.548965,4.832126,0.470200,0.067461,0.065802,4.000000,5.000000,11.000000,4.000000,-1.781380,0.280031,0.011931,-0.008799,-0.081177,9.819509,-0.000000,-1.781380,0.280031,-45.019046,-0.044696,0.049860,0.003214,0.058175,-0.023977,-0.030855,-0.124974,0.131496,0.067461,-0.056489,0.068295,0.065802,0.069615,0.070812,0.004651,0.004865,4.773579,-2.516706,0.432039,-0.007369,0.085712,-0.181593,1.000000,0.000000,
6.000000,-0.000000,-0.000000,0.098815,-0.000000,0.000000,-0.000000,0.000000,0.000000,45.000000,-0.000000,-0.013269,-2.548965,4.832126,0.470200,0.067935,0.065802,4.000000,5.000000,14.000000,4.000000,-1.664914,0.395941,0.011932,-0.008801,-0.081176,9.819509,-0.000000,-1.664914,0.395941,-45.023169,-0.081743,0.089573,0.008019,0.026743,0.010698,-0.028083,-0.144850,0.151467,0.067935,-0.056489,0.068295,0.065802,0.099041,0.101192,0.004651,0.004865,4.773579,-2.516706,0.432039,-0.007369,0.085712,-0.181593,1.000000,0.000000,
6.500000,-0.000000,-0.000000,0.098815,-0.000000,0.000000,-0.000000,0.000000,0.000000,45.000000,-0.000000,0.069138,-1.203082,-3.241737,0.310168,0.067403,0.065802,5.000000,6.000000,16.000000,5.000000,-1.732306,0.326973,0.010162,-0.006763,-0.081150,9.819508,-0.000000,-1.732306,0.326973,-45.025508,-0.043237,0.044625,0.002512,0.038815,-0.014921,-0.039611,-0.115672,0.119933,0.067403,-0.056489,0.068295,0.065802,0.068058,0.069087,0.004026,0.004180,-3.301272,-1.176732,0.278507,-0.166843,0.146216,-0.221917,1.000000,0.000000,
7.000000,-0.000000,-0.000000,0.098815,-0.000000,0.000000,-0.000000,0.000000,0.000000,45.000000,0.000000,0.069138,-1.203082,-3.241737,0.310168,0.067722,0.065802,5.000000,6.000000,19.000000,5.000000,-1.648393,0.412867,0.010163,-0.006764,-0.081148,9.819508,-0.000000,-1.648393,0.412867,-45.029626,-0.074824,0.077730,0.007259,0.009426,0.015536,-0.037216,-0.130402,0.134323,0.067722,-0.056489,0.068295,0.065802,0.095554,0.097319,0.004026,0.004180,-3.301272,-1.176732,0.278507,-0.166843,0.146216,-0.221917,1.000000,0.000000,
7.500000,-0.000000,-0.000000,0.098815,-0.000000,0.000000,-0.000000,0.000000,0.000000,45.000000,-0.000000,-0.273886,-2.154646,1.401190,-1.060142,0.067381,0.065802,6.000000,7.000000,21.000000,6.000000,-1.702818,0.352784,0.008782,-0.005371,-0.081134,9.819509,-0.000000,-1.702818,0.352784,-45.031888,-0.033484,0.039452,0.008191,0.039512,-0.010762,0.006942,-0.106559,0.111332,0.067381,-0.056489,0.068295,0.065802,0.067105,0.068054,0.003600,0.003721,1.355653,-2.135170,-1.098646,0.192248,0.167530,-0.021901,1.000000,0.000000,
8.000000,-0.000000,-0.000000,0.098815,-0.000000,0.000000,-0.000000,0.000000,0.000000,45.000000,-0.000000,-0.273886,-2.154646,1.401190,-1.060142,0.067620,0.065802,6.000000,7.000000,24.000000,6.000000,-1.636408,0.423153,0.008783,-0.005372,-0.081133,9.819509,-0.000000,-1.636408,0.423153,-45.036004,-0.060116,0.067845,0.012921,0.016222,0.015952,0.012167,-0.118626,0.122721,0.067620,-0.056489,0.068295,0.065802,0.093397,0.094975,0.003600,0.003721,1.355653,-2.135170,-1.098646,0.192248,0.167530,-0.021901,1.000000,0.000000,
8.500000,-0.000000,-0.000000,0.098815,-0.000000,0.000000,-0.000000,0.000000,0.000000,45.000000,-0.000000,0.082925,-0.267352,-0.605863,-1.344132,0.067180,0.065802,7.000000,8.000000,26.000000,7.000000,-1.682678,0.368570,0.007889,-0.004334,-0.081105,9.819509,-0.000000,-1.682678,0.368570,-45.038322,-0.031379,0.032884,0.005331,0.032015,-0.005576,-0.006835,-0.100505,0.104619,0.067180,-0.056489,0.068295,0.065802,0.066462,0.067367,0.003285,0.003387,-0.648065,-0.252713,-1.341000,0.010556,-0.021289,-0.002337,1.000000,0.000000,
9.000000,-0.000000,-0.000000,0.098815,-0.000000,0.000000,-0.000000,0.000000,0.000000,45.000000,0.000000,0.082925,-0.267352,-0.605863,-1.344132,0.067372,0.065802,7.000000,8.000000,29.000000,7.000000,-1.627018,0.429898,0.007889,-0.004335,-0.081104,9.819509,-0.000000,-1.627018,0.429898,-45.042436,-0.054773,0.057688,0.009985,0.010580,0.016964,-0.003064,-0.111021,0.114164,0.067372,-0.056489,0.068295,0.065802,0.091932,0.093404,0.003285,0.003387,-0.648065,-0.252713,-1.341000,0.010556,-0.021289,-0.002337,1.000000,0.000000,
9.500000,-0.000000,-0.000000,0.098815,-0.000000,0.000000,-0.000000,0.000000,0.000000,45.000000,-0.000000,-0.182082,0.409585,-0.214731,2.891127,0.067442,0.065802,8.000000,9.000000,31.000000,8.000000,-1.667057,0.379213,0.007041,-0.003176,-0.081125,9.819508,-0.000000,-1.667057,0.379213,-45.044742,-0.017398,0.001107,0.021609,0.004113,0.031572,-0.154039,-0.094014,0.095939,0.067442,-0.056489,0.068295,0.065802,0.059346,0.060184,0.003017,0.003103,-0.251283,0.419151,2.885740,0.019715,-0.049992,0.037734,1.000000,0.000000,
10.000000,-0.000000,-0.000000,0.098815,-0.000000,0.000000,-0.000000,0.000000,0.000000,45.000000,-0.000000,-0.182082,0.409585,-0.214731,2.891127,0.067602,0.065802,8.000000,9.000000,34.000000,8.000000,-1.618632,0.434854,0.007041,-0.003177,-0.081124,9.819508,-0.000000,-1.618632,0.434854,-45.048856,-0.037397,0.021411,0.026417,-0.009483,0.037096,-0.142097,-0.103555,0.104243,0.067602,-0.056489,0.068295,0.065802,0.085503,0.086873,0.003017,0.003103,-0.251283,0.419151,2.885740,0.019715,-0.049992,0.037734,1.000000,0.000000,
10.500000,-0.008418,0.015112,0.798758,0.020892,0.081629,-1.643084,1.139633,-0.274743,44.996429,-0.038134,0.106014,-0.028769,-0.421149,2.931884,0.145322,0.050534,9.000000,10.000000,36.000000,9.000000,-0.580429,0.115432,0.006360,-0.003114,-0.081348,9.819505,-0.000000,-1.735097,0.392192,-45.042837,0.050431,-0.007565,0.132755,-0.020135,0.018747,-0.203495,-0.089157,0.086722,0.110974,0.019855,0.019929,0.049074,0.059420,0.060547,0.002824,0.002901,-0.428989,-0.054631,2.779465,0.041313,0.027824,0.236363,1.000000,1.000000,
11.000000,-0.037549,0.066831,1.619815,0.042710,0.130706,-1.640068,0.031025,-0.254464,44.993283,-0.042005,0.106014,-0.028769,-0.421149,2.931884,0.124068,0.053079,9.000000,10.000000,39.000000,9.000000,-1.677454,0.215612,0.006357,-0.003114,-0.081347,9.819503,-0.000000,-1.724785,0.471319,-45.047522,0.070112,0.005093,0.137590,0.012450,0.019326,-0.135944,-0.103233,0.089457,0.104761,-0.036709,0.025087,0.049247,0.085029,0.086554,0.002824,0.002901,-0.428989,-0.054631,2.779465,0.041313,0.027824,0.236363,0.000000,1.000000,
11.500000,-0.057751,0.133283,2.396291,0.100873,0.108639,-1.529095,-0.387872,-0.923473,44.992779,-0.049533,1.750617,0.203773,0.167474,4.107279,0.110391,0.054351,10.000000,11.000000,39.000000,9.000000,-2.111078,-0.449630,0.006998,-0.003034,-0.081131,9.819499,-0.000001,-1.725364,0.479165,-45.030788,-0.013481,-0.031873,0.030229,0.006757,0.021903,-0.294584,-0.110493,0.085077,0.103822,-0.026046,0.001704,0.048836,0.062130,0.062913,0.002674,0.002744,0.191495,0.109696,2.360666,-0.067409,-0.009204,-0.117761,0.000000,1.000000,
12.000000,-0.042739,0.213038,3.162268,0.160274,0.075123,-1.532237,-0.352133,-0.465497,44.985954,-0.037614,1.750617,0.203773,0.167474,4.107279,0.118087,0.055623,10.000000,11.000000,39.000000,9.000000,-2.074879,-0.000615,0.006998,-0.003034,-0.081131,9.819496,-0.000001,-1.722079,0.472811,-45.048286,-0.046532,-0.070421,0.033579,-0.007583,-0.005170,-0.278718,-0.109341,0.086220,0.097544,-0.025464,0.034211,0.048368,0.086841,0.088120,0.002674,0.002744,0.191495,0.109696,2.360666,-0.067409,-0.009204,-0.117761,0.000000,1.000000,
12.500000,-0.001515,0.289078,3.926603,0.158309,0.011843,-1.528131,-0.948458,0.278354,44.974549,-0.051060,3.204273,0.868891,0.655120,5.351279,0.112983,0.047990,11.000000,12.000000,39.000000,9.000000,-2.666365,0.744004,0.006494,-0.003642,-0.081126,9.819493,-0.000001,-1.714113,0.464141,-45.074334,-0.062112,-0.008552,0.029366,0.081137,0.087927,-0.350845,-0.104165,0.092507,0.092968,-0.048550,0.055441,0.048238,0.061998,0.062770,0.002537,0.002601,0.705002,0.655866,1.918750,0.055742,0.066391,-0.001168,0.000000,0.000000,
13.000000,0.059757,0.334408,4.692083,0.149196,-0.049793,-1.531398,-0.479243,-0.114628,44.975821,-0.043003,3.204273,0.868891,0.655120,5.351279,0.119405,0.054351,11.000000,12.000000,39.000000,9.000000,-2.197560,0.352772,0.006494,-0.003642,-0.081126,9.819491,-0.000001,-1.712098,0.462256,-45.066716,-0.133157,-0.002636,0.032875,0.030543,0.085288,-0.335364,-0.104868,0.091109,0.097714,-0.016727,0.027805,0.049307,0.086423,0.087676,0.002537,0.002601,0.705002,0.655866,1.918750,0.055742,0.066391,-0.001168,0.000000,0.000000,
13.500000,0.131584,0.358834,5.467345,0.102749,-0.082425,-1.555480,-0.336840,0.907966,44.965258,-0.047140,4.741100,0.761299,-0.198261,6.811279,0.111798,0.050534,12.000000,13.000000,39.000000,9.000000,-2.046139,1.377041,0.005422,-0.003683,-0.081172,9.819489,-0.000001,-1.708880,0.461804,-45.099612,-0.071350,0.043057,0.056089,0.037942,0.131539,-0.371768,-0.094705,0.093367,0.097947,-0.021820,0.074238,0.049645,0.061843,0.062610,0.002420,0.002479,-0.287743,0.337589,1.792277,0.135000,0.004966,0.028928,0.000000,0.000000,
14.000000,0.191913,0.351411,6.246526,0.059611,-0.108635,-1.558684,-0.301142,0.067445,44.966308,-0.044787,4.741100,0.761299,-0.198261,6.811279,0.116052,0.053079,12.000000,13.000000,39.000000,9.000000,-2.005814,0.538829,0.005422,-0.003683,-0.081172,9.819486,-0.000001,-1.705281,0.460225,-45.078775,-0.121997,0.085254,0.059967,-0.011668,0.165640,-0.342818,-0.094728,0.094444,0.101332,-0.017365,0.020392,0.049334,0.086039,0.087280,0.002420,0.002479,-0.287743,0.337589,1.792277,0.135000,0.004966,0.028928,0.000000,0.000000,
14.500000,0.246188,0.329097,7.007375,0.015896,-0.095195,-1.514022,0.384567,0.767310,44.963674,-0.060255,5.983446,0.839548,-0.120680,8.428279,0.110449,0.050534,13.000000,14.000000,39.000000,9.000000,-1.306908,1.231432,0.004568,-0.003100,-0.081084,9.819484,-0.000001,-1.696919,0.457226,-45.101474,-0.038813,0.067938,0.016313,-0.009394,0.182978,-0.400429,-0.084535,0.090851,0.100594,0.005852,0.065644,0.048250,0.061716,0.062481,0.002317,0.002372,-0.299531,0.318671,1.847608,0.116407,-0.080114,-0.050916,0.000000,1.000000,
15.000000,0.273646,0.296564,7.766061,-0.019513,-0.081829,-1.518259,-0.103111,0.056595,44.958365,-0.042620,5.983446,0.839548,-0.120680,8.428279,0.110929,0.053079,13.000000,14.000000,39.000000,9.000000,-1.785948,0.520808,0.004568,-0.003100,-0.081084,9.819481,-0.000001,-1.690907,0.455368,-45.084580,-0.053806,0.115047,0.019924,-0.032221,0.231182,-0.391448,-0.084752,0.092835,0.103176,-0.027366,0.016575,0.049544,0.085722,0.086954,0.002317,0.002372,-0.299531,0.318671,1.847608,0.116407,-0.080114,-0.050916,0.000000,1.000000,
15.500000,0.291009,0.262006,8.528649,-0.033853,-0.050222,-1.527353,0.626714,0.239934,44.955399,-0.058851,7.652303,0.722174,0.023397,9.664279,0.117785,0.050534,14.000000,15.000000,39.000000,9.000000,-1.046298,0.696027,0.004217,-0.002381,-0.081091,9.819479,-0.000002,-1.680821,0.453186,-45.092547,-0.003882,0.056984,0.028437,-0.038674,0.224707,-0.410704,-0.079977,0.087455,0.104168,0.013282,0.044638,0.049578,0.061605,0.062365,0.002226,0.002278,-0.216865,0.190716,1.515128,0.052112,-0.104630,0.008447,0.000000,0.000000,
16.000000,0.288328,0.236679,9.293804,-0.040837,-0.023646,-1.530742,-0.024274,-0.060772,44.949781,-0.055478,7.652303,0.722174,0.023397,9.664279,0.119672,0.051807,14.000000,15.000000,39.000000,9.000000,-1.689199,0.393197,0.004217,-0.002381,-0.081091,9.819476,-0.000002,-1.674961,0.451139,-45.087777,0.001623,0.085450,0.032134,-0.037851,0.261922,-0.395629,-0.079899,0.088093,0.098835,-0.032967,0.028910,0.048678,0.085449,0.086668,0.002226,0.002278,-0.216865,0.190716,1.515128,0.052112,-0.104630,0.008447,0.000000,0.000000,
16.500000,0.282748,0.215251,10.053738,-0.037664,-0.013842,-1.513440,0.275818,0.017758,44.945802,-0.051321,9.270864,0.643925,-0.142846,11.298279,0.126936,0.047990,15.000000,16.000000,39.000000,9.000000,-1.390050,0.465063,0.004084,-0.001989,-0.081054,9.819474,-0.000002,-1.669527,0.447612,-45.093961,0.015430,0.046153,0.015582,-0.064691,0.270321,-0.444772,-0.077334,0.083948,0.107901,0.012332,0.034157,0.047906,0.059322,0.060033,0.002143,0.002191,-0.392200,0.140443,1.625312,0.021590,-0.061785,-0.048300,0.000000,1.000000,
17.000000,0.271999,0.199926,10.812140,-0.034482,-0.004540,-1.517471,-0.079375,-0.087559,44.942123,-0.058964,9.270864,0.643925,-0.142846,11.298279,0.111102,0.050534,15.000000,16.000000,39.000000,9.000000,-1.736613,0.357522,0.004084,-0.001989,-0.081054,9.819471,-0.000002,-1.663589,0.444523,-45.095019,0.012771,0.060772,0.019106,-0.056760,0.297705,-0.436179,-0.076994,0.085861,0.098688,-0.027859,0.022997,0.048004,0.083538,0.084716,0.002143,0.002191,-0.392200,0.140443,1.625312,0.021590,-0.061785,-0.048300,0.000000,1.000000,
17.500000,0.263414,0.188045,11.565652,-0.021801,0.002274,-1.500697,0.235339,-0.180051,44.938021,-0.031070,10.677285,0.849330,-0.530747,13.100279,0.116304,0.055623,16.000000,17.000000,39.000000,9.000000,-1.418485,0.261422,0.004095,-0.001671,-0.081018,9.819469,-0.000002,-1.657067,0.442738,-45.096184,0.006014,0.021355,0.002432,-0.137352,0.323392,-0.490118,-0.076335,0.083191,0.100409,-0.002152,0.022711,0.048749,0.059211,0.059922,0.002070,0.002117,-0.745207,0.347778,1.890562,-0.001021,-0.054151,-0.056605,0.000000,1.000000,
18.000000,0.255363,0.185927,12.317384,-0.007580,0.009733,-1.504132,-0.078172,-0.140175,44.934717,-0.050484,10.677285,0.849330,-0.530747,13.100279,0.118052,0.051807,16.000000,17.000000,39.000000,9.000000,-1.723766,0.295435,0.004095,-0.001671,-0.081018,9.819466,-0.000002,-1.651240,0.437461,-45.101331,0.005887,0.026909,0.005715,-0.133393,0.335665,-0.488160,-0.075090,0.084945,0.098156,-0.026190,0.026784,0.048326,0.083319,0.084491,0.002070,0.002117,-0.745207,0.347778,1.890562,-0.001021,-0.054151,-0.056605,0.000000,1.000000,
18.500000,0.252419,0.187859,13.070737,0.005110,0.007071,-1.505111,0.032801,-0.152535,44.930829,-0.051608,12.319323,0.790643,0.045563,14.438279,0.120176,0.054351,17.000000,18.000000,39.000000,9.000000,-1.610544,0.278879,0.004117,-0.001509,-0.081015,9.819464,-0.000002,-1.645761,0.432914,-45.105142,-0.005835,0.005799,0.006729,-0.144787,0.355350,-0.528379,-0.074391,0.083599,0.103569,-0.010311,0.028866,0.048884,0.059146,0.059854,0.002005,0.002049,-0.075834,0.265915,1.658267,-0.003933,-0.029275,-0.031030,0.000000,1.000000,
19.000000,0.254191,0.194056,13.824822,0.016953,0.002939,-1.508686,-0.134687,-0.120963,44.927214,-0.041321,12.319323,0.790643,0.045563,14.438279,0.127324,0.047990,17.000000,18.000000,39.000000,9.000000,-1.771553,0.305199,0.004117,-0.001509,-0.081015,9.819462,-0.000002,-1.640145,0.427765,-45.109944,-0.014307,0.009626,0.010019,-0.149250,0.359211,-0.524267,-0.073302,0.084749,0.099114,-0.016390,0.030219,0.047904,0.083149,0.084316,0.002005,0.002049,-0.075834,0.265915,1.658267,-0.003933,-0.029275,-0.031030,0.000000,0.000000,
19.500000,0.262179,0.200331,14.578500,0.020754,-0.006003,-1.503890,-0.068275,0.018077,44.922948,-0.050616,13.744399,0.311366,-0.087432,15.467279,0.116996,0.051807,18.000000,19.000000,39.000000,9.000000,-1.704116,0.439967,0.004044,-0.001436,-0.081001,9.819459,-0.000002,-1.637405,0.422891,-45.118061,-0.016322,0.004320,0.005618,-0.169554,0.325925,-0.522651,-0.071725,0.084044,0.097641,-0.015209,0.031282,0.048948,0.059089,0.059796,0.001945,0.001988,-0.191804,-0.244352,1.161785,0.014363,-0.013757,-0.048467,0.000000,1.000000,
20.000000,0.273116,0.204144,15.332019,0.022228,-0.015468,-1.507813,-0.159177,-0.062069,44.919528,-0.028481,13.744399,0.311366,-0.087432,15.467279,0.117446,0.053079,18.000000,19.000000,39.000000,9.000000,-1.789485,0.357697,0.004044,-0.001436,-0.081001,9.819457,-0.000002,-1.632387,0.419480,-45.119884,-0.030683,0.014258,0.008939,-0.181112,0.330766,-0.519090,-0.071398,0.084915,0.094596,-0.022844,0.023611,0.048802,0.083001,0.084162,0.001945,0.001988,-0.191804,-0.244352,1.161785,0.014363,-0.013757,-0.048467,0.000000,1.000000,
20.500000,0.288064,0.203678,16.079646,0.011779,-0.026910,-1.488986,-0.110115,0.283300,44.914413,-0.049513,15.496315,0.282023,-0.453167,17.562279,0.096101,0.055623,19.000000,20.000000,39.000000,9.000000,-1.738825,0.698986,0.003828,-0.001392,-0.080969,9.819454,-0.000002,-1.629974,0.415437,-45.133494,-0.012028,0.023108,-0.009119,-0.224794,0.304450,-0.594240,-0.068536,0.084555,0.097843,-0.013666,0.043013,0.047688,0.059039,0.059745,0.001891,0.001931,-0.544454,-0.254908,1.716752,0.044697,-0.008923,-0.042843,0.000000,1.000000,
21.000000,0.300451,0.193234,16.825540,-0.002288,-0.038578,-1.492384,-0.170648,0.027251,44.911532,-0.056509,15.496315,0.282023,-0.453167,17.562279,0.117790,0.051807,19.000000,20.000000,39.000000,9.000000,-1.794134,0.443566,0.003828,-0.001392,-0.080969,9.819452,-0.000002,-1.625232,0.413307,-45.130462,-0.031124,0.044013,-0.006043,-0.235734,0.321861,-0.598116,-0.069010,0.085330,0.097597,-0.022775,0.029095,0.048551,0.082869,0.084027,0.001891,0.001931,-0.544454,-0.254908,1.716752,0.044697,-0.008923,-0.042843,0.000000,1.000000,
21.500000,0.310754,0.176532,17.588564,-0.026001,-0.026168,-1.534637,0.409006,0.513445,44.909388,-0.048876,16.548868,0.546114,-0.076349,18.535279,0.129591,0.051807,20.000000,21.000000,39.000000,9.000000,-1.208445,0.925462,0.003519,-0.001086,-0.081028,9.819450,-0.000002,-1.620353,0.410474,-45.147615,0.023193,0.018636,0.034986,-0.213197,0.297661,-0.533091,-0.065294,0.083188,0.104709,0.000754,0.056023,0.048483,0.058993,0.059698,0.001841,0.001880,-0.140125,0.029149,1.196270,0.067200,-0.065021,-0.015574,0.000000,1.000000,
22.000000,0.300400,0.156627,18.357261,-0.053385,-0.007305,-1.537544,-0.006688,0.107705,44.904356,-0.042921,16.548868,0.546114,-0.076349,18.535279,0.120003,0.053079,20.000000,21.000000,39.000000,9.000000,-1.613120,0.521576,0.003519,-0.001086,-0.081028,9.819448,-0.000002,-1.614186,0.408549,-45.140288,0.024006,0.057940,0.038566,-0.200816,0.318387,-0.514767,-0.066300,0.085638,0.098627,-0.025410,0.027147,0.048290,0.082750,0.083904,0.001841,0.001880,-0.140125,0.029149,1.196270,0.067200,-0.065021,-0.015574,0.000000,1.000000,
22.500000,0.283843,0.136933,19.118476,-0.042908,0.005773,-1.513622,0.314317,-0.263672,44.899567,-0.044051,18.202693,0.370054,-0.076349,20.436279,0.119705,0.055623,21.000000,22.000000,39.000000,9.000000,-1.293527,0.140810,0.003602,-0.000830,-0.080983,9.819445,-0.000002,-1.611500,0.405582,-45.132418,0.013535,0.017058,0.015884,-0.224628,0.290125,-0.536108,-0.065535,0.082823,0.100118,0.001405,0.011903,0.049256,0.058953,0.059657,0.001794,0.001832,-0.175134,-0.107122,1.617917,-0.019112,-0.057431,-0.071974,0.000000,1.000000,
23.000000,0.267064,0.130541,19.876974,-0.024788,0.018101,-1.517599,-0.043064,-0.126662,44.896624,-0.042845,18.202693,0.370054,-0.076349,20.436279,0.128492,0.047990,21.000000,22.000000,39.000000,9.000000,-1.642468,0.269109,0.003602,-0.000830,-0.080983,9.819443,-0.000002,-1.605754,0.399677,-45.140240,0.023804,0.020951,0.019194,-0.214039,0.299641,-0.527419,-0.063683,0.084727,0.103371,-0.026649,0.022300,0.047742,0.082644,0.083796,0.001794,0.001832,-0.175134,-0.107122,1.617917,-0.019112,-0.057431,-0.071974,0.000000,1.000000,
23.500000,0.254643,0.129573,20.627156,-0.011503,0.016582,-1.491588,0.030262,-0.182817,44.892476,-0.052544,19.947903,0.634145,-0.153929,21.966279,0.114849,0.053079,22.000000,23.000000,39.000000,9.000000,-1.569156,0.210202,0.003663,-0.000714,-0.080938,9.819440,-0.000002,-1.601797,0.395397,-45.142736,0.008763,0.001562,-0.005948,-0.238574,0.311044,-0.583637,-0.063641,0.083475,0.101671,-0.014009,0.021085,0.048248,0.058917,0.059620,0.001751,0.001787,-0.206584,0.202072,1.583034,-0.014689,-0.027652,-0.059153,0.000000,1.000000,
24.000000,0.247309,0.133398,21.374604,-0.000053,0.012613,-1.495734,-0.125155,-0.077948,44.888520,-0.028850,19.947903,0.634145,-0.153929,21.966279,0.116438,0.053079,22.000000,23.000000,39.000000,9.000000,-1.718312,0.308932,0.003663,-0.000714,-0.080938,9.819438,-0.000002,-1.596243,0.389657,-45.149544,0.005870,0.005429,-0.002865,-0.234268,0.312588,-0.585938,-0.062366,0.084591,0.093938,-0.021177,0.023344,0.048102,0.082546,0.083696,0.001751,0.001787,-0.206584,0.202072,1.583034,-0.014689,-0.027652,-0.059153,0.000000,1.000000,
24.500000,0.245816,0.137274,22.115754,0.007535,0.004010,-1.475224,-0.070393,-0.102406,44.884783,-0.038938,21.534881,0.614583,-0.076349,24.094279,0.118019,0.054351,23.000000,24.000000,39.000000,9.000000,-1.661547,0.281261,0.003692,-0.000656,-0.080906,9.819435,-0.000003,-1.592741,0.385337,-45.153099,-0.008185,-0.000529,-0.022508,-0.249612,0.323568,-0.686654,-0.061999,0.084174,0.098527,-0.011753,0.024198,0.049322,0.058883,0.059585,0.001711,0.001746,-0.089162,0.167102,2.150053,-0.007354,-0.014634,-0.047394,0.000000,1.000000,
25.000000,0.249820,0.141237,22.854913,0.014263,-0.005306,-1.479199,-0.151167,-0.052195,44.880862,-0.029946,21.534881,0.614583,-0.076349,24.094279,0.112010,0.053079,23.000000,24.000000,39.000000,9.000000,-1.737105,0.325904,0.003692,-0.000656,-0.080906,9.819433,-0.000003,-1.587889,0.379955,-45.158478,-0.015726,0.005555,-0.019532,-0.255228,0.324665,-0.697254,-0.060920,0.085005,0.092171,-0.021821,0.025893,0.047865,0.082458,0.083605,0.001711,0.001746,-0.089162,0.167102,2.150053,-0.007354,-0.014634,-0.047394,0.000000,1.000000,
25.500000,0.259392,0.143001,23.596626,0.017525,-0.015105,-1.481369,-0.081431,-0.028427,44.876597,-0.051054,22.712478,0.536334,-0.342339,25.357279,0.117935,0.051807,24.000000,25.000000,39.000000,9.000000,-1.664406,0.345084,0.003687,-0.000610,-0.080905,9.819430,-0.000003,-1.584415,0.374894,-45.163205,-0.024476,0.003938,-0.017174,-0.302187,0.327124,-0.720526,-0.060027,0.084856,0.098202,-0.012665,0.024674,0.048641,0.058851,0.059553,0.001673,0.001708,-0.336613,0.069211,1.884349,0.001746,-0.011914,-0.053435,0.000000,1.000000,
26.000000,0.272855,0.142675,24.338661,0.019643,-0.024963,-1.484213,-0.156737,-0.022501,44.873009,-0.031586,22.712478,0.536334,-0.342339,25.357279,0.126358,0.054351,24.000000,25.000000,39.000000,9.000000,-1.734338,0.346344,0.003687,-0.000610,-0.080905,9.819428,-0.000003,-1.579396,0.370038,-45.167397,-0.032868,0.013676,-0.014284,-0.316248,0.331475,-0.728468,-0.059196,0.085724,0.102363,-0.029209,0.023019,0.048817,0.082376,0.083521,0.001673,0.001708,-0.336613,0.069211,1.884349,0.001746,-0.011914,-0.053435,0.000000,1.000000,
26.500000,0.290615,0.137521,25.086224,0.012197,-0.040378,-1.496270,-0.198647,0.178502,44.868290,-0.047858,24.467430,0.624365,0.012314,26.381279,0.124434,0.047990,25.000000,26.000000,39.000000,9.000000,-1.772666,0.542833,0.003608,-0.000610,-0.080920,9.819426,-0.000003,-1.574917,0.364794,-45.176996,-0.028131,0.029269,-0.002724,-0.311459,0.358170,-0.736748,-0.057620,0.086146,0.095730,-0.027935,0.039972,0.047746,0.058823,0.059524,0.001638,0.001672,0.056136,0.149112,1.356859,0.021501,0.000009,-0.028101,0.000000,1.000000,
27.000000,0.309982,0.122432,25.835592,0.002140,-0.057016,-1.498973,-0.196174,0.046582,44.865204,-0.041014,24.467430,0.624365,0.012314,26.381279,0.112676,0.053079,25.000000,26.000000,39.000000,9.000000,-1.766694,0.409896,0.003608,-0.000610,-0.080920,9.819423,-0.000003,-1.571241,0.362184,-45.177528,-0.044017,0.046516,0.000234,-0.329631,0.377327,-0.737450,-0.057685,0.086468,0.100292,-0.020109,0.029334,0.048097,0.082302,0.083445,0.001638,0.001672,0.056136,0.149112,1.356859,0.021501,0.000009,-0.028101,0.000000,0.000000,
27.500000,0.330463,0.101135,26.596248,-0.007090,-0.052172,-1.524878,0.256834,0.175497,44.861180,-0.055055,25.533755,0.340710,-0.419919,27.580279,0.125274,0.051807,26.000000,27.000000,39.000000,9.000000,-1.308863,0.532710,0.003527,-0.000441,-0.080949,9.819421,-0.000002,-1.568186,0.357413,-45.184575,-0.025834,0.025339,0.025687,-0.378927,0.346513,-0.658884,-0.055901,0.086184,0.102069,0.003407,0.037425,0.048625,0.058797,0.059498,0.001605,0.001638,-0.399591,-0.160185,1.116972,0.023309,-0.047421,-0.045547,0.000000,1.000000,
28.000000,0.341670,0.080721,27.360057,-0.016816,-0.042102,-1.527398,-0.056970,0.049047,44.857516,-0.035906,25.533755,0.340710,-0.419919,27.580279,0.129730,0.054351,26.000000,27.000000,39.000000,9.000000,-1.613277,0.404514,0.003527,-0.000441,-0.080949,9.819419,-0.000002,-1.562308,0.354615,-45.185155,-0.021271,0.050392,0.028889,-0.389973,0.366124,-0.645316,-0.055845,0.087403,0.103793,-0.028857,0.024634,0.048957,0.082234,0.083375,0.001605,0.001638,-0.399591,-0.160185,1.116972,0.023309,-0.047421,-0.045547,0.000000,1.000000,
28.500000,0.350299,0.059088,28.093202,-0.020092,-0.039288,-1.436318,0.116227,0.049612,44.852940,-0.045926,27.197654,0.702614,0.067729,29.228279,0.118719,0.047990,27.000000,28.000000,39.000000,9.000000,-1.441452,0.397597,0.003509,-0.000304,-0.080805,9.819416,-0.000003,-1.560697,0.348958,-45.188991,-0.015046,0.036089,-0.061355,-0.384026,0.391159,-0.696539,-0.054410,0.085755,0.098232,-0.008040,0.026639,0.048464,0.058780,0.059481,0.001574,0.001606,0.116604,0.254353,1.297582,0.004147,-0.040539,-0.160841,0.000000,1.000000,
29.000000,0.355712,0.038267,28.812715,-0.022864,-0.038460,-1.439305,-0.111907,0.021665,44.849064,-0.052310,27.197654,0.702614,0.067729,29.228279,0.116142,0.050534,27.000000,28.000000,39.000000,9.000000,-1.662504,0.365490,0.003509,-0.000304,-0.080805,9.819414,-0.000003,-1.554941,0.344735,-45.192179,-0.014076,0.053211,-0.058854,-0.390662,0.413755,-0.726674,-0.053762,0.087144,0.097572,-0.023525,0.021923,0.049142,0.082177,0.083317,0.001574,0.001606,0.116604,0.254353,1.297582,0.004147,-0.040539,-0.160841,0.000000,1.000000,
29.500000,0.360065,0.016956,29.557658,-0.025489,-0.022549,-1.504647,0.446882,0.049286,44.845940,-0.058508,28.684554,0.497210,0.067729,31.328279,0.120896,0.050534,28.000000,29.000000,39.000000,9.000000,-1.095429,0.388421,0.003498,-0.000070,-0.080893,9.819412,-0.000002,-1.545999,0.340265,-45.197056,0.000267,0.010324,0.004212,-0.382517,0.389593,-0.711324,-0.052885,0.086102,0.106457,0.008776,0.025220,0.047961,0.058753,0.059452,0.001545,0.001576,0.103123,0.043691,1.870106,0.003299,-0.070795,0.015706,0.000000,1.000000,
30.000000,0.353565,0.004188,30.311024,-0.028670,-0.002215,-1.506386,-0.007886,0.030778,44.842267,-0.043190,28.684554,0.497210,0.067729,31.328279,0.123988,0.053079,28.000000,29.000000,39.000000,9.000000,-1.539839,0.365679,0.003498,-0.000070,-0.080893,9.819410,-0.000002,-1.540096,0.335842,-45.200504,0.016058,0.033883,0.007234,-0.377167,0.401244,-0.708530,-0.052222,0.088515,0.101416,-0.029414,0.021151,0.048657,0.082114,0.083252,0.001545,0.001576,0.103123,0.043691,1.870106,0.003299,-0.070795,0.015706,0.000000,1.000000,
30.500000,0.345828,-0.008248,31.079295,-0.026529,-0.013799,-1.544568,-0.203704,-0.062335,44.838656,-0.027333,30.360798,0.888457,-0.364505,32.677279,0.118009,0.053079,29.000000,30.000000,39.000000,9.000000,-1.734949,0.268466,0.003523,-0.000056,-0.080944,9.819407,-0.000003,-1.533171,0.332284,-45.201823,0.002299,0.042079,0.044384,-0.414972,0.471991,-0.697498,-0.051779,0.088402,0.093689,-0.021683,0.023851,0.048375,0.058731,0.059430,0.001517,0.001547,-0.340784,0.481363,1.709513,-0.007305,-0.004602,-0.001128,0.000000,1.000000,
31.000000,0.345228,-0.025010,31.852611,-0.023449,-0.032264,-1.546910,-0.219124,0.003726,44.835027,-0.030307,30.360798,0.888457,-0.364505,32.677279,0.111494,0.055623,29.000000,30.000000,39.000000,9.000000,-1.747833,0.328275,0.003523,-0.000056,-0.080944,9.819405,-0.000003,-1.529249,0.326841,-45.207446,-0.007428,0.050146,0.047544,-0.416040,0.494739,-0.674595,-0.050633,0.088548,0.095040,-0.017622,0.023002,0.048235,0.082058,0.083195,0.001517,0.001547,-0.340784,0.481363,1.709513,-0.007305,-0.004602,-0.001128,0.000000,1.000000,
31.500000,0.348987,-0.048702,32.606094,-0.039014,-0.042287,-1.487523,-0.047766,0.333166,44.829755,-0.040661,31.711645,0.546116,-0.020935,34.427279,0.103838,0.055623,30.000000,31.000000,39.000000,9.000000,-1.573088,0.653879,0.003427,0.000004,-0.080856,9.819402,-0.000003,-1.526735,0.321116,-45.220296,0.012024,0.057727,-0.010786,-0.390114,0.516270,-0.728353,-0.049057,0.088323,0.096610,-0.014675,0.037905,0.049208,0.058714,0.059414,0.001491,0.001520,0.050055,0.074910,1.976026,0.031037,-0.020274,-0.121172,0.000000,1.000000,
32.000000,0.347032,-0.082703,33.351136,-0.059402,-0.050364,-1.490767,-0.159344,0.134893,44.826537,-0.039963,31.711645,0.546116,-0.020935,34.427279,0.107647,0.055623,30.000000,31.000000,39.000000,9.000000,-1.678113,0.455956,0.003427,0.000004,-0.080856,9.819400,-0.000003,-1.521446,0.318852,-45.219187,0.003901,0.086171,-0.007983,-0.386058,0.552808,-0.733140,-0.049564,0.089394,0.098543,-0.021168,0.021343,0.048277,0.082010,0.083147,0.001491,0.001520,0.050055,0.074910,1.976026,0.031037,-0.020274,-0.121172,0.000000,1.000000,
32.500000,0.342233,-0.123064,34.109021,-0.067927,-0.040144,-1.521065,0.350813,0.102158,44.822652,-0.046042,33.177006,0.057056,0.511046,35.705279,0.117425,0.054351,31.000000,32.000000,39.000000,9.000000,-1.161156,0.417223,0.003413,0.000181,-0.080892,9.819398,-0.000003,-1.515371,0.315701,-45.221739,0.018111,0.055987,0.021718,-0.318081,0.503987,-0.706919,-0.048527,0.088611,0.102490,0.011026,0.028840,0.049410,0.058693,0.059392,0.001466,0.001495,0.550388,-0.414699,1.710544,0.004065,-0.059297,-0.027589,0.000000,1.000000,
33.000000,0.327438,-0.158812,34.870811,-0.074255,-0.025600,-1.524004,-0.047120,0.062824,44.819038,-0.032950,33.177006,0.057056,0.511046,35.705279,0.110342,0.055623,31.000000,32.000000,39.000000,9.000000,-1.549344,0.373782,0.003413,0.000181,-0.080892,9.819396,-0.000003,-1.509547,0.311697,-45.224683,0.031322,0.081369,0.024707,-0.304632,0.538900,-0.695391,-0.047960,0.090812,0.099627,-0.028515,0.022477,0.048172,0.081961,0.083096,0.001466,0.001495,0.550388,-0.414699,1.710544,0.004065,-0.059297,-0.027589,0.000000,1.000000,
33.500000,0.308816,-0.191899,35.627974,-0.067039,-0.002974,-1.507441,0.544342,-0.184196,44.814213,-0.044344,34.816270,-0.148349,-0.020935,37.385279,0.121220,0.054351,32.000000,33.000000,39.000000,9.000000,-0.958165,0.122231,0.003487,0.000422,-0.080864,9.819393,-0.000003,-1.507201,0.308587,-45.221363,0.029542,0.023123,0.009416,-0.313398,0.453735,-0.723447,-0.047915,0.088346,0.101402,0.010185,0.017340,0.049345,0.058677,0.059376,0.001442,0.001470,-0.043695,-0.530378,1.884871,-0.026746,-0.083155,-0.067248,0.000000,1.000000,
34.000000,0.282415,-0.208579,36.383217,-0.057538,0.021913,-1.511199,0.004724,-0.009732,44.811143,-0.034954,34.816270,-0.148349,-0.020935,37.385279,0.112834,0.055623,32.000000,33.000000,39.000000,9.000000,-1.487096,0.288956,0.003487,0.000422,-0.080864,9.819391,-0.000003,-1.501206,0.302661,-45.229779,0.055470,0.039725,0.012376,-0.290355,0.469653,-0.718086,-0.046321,0.090915,0.092262,-0.028147,0.034307,0.049002,0.081919,0.083052,0.001442,0.001470,-0.043695,-0.530378,1.884871,-0.026746,-0.083155,-0.067248,0.000000,1.000000,
34.500000,0.258802,-0.218470,37.130032,-0.022356,0.016225,-1.484165,-0.085674,-0.742167,44.807506,-0.045908,36.439423,0.193993,0.001231,39.095279,0.118184,0.047990,33.000000,34.000000,39.000000,9.000000,-1.581453,-0.448464,0.003735,0.000472,-0.080825,9.819388,-0.000003,-1.498363,0.298528,-45.211094,-0.013386,0.014882,-0.013537,-0.335631,0.467378,-0.782278,-0.047824,0.089678,0.099016,-0.022121,-0.015297,0.047550,0.058662,0.059362,0.001419,0.001447,0.008674,-0.069075,2.046293,-0.090423,-0.017500,-0.072016,0.000000,1.000000,
35.000000,0.255854,-0.213715,37.873579,0.018779,0.004023,-1.487334,-0.190798,-0.173144,44.802436,-0.059264,36.439423,0.193993,0.001231,39.095279,0.113193,0.050534,33.000000,34.000000,39.000000,9.000000,-1.682057,0.108619,0.003735,0.000472,-0.080825,9.819386,-0.000003,-1.493124,0.292233,-45.229768,-0.004936,-0.002321,-0.010811,-0.338995,0.468976,-0.788443,-0.044807,0.090328,0.100081,-0.026348,0.030592,0.048236,0.081875,0.083014,0.001419,0.001447,0.008674,-0.069075,2.046293,-0.090423,-0.017500,-0.072016,0.000000,1.000000,
35.500000,0.265419,-0.208171,38.623582,0.021378,-0.016806,-1.500757,-0.280550,0.040729,44.797506,-0.058925,37.854096,0.301586,0.211807,39.994279,0.113530,0.050534,34.000000,35.000000,39.000000,9.000000,-1.768215,0.323852,0.003758,0.000455,-0.080839,9.819383,-0.000003,-1.488330,0.285768,-45.239234,-0.019968,0.011807,0.002039,-0.317021,0.479821,-0.771986,-0.045133,0.090859,0.100135,-0.027250,0.029528,0.047873,0.058646,0.059344,0.001398,0.001425,0.294226,0.044995,1.406653,-0.008778,0.006483,-0.041203,0.000000,1.000000,
36.000000,0.282016,-0.211596,39.375262,0.015519,-0.039058,-1.503226,-0.238459,0.081718,44.793686,-0.040046,37.854096,0.301586,0.211807,39.994279,0.118505,0.054351,34.000000,35.000000,39.000000,9.000000,-1.723765,0.361066,0.003758,0.000455,-0.080839,9.819381,-0.000003,-1.485361,0.280621,-45.244287,-0.032224,0.026337,0.004695,-0.330079,0.489037,-0.770383,-0.044559,0.090909,0.103170,-0.022715,0.029098,0.049051,0.081835,0.082968,0.001398,0.001425,0.294226,0.044995,1.406653,-0.008778,0.006483,-0.041203,0.000000,1.000000,
36.500000,0.301933,-0.225259,40.128617,-0.001820,-0.053842,-1.503858,-0.130746,0.300995,44.788927,-0.037020,39.354641,0.203774,-0.032018,42.226279,0.126734,0.055623,35.000000,36.000000,39.000000,9.000000,-1.612562,0.576244,0.003695,0.000479,-0.080838,9.819379,-0.000003,-1.482914,0.275429,-45.253701,-0.020601,0.042734,0.005583,-0.326582,0.491114,-0.805102,-0.043374,0.090985,0.102304,-0.015176,0.037528,0.049552,0.058632,0.059330,0.001377,0.001404,0.015713,-0.074825,2.152544,0.024176,-0.009143,-0.049836,0.000000,1.000000,
37.000000,0.318534,-0.251030,40.881978,-0.021340,-0.067101,-1.507156,-0.195335,0.146480,44.785773,-0.028659,39.354641,0.203774,-0.032018,42.226279,0.116300,0.054351,35.000000,36.000000,39.000000,9.000000,-1.671639,0.421014,0.003695,0.000479,-0.080838,9.819376,-0.000003,-1.478119,0.273004,-45.253725,-0.029524,0.070372,0.008282,-0.339103,0.519764,-0.801730,-0.043639,0.092575,0.093644,-0.022486,0.027182,0.048292,0.081798,0.082931,0.001377,0.001404,0.015713,-0.074825,2.152544,0.024176,-0.009143,-0.049836,0.000000,1.000000,
37.500000,0.331365,-0.285760,41.637573,-0.046146,-0.055732,-1.509722,0.396683,0.430536,44.782269,-0.043733,41.006579,0.105962,-0.009852,43.139279,0.127848,0.047990,36.000000,37.000000,39.000000,9.000000,-1.074489,0.699322,0.003597,0.000652,-0.080837,9.819374,-0.000003,-1.474567,0.268275,-45.264032,0.011600,0.047068,0.011002,-0.320226,0.486439,-0.806988,-0.041876,0.091560,0.103845,0.007168,0.046704,0.047987,0.058619,0.059317,0.001357,0.001383,0.010772,-0.164191,1.510188,0.038521,-0.068191,-0.042879,0.000000,1.000000,
38.000000,0.325048,-0.322932,42.393718,-0.072899,-0.038652,-1.512448,-0.040783,0.190008,44.777825,-0.056256,41.006579,0.105962,-0.009852,43.139279,0.117068,0.050534,36.000000,37.000000,39.000000,9.000000,-1.501325,0.459003,0.003597,0.000652,-0.080837,9.819372,-0.000003,-1.468574,0.266097,-45.261926,0.023573,0.089192,0.013831,-0.310540,0.521679,-0.800852,-0.042468,0.093146,0.097018,-0.026387,0.032045,0.049441,0.081765,0.082896,0.001357,0.001383,0.010772,-0.164191,1.510188,0.038521,-0.068191,-0.042879,0.000000,1.000000,
38.500000,0.309199,-0.362020,43.141242,-0.079727,-0.014124,-1.483506,0.580982,0.029502,44.772729,-0.044481,42.093884,0.282024,0.200724,44.670279,0.124572,0.053079,37.000000,38.000000,39.000000,9.000000,-0.879742,0.290381,0.003613,0.000882,-0.080790,9.819369,-0.000003,-1.465947,0.261919,-45.259162,0.040233,0.037251,-0.014632,-0.281001,0.504409,-0.786663,-0.041388,0.090794,0.103339,0.018461,0.026853,0.048855,0.058609,0.059306,0.001338,0.001364,0.186171,0.081278,1.594807,-0.007741,-0.093205,-0.109182,0.000000,1.000000,
39.000000,0.279204,-0.389335,43.884428,-0.083108,0.012306,-1.486877,0.002377,0.075761,44.768951,-0.031010,42.093884,0.282024,0.200724,44.670279,0.117007,0.055623,37.000000,38.000000,39.000000,9.000000,-1.447740,0.330363,0.003613,0.000882,-0.080790,9.819367,-0.000003,-1.460067,0.256818,-45.264155,0.066783,0.064890,-0.011903,-0.252546,0.530553,-0.793387,-0.040334,0.093390,0.098680,-0.026128,0.028638,0.049125,0.081736,0.082864,0.001338,0.001364,0.186171,0.081278,1.594807,-0.007741,-0.093205,-0.109182,0.000000,1.000000,
39.500000,0.246454,-0.411797,44.636353,-0.061317,0.023098,-1.507117,0.273013,-0.512996,44.764062,-0.031678,43.878885,0.105962,0.156392,46.435279,0.112694,0.055623,38.000000,39.000000,39.000000,9.000000,-1.176387,-0.265007,0.003777,0.001023,-0.080809,9.819365,-0.000003,-1.453625,0.251832,-45.249659,0.027688,0.018435,0.007484,-0.259511,0.512699,-0.798692,-0.040868,0.092071,0.096823,0.004795,-0.003859,0.048964,0.058595,0.059293,0.001320,0.001345,0.129183,-0.037533,1.830451,-0.069735,-0.058223,-0.030687,0.000000,1.000000,
40.000000,0.220154,-0.416865,45.390889,-0.034289,0.031026,-1.509024,-0.097154,-0.074334,44.760632,-0.059285,43.878885,0.105962,0.156392,46.435279,0.110515,0.050534,38.000000,39.000000,39.000000,9.000000,-1.538488,0.162831,0.003777,0.001023,-0.080809,9.819362,-0.000003,-1.447693,0.245571,-45.264527,0.050271,0.018765,0.010265,-0.238287,0.521215,-0.794323,-0.038300,0.093861,0.099003,-0.032070,0.033640,0.048911,0.081701,0.082833,0.001320,0.001345,0.129183,-0.037533,1.830451,-0.069735,-0.058223,-0.030687,0.000000,1.000000,
40.500000,0.201072,-0.417629,46.145377,-0.014697,0.021554,-1.504303,-0.093252,-0.383301,44.757068,-0.040951,45.198595,0.193993,-0.187179,47.833279,0.113597,0.053079,39.000000,40.000000,39.000000,9.000000,-1.535524,-0.144731,0.003909,0.001067,-0.080799,9.819360,-0.000003,-1.444304,0.242810,-45.259708,0.006711,0.004671,0.006040,-0.278799,0.526883,-0.782811,-0.039764,0.093102,0.100873,-0.024812,0.005827,0.049430,0.058583,0.059282,0.001303,0.001328,-0.170076,0.087721,1.749750,-0.056769,-0.018127,-0.071976,0.000000,1.000000,
41.000000,0.194428,-0.412961,46.898944,0.003526,0.008796,-1.507747,-0.200745,-0.021521,44.752287,-0.033557,45.198595,0.193993,-0.187179,47.833279,0.108296,0.055623,39.000000,40.000000,39.000000,9.000000,-1.637600,0.208288,0.003909,0.001067,-0.080799,9.819358,-0.000003,-1.439115,0.236534,-45.272604,0.011779,0.005491,0.008711,-0.273282,0.528454,-0.779200,-0.037754,0.093876,0.098180,-0.017597,0.033684,0.049150,0.081670,0.082803,0.001303,0.001328,-0.170076,0.087721,1.749750,-0.056769,-0.018127,-0.071976,0.000000,1.000000,
41.500000,0.195057,-0.411312,47.647441,0.003617,-0.003550,-1.489362,-0.093778,-0.009766,44.747828,-0.046858,46.925059,-0.314630,-1.295474,49.778279,0.114154,0.053079,40.000000,41.000000,39.000000,9.000000,-1.528284,0.219982,0.003933,0.001100,-0.080776,9.819355,-0.000003,-1.436142,0.232296,-45.276861,-0.002930,0.005535,-0.008387,-0.414245,0.473471,-0.833584,-0.038021,0.093705,0.101067,-0.014557,0.018739,0.048210,0.058573,0.059271,0.001286,0.001310,-1.217655,-0.431604,2.166279,-0.009791,-0.014356,-0.067573,0.000000,1.000000,
42.000000,0.199098,-0.413522,48.393587,0.000121,-0.015686,-1.492269,-0.197341,0.091883,44.743723,-0.045640,46.925059,-0.314630,-1.295474,49.778279,0.122399,0.055623,40.000000,41.000000,39.000000,9.000000,-1.626041,0.315978,0.003933,0.001100,-0.080776,9.819353,-0.000003,-1.431051,0.226711,-45.283266,-0.003320,0.022800,-0.005849,-0.415324,0.480282,-0.837230,-0.037058,0.094611,0.104081,-0.025291,0.017956,0.049507,0.081643,0.082773,0.001286,0.001310,-1.217655,-0.431604,2.166279,-0.009791,-0.014356,-0.067573,0.000000,1.000000,
42.500000,0.205648,-0.421994,49.156142,-0.002975,-0.021771,-1.533192,0.040257,-0.015136,44.740269,-0.049144,48.390644,0.438524,0.100978,50.501279,0.123995,0.051807,41.000000,42.000000,39.000000,9.000000,-1.384777,0.205139,0.003972,0.001172,-0.080820,9.819351,-0.000003,-1.427316,0.222213,-45.285257,-0.013752,0.014295,0.033495,-0.396173,0.511285,-0.786742,-0.036866,0.094264,0.101461,-0.006481,0.021230,0.048711,0.058564,0.059261,0.001270,0.001294,0.316424,0.370358,1.349780,-0.017960,-0.032189,-0.013106,0.000000,1.000000,
43.000000,0.212293,-0.431208,49.923869,-0.005640,-0.026186,-1.535236,-0.161710,0.087213,44.736746,-0.050801,48.390644,0.438524,0.100978,50.501279,0.119879,0.055623,41.000000,42.000000,39.000000,9.000000,-1.579412,0.300880,0.003972,0.001172,-0.080820,9.819349,-0.000003,-1.421612,0.216582,-45.291857,-0.007609,0.033794,0.036362,-0.400755,0.523186,-0.769354,-0.035737,0.095617,0.102500,-0.026024,0.017282,0.048226,0.081617,0.082745,0.001270,0.001294,0.316424,0.370358,1.349780,-0.017960,-0.032189,-0.013106,0.000000,1.000000,
43.500000,0.219461,-0.445891,50.683879,-0.016437,-0.031420,-1.510933,0.028899,0.156947,44.732383,-0.050718,49.942356,0.105962,-0.386672,52.361279,0.116336,0.050534,42.000000,43.000000,39.000000,9.000000,-1.388169,0.367116,0.003965,0.001242,-0.080787,9.819346,-0.000003,-1.419463,0.211608,-45.297974,-0.002879,0.030963,0.012936,-0.424606,0.520269,-0.789443,-0.035179,0.094810,0.097113,-0.005320,0.027620,0.049453,0.058554,0.059251,0.001254,0.001278,-0.198871,0.012493,1.734046,0.002772,-0.032312,-0.077096,0.000000,1.000000,
44.000000,0.222767,-0.465561,51.440745,-0.029380,-0.036813,-1.514019,-0.171507,0.146900,44.728616,-0.058731,49.942356,0.105962,-0.386672,52.361279,0.113108,0.050534,42.000000,43.000000,39.000000,9.000000,-1.581270,0.353116,0.003965,0.001242,-0.080787,9.819344,-0.000003,-1.413824,0.207046,-45.301762,0.000356,0.057916,0.015588,-0.424652,0.542668,-0.782389,-0.034697,0.096125,0.099985,-0.018012,0.028185,0.048447,0.081592,0.082720,0.001254,0.001278,-0.198871,0.012493,1.734046,0.002772,-0.032312,-0.077096,0.000000,1.000000,
44.500000,0.223848,-0.491414,52.198087,-0.039589,-0.029938,-1.510251,0.294457,0.108161,44.724313,-0.064660,51.158748,0.174431,-0.032018,53.776279,0.115723,0.049262,43.000000,44.000000,39.000000,9.000000,-1.110994,0.309633,0.003974,0.001373,-0.080776,9.819342,-0.000003,-1.408993,0.202870,-45.304620,0.009177,0.032134,0.012044,-0.408134,0.536902,-0.753201,-0.034157,0.095357,0.102524,0.009483,0.021766,0.048276,0.058544,0.059241,0.001239,0.001263,0.169324,0.095634,1.666711,-0.005096,-0.062194,-0.077138,0.000000,1.000000,
45.000000,0.215855,-0.514841,52.954634,-0.049465,-0.020035,-1.513187,-0.094143,0.134044,44.720783,-0.058541,51.158748,0.174431,-0.032018,53.776279,0.115048,0.050534,43.000000,44.000000,39.000000,9.000000,-1.490250,0.330403,0.003974,0.001373,-0.080776,9.819339,-0.000003,-1.403101,0.197930,-45.309254,0.025169,0.061808,0.014725,-0.398393,0.560756,-0.746583,-0.033395,0.097402,0.101269,-0.028373,0.028161,0.048550,0.081568,0.082695,0.001239,0.001263,0.169324,0.095634,1.666711,-0.005096,-0.062194,-0.077138,0.000000,1.000000,
45.500000,0.205574,-0.540536,53.699362,-0.045968,-0.018610,-1.477156,0.128624,-0.171877,44.716778,-0.041498,53.038191,-0.070100,-0.508585,55.877279,0.114060,0.054351,44.000000,45.000000,39.000000,9.000000,-1.268960,0.019887,0.004044,0.001468,-0.080731,9.819336,-0.000003,-1.400963,0.194356,-45.304374,0.006764,0.040134,-0.020687,-0.449608,0.545844,-0.829244,-0.033413,0.096068,0.101707,-0.001710,0.007777,0.049124,0.058538,0.059235,0.001225,0.001248,-0.326711,-0.117982,2.228530,-0.034290,-0.045007,-0.081781,0.000000,1.000000,
46.000000,0.196809,-0.560962,54.439383,-0.039907,-0.019026,-1.480479,-0.152664,0.057421,44.712956,-0.032541,53.038191,-0.070100,-0.508585,55.877279,0.107252,0.055623,44.000000,45.000000,39.000000,9.000000,-1.542675,0.240958,0.004044,0.001468,-0.080731,9.819334,-0.000003,-1.395119,0.188473,-45.313745,0.020594,0.055291,-0.018265,-0.441597,0.569351,-0.839063,-0.031757,0.097550,0.093263,-0.021653,0.028020,0.049288,0.081546,0.082674,0.001225,0.001248,-0.326711,-0.117982,2.228530,-0.034290,-0.045007,-0.081781,0.000000,1.000000,
46.500000,0.189495,-0.583057,55.196199,-0.040254,-0.014636,-1.521549,0.239308,-0.049066,44.708654,-0.048750,54.277959,-0.128787,0.112061,56.591279,0.128448,0.047990,45.000000,46.000000,39.000000,9.000000,-1.145209,0.131043,0.004096,0.001579,-0.080772,9.819332,-0.000003,-1.387963,0.182800,-45.316398,0.013520,0.026681,0.021812,-0.411387,0.539817,-0.779063,-0.031788,0.097193,0.103685,0.001759,0.017011,0.048180,0.058528,0.059225,0.001211,0.001233,0.356007,-0.139119,1.416444,-0.026952,-0.055044,-0.023363,0.000000,1.000000,
47.000000,0.178397,-0.600283,55.958024,-0.042108,-0.008561,-1.523288,-0.121061,0.106795,44.705300,-0.055157,54.277959,-0.128787,0.112061,56.591279,0.122999,0.050534,45.000000,46.000000,39.000000,9.000000,-1.496810,0.280174,0.004096,0.001579,-0.080772,9.819330,-0.000003,-1.382180,0.176928,-45.324084,0.030417,0.050144,0.024454,-0.399135,0.558998,-0.767558,-0.030570,0.099059,0.099802,-0.030126,0.025150,0.048812,0.081524,0.082650,0.001211,0.001233,0.356007,-0.139119,1.416444,-0.026952,-0.055044,-0.023363,0.000000,1.000000,
47.500000,0.167059,-0.619320,56.707516,-0.037586,-0.007554,-1.485411,0.140498,-0.182520,44.700701,-0.034827,55.767162,-0.255943,-0.685912,58.033279,0.105298,0.053079,46.000000,47.000000,39.000000,9.000000,-1.237600,-0.010000,0.004169,0.001672,-0.080722,9.819328,-0.000003,-1.381377,0.175413,-45.320609,0.009736,0.026524,-0.012967,-0.465916,0.525711,-0.761378,-0.031207,0.097546,0.098150,-0.001214,0.013941,0.048020,0.058521,0.059218,0.001197,0.001220,-0.466162,-0.216673,1.405137,-0.037280,-0.046387,-0.109922,0.000000,1.000000,
48.000000,0.157301,-0.632714,57.451403,-0.031613,-0.007543,-1.488292,-0.155065,0.067108,44.696937,-0.031752,55.767162,-0.255943,-0.685912,58.033279,0.110432,0.053079,46.000000,47.000000,39.000000,9.000000,-1.525306,0.231211,0.004169,0.001672,-0.080722,9.819325,-0.000003,-1.375562,0.169375,-45.330486,0.024918,0.042518,-0.010511,-0.456017,0.542590,-0.767330,-0.029531,0.099110,0.094071,-0.024752,0.025431,0.047840,0.081503,0.082630,0.001197,0.001220,-0.466162,-0.216673,1.405137,-0.037280,-0.046387,-0.109922,0.000000,1.000000,
48.500000,0.148954,-0.649910,58.198733,-0.041047,-0.012751,-1.490342,0.063054,0.130682,44.692894,-0.051877,57.411071,-0.510255,0.189642,59.860279,0.111280,0.050534,47.000000,48.000000,39.000000,9.000000,-1.305410,0.294334,0.004185,0.001742,-0.080721,9.819323,-0.000003,-1.370695,0.165494,-45.337555,0.025862,0.034504,-0.008087,-0.394891,0.491655,-0.777299,-0.029735,0.098484,0.094261,-0.002528,0.026078,0.048294,0.057433,0.058108,0.001184,0.001206,0.487070,-0.422409,1.686607,-0.009339,-0.035750,-0.050944,0.000000,1.000000,
49.000000,0.136750,-0.671012,58.945178,-0.053589,-0.016487,-1.492890,-0.171126,0.168937,44.689025,-0.050181,57.411071,-0.510255,0.189642,59.860279,0.122276,0.051807,47.000000,48.000000,39.000000,9.000000,-1.531182,0.327886,0.004185,0.001742,-0.080721,9.819321,-0.000003,-1.364836,0.160485,-45.342449,0.033413,0.063354,-0.005705,-0.379324,0.516219,-0.780828,-0.029072,0.100025,0.099987,-0.017204,0.032160,0.048852,0.080694,0.081805,0.001184,0.001206,0.487070,-0.422409,1.686607,-0.009339,-0.035750,-0.050944,0.000000,1.000000,
49.500000,0.123585,-0.698213,59.702809,-0.053985,-0.015280,-1.516237,0.222328,-0.147115,44.685239,-0.042800,58.680876,-0.158131,-0.120681,62.006279,0.125810,0.053079,48.000000,49.000000,39.000000,9.000000,-1.136352,0.008760,0.004253,0.001846,-0.080744,9.819318,-0.000003,-1.361235,0.157700,-45.338587,0.015494,0.036475,0.017225,-0.377577,0.508030,-0.783488,-0.029429,0.098997,0.101934,0.005072,0.014527,0.048611,0.057407,0.058082,0.001172,0.001193,0.120749,-0.005683,2.360221,-0.036874,-0.054660,-0.039082,0.000000,1.000000,
50.000000,0.109259,-0.719275,60.462188,-0.049411,-0.009579,-1.518923,-0.122373,0.075977,44.681421,-0.031393,58.680876,-0.158131,-0.120681,62.006279,0.109293,0.055623,48.000000,49.000000,39.000000,9.000000,-1.471144,0.222779,0.004253,0.001846,-0.080744,9.819316,-0.000003,-1.355387,0.151829,-45.347656,0.035449,0.056090,0.019772,-0.363499,0.530945,-0.774311,-0.027663,0.101025,0.094074,-0.022217,0.027735,0.049067,0.080662,0.081773,0.001172,0.001193,0.120749,-0.005683,2.360221,-0.036874,-0.054660,-0.039082,0.000000,1.000000,
50.500000,0.047595,-0.693041,60.966878,-0.048941,0.403257,-0.321020,11.363914,-0.116320,44.649330,3.773379,60.469920,0.096181,-0.020935,62.855279,1.710231,0.070891,49.000000,50.000000,39.000000,9.000000,10.044850,0.022868,0.004324,0.001995,-0.080670,9.819314,-0.000003,-1.341322,0.141640,-45.347931,0.306398,0.138479,-0.035845,-0.302651,0.554650,-0.822948,-0.026642,0.108723,0.141367,0.448696,0.015225,0.055160,0.059082,0.059338,0.001159,0.001181,0.231943,0.281603,1.666405,-0.039899,-0.079250,-0.118844,0.000000,1.000000,
51.000000,-0.210939,-0.465055,60.733676,-0.048146,0.919041,1.133452,5.257269,0.129408,44.683550,-4.241412,60.469920,0.096181,-0.020935,62.855279,-2.192808,0.067074,49.000000,50.000000,39.000000,9.000000,4.041534,0.260542,0.004324,0.001995,-0.080670,9.819315,-0.000003,-1.333165,0.137062,-45.358608,0.695609,0.349967,-0.025708,-0.041452,0.683664,-0.830058,-0.025734,0.126554,0.814624,-0.048290,0.028115,0.042688,0.087791,0.087215,0.001159,0.001181,0.231943,0.281603,1.666405,-0.039899,-0.079250,-0.118844,0.000000,1.000000,
51.500000,-0.613945,-0.061026,60.673646,0.141387,1.281952,-0.166549,2.174777,-5.141369,44.393436,-0.250298,60.404509,0.086400,-0.530751,62.699279,-0.130611,0.055623,50.000000,51.000000,39.000000,9.000000,1.829861,-6.447547,0.005517,0.002615,-0.080834,9.819316,-0.000003,-0.407666,-1.290080,-44.601792,0.440879,0.020390,0.213481,-0.241728,0.525224,-0.617259,0.207191,0.266625,0.079806,0.036592,-0.328023,0.047990,0.057878,0.058386,0.001149,0.001169,-0.287145,-0.260849,1.483803,-0.741667,-0.389742,0.201848,0.000000,1.000000,
52.000000,-0.965262,0.519428,60.769394,0.407700,1.314629,-0.207139,-0.886063,-0.551856,44.413769,-0.057091,60.404509,0.086400,-0.530751,62.699279,0.073979,0.053079,50.000000,51.000000,39.000000,9.000000,-1.254231,-1.930613,0.005517,0.002615,-0.080834,9.819316,-0.000003,-0.400412,-1.297385,-44.637868,0.681879,-0.059553,0.227147,0.054259,0.506907,-0.506649,0.222972,0.262312,0.090584,-0.075854,0.099180,0.047453,0.081115,0.082338,0.001149,0.001169,-0.287145,-0.260849,1.483803,-0.741667,-0.389742,0.201848,0.000000,1.000000,
52.500000,-1.252996,1.115206,60.902195,0.513264,1.191771,0.217664,-1.953907,-5.400035,44.565307,1.464496,60.403956,1.064524,-1.073817,63.266279,1.784571,0.065802,51.000000,52.000000,39.000000,9.000000,-2.354452,-6.112891,0.006748,0.002566,-0.080812,9.819315,-0.000003,-0.410870,-0.759143,-44.212734,0.089329,-0.027681,0.165919,-0.194354,0.507217,-0.495154,0.091575,0.258455,0.085202,-0.055117,-0.386904,0.054955,0.057704,0.058433,0.001137,0.001157,-0.178027,-0.102743,2.209271,-0.701331,0.038602,-0.122198,0.000000,1.000000,
53.000000,-1.377316,1.764344,60.885411,0.883553,1.018542,-0.090494,-1.518411,-1.629915,44.446137,-0.299540,60.403956,1.064524,-1.073817,63.266279,-0.165050,0.053079,51.000000,52.000000,39.000000,9.000000,-1.933916,-2.489317,0.006748,0.002566,-0.080812,9.819316,-0.000003,-0.404767,-0.768835,-44.242558,0.162504,-0.243018,0.173865,-0.125807,0.427037,-0.411489,0.123083,0.253369,0.091364,-0.019618,0.094936,0.046774,0.080644,0.082187,0.001137,0.001157,-0.178027,-0.102743,2.209271,-0.701331,0.038602,-0.122198,0.000000,1.000000,
53.500000,-1.381612,2.419419,60.901351,0.928779,0.830282,0.187725,-3.480978,-0.461472,44.412255,-1.292317,60.724681,2.160023,-2.004786,63.177279,-1.448332,0.056896,52.000000,53.000000,39.000000,9.000000,-3.886481,-1.207168,0.007048,0.002176,-0.080754,9.819315,-0.000003,-0.409648,-0.729082,-44.101270,-0.036410,-0.025250,0.103486,-0.250147,0.478857,-0.458524,0.098624,0.261001,0.006781,-0.207970,-0.036967,0.040164,0.057625,0.058288,0.001126,0.001146,-0.515837,-0.162186,2.059505,-0.175176,0.229375,-0.103942,0.000000,1.000000,
54.000000,-1.290172,2.989998,60.880264,0.910898,0.573559,-0.039498,-1.926094,0.708955,44.350756,-0.235954,60.724681,2.160023,-2.004786,63.177279,-0.072275,0.050534,52.000000,53.000000,39.000000,9.000000,-2.361200,-0.042899,0.007048,0.002176,-0.080754,9.819315,-0.000003,-0.407425,-0.735668,-44.113455,-0.142128,0.009161,0.102307,-0.297808,0.468489,-0.408565,0.099748,0.254122,0.096355,-0.001033,0.043385,0.047513,0.080689,0.081765,0.001126,0.001146,-0.515837,-0.162186,2.059505,-0.175176,0.229375,-0.103942,0.000000,1.000000,
54.500000,-1.162012,3.473375,60.843052,0.771327,0.468121,0.168287,-0.869267,2.506152,44.308443,-0.680865,60.898692,3.040334,-1.583633,63.367278,-0.603568,0.055623,53.000000,54.000000,39.000000,9.000000,-1.259564,1.787482,0.006791,0.002234,-0.080713,9.819315,-0.000004,-0.388921,-0.719115,-44.091566,-0.049901,0.145412,0.063151,-0.256083,0.418583,-0.495085,0.095619,0.260892,0.075717,-0.007678,0.113482,0.043907,0.057498,0.058156,0.001115,0.001135,-0.007495,-0.545467,2.227948,0.151656,-0.031947,-0.053117,0.000000,1.000000,
55.000000,-1.071466,3.860135,60.817424,0.587302,0.383456,-0.014365,-1.059174,1.445731,44.321653,-0.171262,60.898692,3.040334,-1.583633,63.367278,-0.029729,0.053079,53.000000,54.000000,39.000000,9.000000,-1.437143,0.742502,0.006791,0.002234,-0.080713,9.819315,-0.000004,-0.383687,-0.720538,-44.088537,-0.084133,0.352341,0.062575,-0.290891,0.546220,-0.464847,0.093030,0.264709,0.100490,-0.023616,0.013431,0.048074,0.080589,0.081722,0.001115,0.001135,-0.007495,-0.545467,2.227948,0.151656,-0.031947,-0.053117,0.000000,1.000000,
55.500000,-0.837681,4.136362,60.918325,1.019902,-0.587848,-0.162802,-18.050570,-8.406598,45.540293,-1.187882,60.382500,4.791175,-1.439554,62.665277,-1.091481,0.053079,54.000000,55.000000,39.000000,9.000000,-18.611873,-9.184595,0.006653,0.002874,-0.080819,9.819315,-0.000004,-0.454407,-0.707510,-43.941562,-0.460679,-0.424089,0.157606,-0.340231,0.380480,-0.348372,0.106465,0.239318,0.051977,-0.753903,-0.337533,0.046141,0.058224,0.058291,0.001105,0.001124,-0.084463,0.256079,1.607102,0.084147,-0.378735,0.069867,0.000000,1.000000,
56.000000,0.041058,4.167085,60.996271,1.460367,-1.597887,-0.144928,-5.695413,-1.190044,44.010228,-0.091907,60.382500,4.791175,-1.439554,62.665277,0.030955,0.054351,54.000000,55.000000,39.000000,9.000000,-6.306649,-2.026280,0.006653,0.002874,-0.080819,9.819315,-0.000004,-0.429403,-0.726913,-44.001348,-0.986929,-0.943284,0.146595,-0.724826,-0.001204,-0.272821,0.121079,0.213612,0.080899,0.180411,0.149270,0.048162,0.083545,0.082425,0.001105,0.001124,-0.084463,0.256079,1.607102,0.084147,-0.378735,0.069867,0.000000,1.000000,
56.500000,1.158149,4.009998,61.051912,1.155432,-2.013182,0.131222,-10.267976,11.328493,42.761145,-1.949360,60.689464,4.595550,0.211808,62.653278,-1.881742,0.056896,55.000000,56.000000,39.000000,9.000000,-10.423268,10.522150,0.005000,0.001487,-0.080577,9.819315,-0.000004,-0.226414,-0.730989,-41.401674,-0.378693,0.224545,0.088762,-0.354989,0.452463,-0.278300,0.131357,0.309363,0.121659,-0.758827,0.866471,0.040651,0.057849,0.058225,0.001093,0.001115,0.760596,0.573747,1.557845,1.001574,0.977051,-0.077035,0.000000,1.000000,
