Time ,gndAlt,VN  ,VE  ,VD  ,r,Roll ,Pitch,Yaw  ,engineRPM1,engineRPM2,engineRPM3,engineRPM4,Baro Altitude,Baro Altitude RMS,GPS posN,GPS posE,GPS posAlt,GPS VN,GPS VE,GPS VD,Nav Pos N,Nav Pos E,Nav Alt,Nav vel N,Nav vel E,Nav vel D,Nav velLL X,Nav velLL Y,Nav velLL Z,Nav Roll,Nav Pitch,GPS Chi2,Roll Error,Pitch Error,Yaw Error,Vel N Error,Vel E Error,Vel D Error,N Error (m),E Error (m),Alt Error (m),Acc Bias X Error,Acc Bias Y Error,Acc Bias Z Error,Gyro Bias X Error,Gyro Bias Y Error,Gyro Bias Z Error,Roll Stdev,Pitch Stdev,Yaw Stdev,VN Stdev,VE Stdev,VD Stdev,N Stdev,E Stdev,Alt Stdev,GPSResidual[GPS_N],GPSResidual[GPS_E],GPSResidual[GPS_ALT],GPSResidual[GPS_VN],GPSResidual[GPS_VE],GPSResidual[GPS_VD],Ctrl PMW [0],Ctrl PMW [1],Ctrl PMW [2],Ctrl PMW [3],Ctrl rollCmd,Ctrl pitchCmd,Ctrl VLLxCmd,Ctrl VLLyCmd,Ctrl VLLzCmd,Ctrl hCmd,
0.500000,0.098772,-0.000000,-0.000000,0.000000,0.000000,0.000000,0.000000,0.000000,0.000000,0.000000,0.000000,0.000000,0.000000,0.250000,0.000000,0.000000,0.000000,0.000000,0.000000,0.000000,0.000000,0.000000,0.000000,0.000000,0.000000,0.000000,0.000000,0.000000,0.000000,0.000000,0.000000,0.000000,0.000000,0.000000,0.000000,0.000000,0.000000,0.000000,0.000000,0.000000,0.000000,0.000000,0.000000,0.000000,0.000000,0.000000,0.000000,0.000000,0.000000,0.000000,0.000000,0.000000,0.000000,0.000000,0.000000,0.000000,0.000000,0.000000,0.000000,0.000000,0.000000,0.000000,1000.000000,1000.000000,1000.000000,1000.000000,0.000000,0.000000,0.000000,0.000000,0.000000,0.000000,
1.000000,0.098772,-0.000000,-0.000000,0.000000,0.000000,0.000000,0.000000,0.000000,0.000000,0.000000,0.000000,0.000000,0.000000,0.250000,0.000000,0.000000,0.000000,0.000000,0.000000,0.000000,0.000000,0.000000,0.000000,0.000000,0.000000,0.000000,0.000000,0.000000,0.000000,0.000000,0.000000,0.000000,0.000000,0.000000,0.000000,0.000000,0.000000,0.000000,0.000000,0.000000,0.000000,0.000000,0.000000,0.000000,0.000000,0.000000,0.000000,0.000000,0.000000,0.000000,0.000000,0.000000,0.000000,0.000000,0.000000,0.000000,0.000000,0.000000,0.000000,0.000000,0.000000,0.000000,1000.000000,1000.000000,1000.000000,1000.000000,0.000000,0.000000,0.000000,0.000000,0.000000,0.000000,
1.500000,0.098772,-0.000000,-0.000000,0.000000,0.000000,0.000000,0.000000,0.000000,0.000000,0.000000,0.000000,0.000000,0.000000,0.250000,0.000000,0.000000,0.000000,-0.110000,-0.080000,0.440000,0.000000,0.000000,0.000000,0.000000,0.000000,0.000000,0.000000,0.000000,0.000000,-2.495256,-0.341344,0.000000,0.000000,0.000000,0.000000,0.000000,0.000000,0.000000,0.000000,0.000000,-0.000000,0.000000,0.000000,0.000000,0.000000,0.000000,0.000000,3.323493,2.688799,0.000000,0.000000,0.000000,0.000000,0.000000,0.000000,0.000000,0.000000,0.000000,0.000000,0.000000,0.000000,0.000000,1000.000000,1000.000000,1000.000000,1000.000000,0.000000,0.000000,0.000000,0.000000,0.000000,0.000000,
2.000000,0.098815,-0.000000,-0.000000,-0.000001,0.000000,0.000000,0.000000,0.000000,644.000000,644.000000,644.000000,644.000000,0.000000,0.250000,0.000000,0.000000,0.000000,-0.110000,-0.080000,0.440000,0.000252,-0.000266,-0.000320,0.000964,-0.000968,0.003016,0.000964,-0.000968,0.003016,-2.494184,-0.342658,0.000000,-2.494184,-0.342658,-0.001139,0.000964,-0.000968,0.003017,0.000252,-0.000266,-0.000865,0.005059,0.042969,0.001239,-0.009313,-0.009466,-0.010916,3.323614,2.688948,0.028309,0.208850,0.257645,0.017463,0.032407,0.039966,0.002954,0.000000,0.000000,0.000000,0.000000,0.000000,0.000000,1100.000000,1100.000000,1100.000000,1100.000000,0.029224,0.028329,0.000000,0.000000,-0.000000,0.000000,
2.500000,0.098815,-0.000000,-0.000000,-0.000000,0.000000,0.000000,0.000000,0.000000,644.000000,644.000000,644.000000,644.000000,0.066299,0.250000,-0.432232,0.865631,0.876500,-0.030000,0.290000,0.060000,0.001473,-0.001454,-0.002764,0.003123,-0.002836,0.007582,0.003124,-0.002836,0.007582,-2.491956,-0.345436,0.000000,-2.491956,-0.345436,-0.003540,0.003123,-0.002836,0.007582,0.001473,-0.001454,0.001579,0.005059,0.042969,0.001239,-0.009313,-0.009466,-0.010916,3.323809,2.689189,0.045768,0.534335,0.659535,0.036667,0.216491,0.267185,0.015625,0.000000,0.000000,0.000000,0.000000,0.000000,0.000000,1100.000000,1100.000000,1100.000000,1100.000000,0.056701,0.059973,0.000000,0.000000,-0.000000,0.000000,
3.000000,0.098815,-0.000000,-0.000000,-0.000000,0.000000,0.000000,0.000000,0.000000,644.000000,644.000000,644.000000,644.000000,0.066299,0.250000,-0.432232,0.865631,0.876500,-0.030000,0.290000,0.060000,0.003834,-0.003529,-0.007490,0.005521,-0.004513,0.012147,0.005521,-0.004512,0.012147,-2.489728,-0.348215,0.000000,-2.489728,-0.348215,-0.005941,0.005521,-0.004513,0.012148,0.003834,-0.003529,0.006305,0.005059,0.042969,0.001239,-0.009313,-0.009466,-0.010916,3.324012,2.689439,0.058634,0.859830,1.061433,0.055408,0.563319,0.695351,0.037628,0.000000,0.000000,0.000000,0.000000,0.000000,0.000000,1100.000000,1100.000000,1100.000000,1100.000000,0.081376,0.095112,0.000000,0.000000,-0.000000,0.000000,
3.500000,0.098815,-0.000000,-0.000000,-0.000000,0.000000,0.000000,0.000000,0.000000,644.000000,644.000000,644.000000,644.000000,-0.089526,0.250000,0.458091,0.929208,-1.587000,0.080000,-0.130000,-0.050000,0.007453,-0.006394,-0.014499,0.008156,-0.005999,0.016714,0.008157,-0.005998,0.016714,-2.487499,-0.350994,0.000000,-2.487499,-0.350994,-0.008341,0.008156,-0.005999,0.016714,0.007453,-0.006394,0.013314,0.005059,0.042969,0.001239,-0.009313,-0.009466,-0.010916,3.324223,2.689698,0.069508,1.185335,1.463340,0.074033,1.072895,1.324467,0.068909,0.000000,0.000000,0.000000,0.000000,0.000000,0.000000,1100.000000,1100.000000,1100.000000,1100.000000,0.000000,0.000000,0.000000,0.000000,-0.000000,0.000000,
4.000000,0.098815,-0.000000,-0.000000,-0.000000,0.000000,0.000000,0.000000,0.000000,644.000000,644.000000,644.000000,644.000000,-0.089526,0.250000,0.458091,0.929208,-1.587000,0.080000,-0.130000,-0.050000,0.012449,-0.009955,-0.023792,0.011029,-0.007295,0.021280,0.011030,-0.007293,0.021280,-2.485271,-0.353772,0.000000,-2.485271,-0.353772,-0.010742,0.011029,-0.007295,0.021281,0.012449,-0.009955,0.022607,0.005059,0.042969,0.001239,-0.009313,-0.009466,-0.010916,3.324441,2.689966,0.079213,1.510851,1.865256,0.092609,1.745225,2.154537,0.109456,0.000000,0.000000,0.000000,0.000000,0.000000,0.000000,1100.000000,1100.000000,1100.000000,1100.000000,0.000000,0.000000,0.000000,0.000000,-0.000000,0.000000,
4.500000,0.098815,-0.000000,-0.000000,-0.000000,0.000000,0.000000,0.000000,0.000000,644.000000,644.000000,644.000000,644.000000,-0.130885,0.250000,-1.809279,0.095366,6.834750,-0.160000,0.450000,0.030000,0.018940,-0.014116,-0.035367,0.014140,-0.008400,0.025844,0.014142,-0.008397,0.025844,-2.483042,-0.356551,0.000000,-2.483042,-0.356551,-0.013143,0.014140,-0.008400,0.025845,0.018940,-0.014116,0.034182,0.005059,0.042969,0.001239,-0.009313,-0.009466,-0.010916,3.324666,2.690244,0.088137,1.836377,2.267181,0.111156,2.580312,3.185565,0.159261,0.000000,0.000000,0.000000,0.000000,0.000000,0.000000,1100.000000,1100.000000,1100.000000,1100.000000,0.000000,0.000000,0.000000,0.000000,-0.000000,0.000000,
5.000000,0.098815,-0.000000,-0.000000,-0.000000,0.000000,0.000000,0.000000,0.000000,644.000000,644.000000,644.000000,644.000000,-0.130885,0.250000,-1.809279,0.095366,6.834750,-0.160000,0.450000,0.030000,0.027047,-0.018782,-0.049224,0.017489,-0.009315,0.030408,0.017491,-0.009310,0.030408,-2.480813,-0.359329,0.000000,-2.480813,-0.359329,-0.015544,0.017489,-0.009315,0.030408,0.027047,-0.018782,0.048039,0.005059,0.042969,0.001239,-0.009313,-0.009466,-0.010916,3.324900,2.690530,0.096497,2.161916,2.669117,0.129685,3.578163,4.417556,0.218319,0.000000,0.000000,0.000000,0.000000,0.000000,0.000000,1100.000000,1100.000000,1100.000000,1100.000000,0.000000,0.000000,0.000000,0.000000,-0.000000,0.000000,
5.500000,0.098815,-0.000000,-0.000000,-0.000000,0.000000,0.000000,0.000000,0.000000,644.000000,644.000000,644.000000,644.000000,-0.215981,0.250000,0.928744,0.929208,-2.419400,0.100000,-0.090000,-0.170000,0.036888,-0.023857,-0.065363,0.021075,-0.010039,0.034972,0.021078,-0.010032,0.034972,-2.478584,-0.362107,0.000000,-2.478584,-0.362107,-0.017945,0.021075,-0.010039,0.034972,0.036888,-0.023857,0.064178,0.005059,0.042969,0.001239,-0.009313,-0.009466,-0.010916,3.325140,2.690826,0.104428,2.487466,3.071062,0.148200,4.738783,5.850514,0.286625,0.000000,0.000000,0.000000,0.000000,0.000000,0.000000,1100.000000,1100.000000,1100.000000,1100.000000,0.000000,0.000000,0.000000,0.000000,-0.000000,0.000000,
6.000000,0.098815,-0.000000,-0.000000,-0.000000,0.000000,0.000000,0.000000,0.000000,644.000000,644.000000,644.000000,644.000000,-0.215981,0.250000,0.928744,0.929208,-2.419400,0.100000,-0.090000,-0.170000,0.048581,-0.029247,-0.083785,0.024900,-0.010572,0.039537,0.024904,-0.010563,0.039537,-2.476356,-0.364885,0.000000,-2.476356,-0.364885,-0.020347,0.024900,-0.010572,0.039537,0.048581,-0.029247,0.082599,0.005059,0.042969,0.001239,-0.009313,-0.009466,-0.010916,3.325388,2.691132,0.112022,2.813029,3.473019,0.166703,6.062176,7.484445,0.364177,0.000000,0.000000,0.000000,0.000000,0.000000,0.000000,1100.000000,1100.000000,1100.000000,1100.000000,0.000000,0.000000,0.000000,0.000000,-0.000000,0.000000,
6.500000,0.098815,-0.000000,-0.000000,-0.000000,0.000000,0.000000,0.000000,0.000000,644.000000,644.000000,644.000000,644.000000,0.222151,0.250000,0.395289,0.888454,1.532167,0.150000,-0.120000,0.290000,0.062246,-0.034856,-0.104488,0.028962,-0.010915,0.044101,0.028967,-0.010903,0.044101,-2.474126,-0.367663,0.000000,-2.474126,-0.367663,-0.022748,0.028962,-0.010915,0.044102,0.062246,-0.034856,0.103303,0.005059,0.042969,0.001239,-0.009313,-0.009466,-0.010916,3.325644,2.691446,0.119342,3.138605,3.874986,0.185196,7.548349,9.319352,0.450971,0.000000,0.000000,0.000000,0.000000,0.000000,0.000000,1100.000000,1100.000000,1100.000000,1100.000000,0.000000,0.000000,0.000000,0.000000,-0.000000,0.000000,
7.000000,0.098815,-0.000000,-0.000000,-0.000000,0.000000,0.000000,0.000000,0.000000,644.000000,644.000000,644.000000,644.000000,0.222151,0.250000,0.395289,0.888454,1.532167,0.150000,-0.120000,0.290000,0.078002,-0.040589,-0.127474,0.033263,-0.011067,0.048666,0.033267,-0.011052,0.048666,-2.471897,-0.370441,0.000000,-2.471897,-0.370441,-0.025150,0.033263,-0.011067,0.048666,0.078002,-0.040589,0.126289,0.005059,0.042969,0.001239,-0.009313,-0.009466,-0.010916,3.325907,2.691770,0.126437,3.464194,4.276964,0.203680,9.197308,11.355241,0.547002,0.000000,0.000000,0.000000,0.000000,0.000000,0.000000,1100.000000,1100.000000,1100.000000,1100.000000,0.000000,0.000000,0.000000,0.000000,-0.000000,0.000000,
7.500000,0.098815,-0.000000,-0.000000,-0.000000,0.000000,0.000000,0.000000,0.000000,644.000000,644.000000,644.000000,644.000000,-0.008280,0.250000,0.595309,0.174663,2.240714,0.140000,0.480000,-0.030000,0.095967,-0.046350,-0.152742,0.037801,-0.011028,0.053231,0.037806,-0.011010,0.053231,-2.469668,-0.373219,0.000000,-2.469668,-0.373219,-0.027551,0.037801,-0.011028,0.053231,0.095967,-0.046350,0.151557,0.005059,0.042969,0.001239,-0.009313,-0.009466,-0.010916,3.326178,2.692103,0.133342,3.789797,4.678954,0.222156,11.009059,13.592117,0.652269,0.000000,0.000000,0.000000,0.000000,0.000000,0.000000,1100.000000,1100.000000,1100.000000,1100.000000,0.000000,0.000000,0.000000,0.000000,-0.000000,0.000000,
8.000000,0.098815,-0.000000,-0.000000,-0.000000,0.000000,0.000000,0.000000,0.000000,644.000000,644.000000,644.000000,644.000000,-0.008280,0.250000,0.595309,0.174663,2.240714,0.140000,0.480000,-0.030000,0.116261,-0.052044,-0.180293,0.042577,-0.010800,0.057795,0.042583,-0.010777,0.057795,-2.467438,-0.375997,0.000000,-2.467438,-0.375997,-0.029953,0.042577,-0.010800,0.057796,0.116261,-0.052044,0.179108,0.005059,0.042969,0.001239,-0.009313,-0.009466,-0.010916,3.326456,2.692446,0.140086,4.115414,5.080956,0.240624,12.983607,16.029985,0.766767,0.000000,0.000000,0.000000,0.000000,0.000000,0.000000,1100.000000,1100.000000,1100.000000,1100.000000,0.000000,0.000000,0.000000,0.000000,-0.000000,0.000000,
8.500000,0.098815,-0.000000,-0.000000,-0.000000,0.000000,0.000000,0.000000,0.000000,644.000000,644.000000,644.000000,644.000000,-0.214367,0.250000,0.441837,-1.589762,1.075867,0.090000,0.140000,0.310000,0.139003,-0.057576,-0.210126,0.047591,-0.010380,0.062360,0.047597,-0.010353,0.062360,-2.465209,-0.378775,0.000000,-2.465209,-0.378775,-0.032355,0.047591,-0.010380,0.062360,0.139003,-0.057576,0.208941,0.005059,0.042969,0.001239,-0.009313,-0.009466,-0.010916,3.326741,2.692797,0.146690,4.441045,5.482971,0.259084,15.120960,18.668851,0.890494,0.000000,0.000000,0.000000,0.000000,0.000000,0.000000,1100.000000,1100.000000,1100.000000,1100.000000,0.000000,0.000000,0.000000,0.000000,-0.000000,0.000000,
9.000000,0.098815,-0.000000,-0.000000,-0.000000,0.000000,0.000000,0.000000,0.000000,644.000000,644.000000,644.000000,644.000000,-0.214367,0.250000,0.441837,-1.589762,1.075867,0.090000,0.140000,0.310000,0.164311,-0.062851,-0.242241,0.052843,-0.009770,0.066925,0.052849,-0.009738,0.066925,-2.462979,-0.381552,0.000000,-2.462979,-0.381552,-0.034757,0.052843,-0.009770,0.066926,0.164311,-0.062851,0.241056,0.005059,0.042969,0.001239,-0.009313,-0.009466,-0.010916,3.327034,2.693158,0.153173,4.766692,5.884997,0.277537,17.421123,21.508720,1.023446,0.000000,0.000000,0.000000,0.000000,0.000000,0.000000,1100.000000,1100.000000,1100.000000,1100.000000,0.000000,0.000000,0.000000,0.000000,-0.000000,0.000000,
9.500000,0.098815,-0.000000,-0.000000,-0.000000,0.000000,0.000000,0.000000,0.000000,644.000000,644.000000,644.000000,644.000000,0.060665,0.250000,0.861002,2.012473,10.305812,0.090000,0.400000,-0.040000,0.192304,-0.067773,-0.276639,0.058333,-0.008970,0.071490,0.058339,-0.008932,0.071490,-2.460749,-0.384330,0.000000,-2.460749,-0.384330,-0.037159,0.058333,-0.008970,0.071490,0.192304,-0.067773,0.275454,0.005059,0.042969,0.001239,-0.009313,-0.009466,-0.010916,3.327335,2.693528,0.159549,5.092354,6.287037,0.295984,19.884104,24.549599,1.165619,0.000000,0.000000,0.000000,0.000000,0.000000,0.000000,1100.000000,1100.000000,1100.000000,1100.000000,0.000000,0.000000,0.000000,0.000000,-0.000000,0.000000,
10.000000,0.098815,-0.000000,-0.000000,-0.000000,0.000000,0.000000,0.000000,0.000000,644.000000,644.000000,644.000000,644.000000,0.060665,0.250000,0.861002,2.012473,10.305812,0.090000,0.400000,-0.040000,0.223102,-0.072247,-0.313319,0.064061,-0.007979,0.076055,0.064066,-0.007934,0.076055,-2.458520,-0.387107,0.000000,-2.458520,-0.387107,-0.039561,0.064061,-0.007979,0.076055,0.223102,-0.072247,0.312134,0.005059,0.042969,0.001239,-0.009313,-0.009466,-0.010916,3.327643,2.693908,0.165831,5.418031,6.689090,0.314423,22.509910,27.791492,1.317012,0.000000,0.000000,0.000000,0.000000,0.000000,0.000000,1100.000000,1100.000000,1100.000000,1100.000000,0.000000,0.000000,0.000000,0.000000,-0.000000,0.000000,
10.500000,0.777339,-0.021558,0.122021,-1.587593,0.021124,2.218302,0.362555,0.004038,3473.481711,3494.439696,3492.934849,3483.382681,0.066421,0.250000,1.018972,-0.011507,3.947118,-0.020000,-0.020000,-0.320000,0.257356,-0.083924,0.313496,0.060389,0.040739,-1.507664,0.060351,0.040796,-1.507664,-0.248421,-0.030834,0.000000,-2.456320,-0.390821,-0.057302,0.081407,-0.077967,0.079831,0.261522,-0.105722,0.349952,0.005059,0.042969,0.001239,-0.009313,-0.009466,-0.010916,3.327884,2.694296,0.172947,5.796769,7.156870,0.328542,25.320414,31.261475,1.476899,0.000000,0.000000,0.000000,0.000000,0.000000,0.000000,1509.000000,1575.000000,1513.000000,1579.000000,0.000000,0.000000,0.000000,0.000000,-1.500000,0.000000,
11.000000,1.570861,-0.054268,0.323946,-1.584628,0.018655,2.435755,0.396369,0.001244,3483.865497,3488.616108,3487.643876,3491.221241,0.066421,0.250000,1.018972,-0.011507,3.947118,-0.020000,-0.020000,-0.320000,0.281338,-0.013865,1.066510,0.034298,0.243108,-1.501120,0.034043,0.243144,-1.501120,-0.021434,0.001098,0.000000,-2.457222,-0.394149,-0.061199,0.087977,-0.077211,0.083335,0.304076,-0.144775,0.390487,0.005059,0.042969,0.001239,-0.009313,-0.009466,-0.010916,3.328206,2.694694,0.179230,6.122408,7.559028,0.339754,28.298318,34.938203,1.642683,0.000000,0.000000,0.000000,0.000000,0.000000,0.000000,1511.000000,1574.000000,1512.000000,1580.000000,0.000000,0.000000,0.000000,0.000000,-1.500000,0.000000,
11.500000,2.364198,-0.087910,0.530887,-1.586413,0.019427,2.448440,0.401825,-0.003009,3519.144290,3461.101547,3517.381811,3464.475590,1.528101,0.250000,0.575657,0.379739,2.055118,-0.050000,0.340000,-1.580000,0.292010,0.159445,1.817502,0.007549,0.450884,-1.499095,0.007020,0.450892,-1.499095,-0.006052,0.003692,0.000000,-2.455290,-0.397247,-0.063972,0.094866,-0.076383,0.087048,0.349993,-0.183422,0.432817,0.005059,0.042969,0.001239,-0.009313,-0.009466,-0.010916,3.328535,2.695101,0.185261,6.448217,7.961390,0.351334,31.439097,38.816083,1.813792,0.000000,0.000000,0.000000,0.000000,0.000000,0.000000,1520.000000,1567.000000,1520.000000,1573.000000,0.000000,0.000000,0.000000,0.000000,-1.500000,0.000000,
12.000000,3.158752,-0.121580,0.736253,-1.588917,0.019872,2.447651,0.404642,-0.007212,3518.083041,3463.717805,3519.587433,3466.947619,1.528101,0.250000,0.575657,0.379739,2.055118,-0.050000,0.340000,-1.580000,0.289355,0.436336,2.567835,-0.018963,0.657243,-1.497804,-0.019811,0.657218,-1.497804,-0.004602,0.003444,0.000000,-2.453003,-0.400235,-0.066535,0.102026,-0.075423,0.090783,0.399422,-0.221637,0.477017,0.005059,0.042969,0.001239,-0.009313,-0.009466,-0.010916,3.328872,2.695517,0.191216,6.774069,8.363797,0.363447,34.742801,42.895172,1.990308,0.000000,0.000000,0.000000,0.000000,0.000000,0.000000,1520.000000,1567.000000,1521.000000,1573.000000,0.000000,0.000000,0.000000,0.000000,-1.500000,0.000000,
12.500000,3.954998,-0.155130,0.939468,-1.592957,0.018192,2.445267,0.407155,-0.011769,3519.292280,3461.249251,3517.867175,3462.679672,2.974937,0.250000,1.584198,0.663392,2.437118,-0.110000,0.690000,-1.230000,0.273526,0.815937,3.317942,-0.045110,0.861666,-1.498092,-0.046327,0.861601,-1.498092,-0.004449,0.002928,0.000000,-2.450611,-0.403263,-0.069017,0.109433,-0.074261,0.094636,0.452487,-0.259322,0.523119,0.005059,0.042969,0.001239,-0.009313,-0.009466,-0.010916,3.329216,2.695943,0.197116,7.099992,8.766286,0.376042,38.209448,47.175489,2.172388,0.000000,0.000000,0.000000,0.000000,0.000000,0.000000,1520.000000,1567.000000,1520.000000,1573.000000,0.000000,0.000000,0.000000,0.000000,-1.500000,0.000000,
13.000000,4.753075,-0.188529,1.140166,-1.596810,0.018635,2.443323,0.410511,-0.015961,3519.807604,3461.249251,3519.193269,3464.479066,2.974937,0.250000,1.584198,0.663392,2.437118,-0.110000,0.690000,-1.230000,0.244744,1.297176,4.067942,-0.070827,1.063757,-1.497975,-0.072454,1.063648,-1.497975,-0.004029,0.003291,0.000000,-2.448144,-0.406318,-0.071541,0.117117,-0.072911,0.098558,0.509332,-0.296369,0.571164,0.005059,0.042969,0.001239,-0.009313,-0.009466,-0.010916,3.329568,2.696377,0.202973,7.425921,9.168773,0.389062,41.839048,51.657044,2.360209,0.000000,0.000000,0.000000,0.000000,0.000000,0.000000,1520.000000,1567.000000,1520.000000,1573.000000,0.000000,0.000000,0.000000,0.000000,-1.500000,0.000000,
13.500000,5.553122,-0.221742,1.338111,-1.600888,0.018693,2.440272,0.413684,-0.019995,3519.807531,3461.249537,3519.693289,3464.521122,4.877681,0.250000,-0.532630,0.819891,7.196118,-0.170000,1.150000,-1.730000,0.203213,1.878847,4.817919,-0.096068,1.263314,-1.497990,-0.098145,1.263154,-1.497990,-0.004793,0.003500,0.000000,-2.445878,-0.409256,4.457680,0.025576,-0.082892,0.102630,0.421005,-0.322504,0.621198,0.005059,0.042969,0.001239,-0.009313,-0.009466,-0.010916,3.329927,2.696821,0.208784,7.751873,9.571282,0.402448,45.631609,56.339844,2.553950,0.000000,0.000000,0.000000,0.000000,0.000000,0.000000,1520.000000,1567.000000,1520.000000,1573.000000,0.000000,0.000000,0.000000,0.000000,-1.500000,0.000000,
14.000000,6.355256,-0.254730,1.533001,-1.604971,0.019613,2.438300,0.416255,-0.023788,3521.607208,3463.048928,3517.909495,3462.733837,4.877681,0.250000,-0.532630,0.819891,7.196118,-0.170000,1.150000,-1.730000,0.149156,2.559581,5.567913,-0.120929,1.460006,-1.497886,-0.123491,1.459792,-1.497886,-0.004430,0.003004,0.000000,-2.443532,-0.412247,4.455149,0.018245,-0.083724,0.106835,0.432174,-0.364402,0.673302,0.005059,0.042969,0.001239,-0.009313,-0.009466,-0.010916,3.330294,2.697274,0.214551,8.077841,9.973802,0.416152,49.587140,61.223895,2.753790,0.000000,0.000000,0.000000,0.000000,0.000000,0.000000,1520.000000,1567.000000,1520.000000,1573.000000,0.000000,0.000000,0.000000,0.000000,-1.500000,0.000000,
14.500000,7.143417,-0.288157,1.725948,-1.569019,0.020338,2.497801,0.440449,-0.026973,3490.339112,3494.290685,3488.400908,3495.721554,6.364877,0.250000,-1.097854,3.861824,-3.963883,-0.170000,1.660000,-1.590000,-0.706807,4.626753,6.561878,-0.260991,1.855093,-1.496462,-0.264492,1.854597,-1.496462,-0.012681,0.001362,0.668904,-2.510901,-0.437966,0.427563,0.010108,0.130183,0.072279,-0.126814,0.879841,0.467813,0.006252,0.045734,0.001041,-0.009227,-0.009836,-0.010944,2.142263,1.898414,0.219794,0.313493,0.227871,0.265829,1.908106,1.403578,1.730976,-1.027618,1.196322,-9.636742,0.071036,0.187590,-0.091090,1512.000000,1575.000000,1512.000000,1581.000000,0.000000,0.000000,0.000000,0.000000,-1.500000,0.000000,
15.000000,7.929764,-0.322464,1.919834,-1.573261,0.018734,2.502569,0.445501,-0.031003,3488.464063,3494.392755,3488.323716,3491.946946,6.364877,0.250000,-1.097854,3.861824,-3.963883,-0.170000,1.660000,-1.590000,-0.844479,5.605123,7.311506,-0.290465,2.058749,-1.497561,-0.294589,2.058163,-1.497561,-0.005243,0.003295,0.668904,-2.508668,-0.441246,0.424898,0.013138,0.139623,0.075511,-0.120796,0.947031,0.504495,0.006252,0.045734,0.001041,-0.009227,-0.009836,-0.010944,2.142757,1.898999,0.225507,0.328535,0.239850,0.276257,2.059808,1.508593,1.864414,-1.027618,1.196322,-9.636742,0.071036,0.187590,-0.091090,1512.000000,1575.000000,1512.000000,1580.000000,0.000000,0.000000,0.000000,0.000000,-1.500000,0.000000,
15.500000,8.659038,-0.357029,2.120880,-1.422948,0.020170,2.864826,0.484067,-0.033013,3519.140810,3463.049036,3523.628227,3463.812068,8.182462,0.250000,-0.310971,5.035568,5.115116,-0.270000,2.000000,-1.870000,-0.662167,6.305678,9.048653,-0.273205,2.217940,-1.495872,-0.277997,2.217345,-1.495872,-0.052220,-0.000234,0.962901,-2.915789,-0.483133,0.727931,0.051519,0.096789,-0.073178,0.190493,0.639104,-0.502061,0.006584,0.052487,0.000249,-0.009202,-0.009796,-0.010941,2.084817,1.899010,0.231235,0.300056,0.177295,0.219737,1.848159,1.092529,1.545256,0.604967,-0.706736,-2.301301,0.042646,-0.083879,-0.371674,1520.000000,1567.000000,1521.000000,1573.000000,0.000000,0.000000,0.000000,0.000000,-1.500000,0.000000,
16.000000,9.371161,-0.393777,2.340787,-1.422502,0.018469,2.905352,0.490114,-0.037214,3519.807530,3463.048643,3519.193351,3464.005585,8.182462,0.250000,-0.310971,5.035568,5.115116,-0.270000,2.000000,-1.870000,-0.805993,7.471524,9.798067,-0.302864,2.446056,-1.497231,-0.308440,2.445359,-1.497231,-0.008363,0.002785,0.962901,-2.914419,-0.486327,0.725304,0.055357,0.104526,-0.074927,0.217423,0.689172,-0.539348,0.006584,0.052487,0.000249,-0.009202,-0.009796,-0.010941,2.085321,1.899617,0.236886,0.315181,0.188636,0.228226,1.991347,1.166097,1.654563,0.604967,-0.706736,-2.301301,0.042646,-0.083879,-0.371674,1520.000000,1567.000000,1520.000000,1573.000000,0.000000,0.000000,0.000000,0.000000,-1.500000,0.000000,
16.500000,10.100064,-0.430439,2.554464,-1.466697,0.018854,2.807572,0.494982,-0.041405,3521.649345,3461.249536,3519.664373,3464.479178,9.265370,0.250000,-1.164351,7.392824,2.883113,-0.480000,2.400000,-1.390000,-0.867598,8.619124,10.236310,-0.321721,2.645232,-1.499008,-0.328010,2.644459,-1.499008,0.009941,0.003194,0.426345,-2.799170,-0.490779,2.420437,-0.007686,0.077692,-0.032499,0.090881,0.579728,-0.249073,0.006587,0.050314,0.000453,-0.009047,-0.009674,-0.010929,2.057278,1.899707,0.242490,0.304203,0.161595,0.194186,1.874978,0.962880,1.463534,-0.221075,-0.287955,-7.049824,-0.136826,-0.081751,0.109175,1520.000000,1567.000000,1520.000000,1573.000000,0.000000,0.000000,0.000000,0.000000,-1.500000,0.000000,
17.000000,10.833878,-0.466129,2.755586,-1.466254,0.019450,2.792549,0.497985,-0.045365,3521.649526,3463.196634,3523.585909,3464.386543,9.265370,0.250000,-1.164351,7.392824,2.883113,-0.480000,2.400000,-1.390000,-1.035292,9.994005,10.986580,-0.349741,2.854123,-1.498293,-0.356852,2.853243,-1.498293,-0.003169,0.003129,0.426345,-2.796663,-0.493829,2.417888,-0.009144,0.083918,-0.032274,0.086876,0.619876,-0.265522,0.006587,0.050314,0.000453,-0.009047,-0.009674,-0.010929,2.057797,1.900343,0.248080,0.319977,0.173314,0.201189,2.019002,1.023348,1.559136,-0.221075,-0.287955,-7.049824,-0.136826,-0.081751,0.109175,1520.000000,1567.000000,1521.000000,1573.000000,0.000000,0.000000,0.000000,0.000000,-1.500000,0.000000,
17.500000,11.564331,-0.501145,2.951598,-1.457131,0.019662,2.818916,0.502794,-0.049364,3522.044416,3466.222755,3520.251038,3471.423556,10.627872,0.250000,-0.876195,9.867463,8.491110,-0.470000,2.650000,-1.540000,-0.922230,11.227011,11.790904,-0.338779,3.006972,-1.497207,-0.346621,3.006078,-1.497207,-0.009688,0.002536,0.500222,-2.829304,-0.499269,3.025159,-0.001670,0.035856,-0.040337,0.268360,0.415804,-0.339312,0.006367,0.050300,0.000408,-0.008257,-0.009708,-0.010925,2.041706,1.900608,0.253639,0.318380,0.157194,0.177400,1.963210,0.891328,1.426140,0.639646,-0.328346,-2.630452,0.010783,-0.222345,-0.039455,1521.000000,1567.000000,1521.000000,1574.000000,0.000000,0.000000,0.000000,0.000000,-1.500000,0.000000,
18.000000,12.293921,-0.535634,3.143857,-1.458265,0.018976,2.822827,0.507421,-0.053488,3521.661470,3463.239033,3524.143768,3464.533538,10.627872,0.250000,-0.876195,9.867463,8.491110,-0.470000,2.650000,-1.540000,-1.097695,12.779812,12.540788,-0.363776,3.204224,-1.497880,-0.372506,3.203221,-1.497880,-0.003746,0.003998,0.500222,-2.827523,-0.502415,3.022593,-0.002881,0.039095,-0.039819,0.267429,0.434284,-0.359613,0.006367,0.050300,0.000408,-0.008257,-0.009708,-0.010925,2.042239,1.901274,0.259184,0.335049,0.169421,0.183481,2.113888,0.945568,1.512582,0.639646,-0.328346,-2.630452,0.010783,-0.222345,-0.039455,1520.000000,1567.000000,1521.000000,1573.000000,0.000000,0.000000,0.000000,0.000000,-1.500000,0.000000,
18.500000,12.994551,-0.568597,3.333321,-1.379881,0.020357,2.972222,0.507655,-0.056947,3490.340084,3494.997238,3489.105492,3495.763871,12.358393,0.250000,-1.729575,12.567071,12.368105,-0.310000,3.340000,-1.830000,-1.669306,14.347381,13.902437,-0.425910,3.404329,-1.496985,-0.435651,3.403097,-1.496985,-0.026874,0.004524,1.253795,-2.999075,-0.502133,0.879975,0.083538,0.066617,-0.117257,0.419779,0.433072,-1.019944,0.006415,0.053496,0.000079,-0.008685,-0.009983,-0.010947,2.032434,1.901597,0.264691,0.340016,0.157272,0.165436,2.111353,0.845764,1.411340,0.111847,-0.421585,-0.307605,0.233779,0.126156,-0.330138,1512.000000,1575.000000,1512.000000,1581.000000,0.000000,0.000000,0.000000,0.000000,-1.500000,0.000000,
19.000000,13.685104,-0.601246,3.527750,-1.379191,0.020564,2.990130,0.509989,-0.061356,3494.312926,3494.849573,3489.106523,3495.911901,12.358393,0.250000,-1.729575,12.567071,12.368105,-0.310000,3.340000,-1.830000,-1.887885,16.099725,14.652167,-0.449072,3.605072,-1.497404,-0.459825,3.603716,-1.497404,-0.006463,0.003729,1.253795,-2.997497,-0.505279,0.877404,0.089589,0.072415,-0.118379,0.463274,0.467569,-1.079111,0.006415,0.053496,0.000079,-0.008685,-0.009983,-0.010947,2.032983,1.902292,0.270190,0.357654,0.169890,0.170948,2.273137,0.897276,1.491136,0.111847,-0.421585,-0.307605,0.233779,0.126156,-0.330138,1513.000000,1575.000000,1512.000000,1581.000000,0.000000,0.000000,0.000000,0.000000,-1.500000,0.000000,
19.500000,14.400442,-0.633076,3.714252,-1.444333,0.018777,2.880597,0.502363,-0.066473,3525.716395,3463.053399,3523.628227,3468.452675,13.591380,0.250000,0.908159,18.210806,14.637092,-0.530000,3.510000,-1.200000,-1.192832,18.280099,14.879748,-0.364956,3.814316,-1.499489,-0.376748,3.813170,-1.499489,0.012379,0.005465,4.579165,-2.869796,-0.495936,1.716984,0.146131,0.089560,-0.055355,1.161435,0.825359,-0.591918,0.005568,0.051190,0.000334,-0.008076,-0.010043,-0.010947,2.026498,1.902440,0.275647,0.367601,0.159895,0.156324,2.312795,0.822118,1.409271,3.119203,1.820709,-0.149986,-0.014683,-0.121808,0.299653,1521.000000,1567.000000,1521.000000,1574.000000,0.000000,0.000000,0.000000,0.000000,-1.500000,0.000000,
20.000000,15.123322,-0.662927,3.885136,-1.444134,0.019518,2.863991,0.503663,-0.070651,3524.003037,3469.997949,3525.970505,3471.584469,13.591380,0.250000,0.908159,18.210806,14.637092,-0.530000,3.510000,-1.200000,-1.379344,20.231659,15.630272,-0.381742,3.991540,-1.497964,-0.394552,3.990294,-1.497964,-0.002896,0.003536,4.579165,-2.867685,-0.499219,1.714414,0.153569,0.095141,-0.054124,1.236569,0.871268,-0.619553,0.005568,0.051190,0.000334,-0.008076,-0.010043,-0.010947,2.027070,1.903167,0.281107,0.386213,0.172729,0.161247,2.489135,0.873612,1.483848,3.119203,1.820709,-0.149986,-0.014683,-0.121808,0.299653,1521.000000,1568.000000,1522.000000,1574.000000,0.000000,0.000000,0.000000,0.000000,-1.500000,0.000000,
20.500000,15.898613,-0.690430,4.743818,-1.409032,0.023652,17.457432,0.520884,-0.070166,3520.695777,3632.046738,3645.046959,3510.236801,15.284477,0.250000,-6.439791,19.785576,11.093084,-0.620000,3.870000,-1.640000,-2.297955,22.189907,16.568287,-0.477230,4.782932,-1.486990,-0.492832,4.781350,-1.486990,14.475306,0.000366,5.987168,-2.891358,-0.519397,2.276230,0.013498,0.040192,-0.078167,0.376356,0.682231,-0.846569,0.006409,0.051386,0.000228,-0.007465,-0.009879,-0.010935,2.023189,1.903649,0.286520,0.400805,0.161634,0.149044,2.582879,0.802306,1.415254,-4.370018,-0.751172,-4.672078,-0.107687,-0.140753,-0.140660,1516.000000,1596.000000,1536.000000,1585.000000,16.500000,0.000000,0.000000,0.000000,-1.500000,0.000000,
21.000000,16.747196,-0.713806,6.267571,-1.414939,0.026795,19.260863,0.526382,-0.073003,3609.608362,3590.375163,3618.263260,3586.480985,15.284477,0.250000,-6.439791,19.785576,11.093084,-0.620000,3.870000,-1.640000,-2.539067,24.955902,17.313927,-0.487076,6.295669,-1.492060,-0.508295,6.293991,-1.492060,16.350870,0.003688,5.987168,-2.904229,-0.521727,2.272875,-0.036016,0.029208,-0.077407,0.371082,0.699357,-0.885935,0.006409,0.051386,0.000228,-0.007465,-0.009879,-0.010935,2.023778,1.904388,0.291816,0.420789,0.174272,0.153685,2.777013,0.854156,1.485534,-4.370018,-0.751172,-4.672078,-0.107687,-0.140753,-0.140660,1529.000000,1591.000000,1531.000000,1596.000000,16.500000,0.000000,0.000000,0.000000,-1.500000,0.000000,
21.500000,17.671113,-0.730769,7.767850,-1.437589,0.025241,19.376908,0.510080,-0.083470,3622.476211,3596.596435,3620.532727,3593.643604,16.496314,0.250000,-2.904344,24.108856,14.100072,-0.670000,6.410000,-1.420000,-2.919257,28.117809,17.910345,-0.507013,7.728745,-1.495754,-0.534821,7.726870,-1.495754,16.487822,0.007780,0.828751,-2.889469,-0.501493,1.609034,-0.009745,-0.032521,-0.058554,0.543636,0.387716,-0.767135,0.006114,0.050505,0.000278,-0.006740,-0.009787,-0.010944,2.021157,1.902369,0.297040,0.384036,0.161507,0.143037,2.376281,0.777580,1.426581,0.742259,-1.295924,-3.348301,0.091628,-0.133767,0.074643,1531.000000,1592.000000,1531.000000,1597.000000,16.500000,0.000000,0.000000,0.000000,-1.500000,0.000000,
22.000000,18.676660,-0.741106,9.161222,-1.448464,0.023977,19.382848,0.508877,-0.088435,3624.357197,3604.085689,3626.322762,3603.541435,16.496314,0.250000,-2.904344,24.108856,14.100072,-0.670000,6.410000,-1.420000,-3.172059,32.333080,18.659382,-0.504139,9.113637,-1.496016,-0.538190,9.111689,-1.496016,16.494951,0.004344,0.828751,-2.888549,-0.503681,1.606090,-0.038278,-0.043472,-0.048017,0.531720,0.368553,-0.794293,0.006114,0.050505,0.000278,-0.006740,-0.009787,-0.010944,2.021750,1.903103,0.302297,0.404163,0.174302,0.147194,2.561308,0.829231,1.492800,0.742259,-1.295924,-3.348301,0.091628,-0.133767,0.074643,1532.000000,1593.000000,1533.000000,1598.000000,16.500000,0.000000,0.000000,0.000000,-1.500000,0.000000,
22.500000,19.807979,-0.747207,10.468665,-1.559890,0.028922,19.310438,0.514584,-0.090871,3635.428709,3606.923049,3637.394261,3606.421381,18.095956,0.250000,-5.530964,34.339975,15.760023,-0.740000,9.520000,-0.980000,-3.829657,37.570504,18.600814,-0.544979,10.481490,-1.499353,-0.585152,10.479324,-1.499353,16.505754,0.003762,3.205405,-2.805970,-0.509988,1.274838,-0.054316,0.017641,0.059936,0.303039,0.705588,0.028192,0.006526,0.049956,0.000667,-0.007893,-0.009513,-0.010936,2.019994,1.901717,0.307547,0.362623,0.161491,0.138286,2.124482,0.756267,1.442442,-1.313144,1.288287,-3.034165,0.044913,0.188099,0.518639,1533.000000,1594.000000,1534.000000,1599.000000,16.500000,0.000000,0.000000,0.000000,-1.500000,0.000000,
23.000000,20.886784,-0.748325,11.619821,-1.583599,0.027855,19.299157,0.516624,-0.094721,3610.672017,3640.831793,3610.887938,3644.058178,18.095956,0.250000,-5.530964,34.339975,15.760023,-0.740000,9.520000,-0.980000,-4.099482,43.103014,19.351110,-0.534535,11.628201,-1.497794,-0.580541,11.625995,-1.497794,16.496093,0.003764,3.205405,-2.803983,-0.512056,1.271612,-0.070766,0.010999,0.085105,0.271887,0.712588,0.063937,0.006526,0.049956,0.000667,-0.007893,-0.009513,-0.010936,2.020567,1.902444,0.312793,0.382411,0.174362,0.144113,2.297920,0.807977,1.504329,-1.313144,1.288287,-3.034165,0.044913,0.188099,0.518639,1526.000000,1602.000000,1526.000000,1608.000000,16.500000,0.000000,0.000000,0.000000,-1.500000,0.000000,
23.500000,21.777461,-0.743415,12.656542,-1.607817,0.031887,19.431842,0.473231,-0.114531,3617.756206,3638.052163,3625.263514,3640.762337,19.699388,0.250000,-5.154114,43.524482,13.623967,-0.500000,11.390000,-1.510000,-5.189431,48.745189,20.068291,-0.620704,12.546513,-1.497271,-0.675152,12.543701,-1.497271,16.475769,0.011835,1.846626,-2.955836,-0.460801,-0.012447,0.096316,-0.094061,0.109871,0.506374,0.392833,0.143934,0.006294,0.051207,0.000737,-0.005834,-0.008790,-0.010942,2.011459,1.902429,0.317963,0.366368,0.161448,0.139428,2.091647,0.745280,1.462369,0.073350,-0.519027,-5.862073,0.321147,-0.415509,-0.010379,1526.000000,1602.000000,1528.000000,1608.000000,16.500000,0.000000,0.000000,0.000000,-1.500000,0.000000,
24.000000,22.683035,-0.732935,13.586412,-1.644269,0.031229,19.448989,0.467155,-0.121060,3627.922054,3644.488321,3626.159522,3647.202339,19.699388,0.250000,-5.154114,43.524482,13.623967,-0.500000,11.390000,-1.510000,-5.495073,55.252570,20.817749,-0.602200,13.464078,-1.497215,-0.662792,13.461232,-1.497215,16.494181,0.003925,1.846626,-2.955683,-0.462443,-0.015057,0.102457,-0.108301,0.146277,0.556307,0.342107,0.207471,0.006294,0.051207,0.000737,-0.005834,-0.008790,-0.010942,2.012000,1.903164,0.323183,0.386245,0.174217,0.151152,2.267418,0.797697,1.519370,0.073350,-0.519027,-5.862073,0.321147,-0.415509,-0.010379,1528.000000,1603.000000,1528.000000,1609.000000,16.500000,0.000000,0.000000,0.000000,-1.500000,0.000000,
24.500000,23.594057,-0.720081,14.386706,-1.652019,0.029223,19.292361,0.473347,-0.123312,3630.259614,3653.579679,3627.842377,3657.143497,21.066843,0.250000,-5.298151,54.812028,22.442880,-0.720000,13.680000,-1.670000,-5.489391,61.950191,21.797639,-0.545138,14.233570,-1.496150,-0.610560,14.230914,-1.496150,16.518778,0.003107,1.197790,-2.775450,-0.469403,0.270056,0.073438,-0.144133,0.154871,0.599589,0.020500,0.047773,0.006137,0.047944,0.000509,-0.005812,-0.009058,-0.010966,1.974188,1.903443,0.328397,0.388605,0.161315,0.152416,2.235119,0.741811,1.486222,0.370385,-1.647365,1.490254,-0.093050,0.063870,-0.170898,1529.000000,1604.000000,1529.000000,1610.000000,16.500000,0.000000,0.000000,0.000000,-1.500000,0.000000,
25.000000,24.520883,-0.706172,15.087924,-1.696797,0.030767,19.270617,0.475845,-0.126800,3632.261184,3654.290101,3634.227935,3661.075045,21.066843,0.250000,-5.298151,54.812028,22.442880,-0.720000,13.680000,-1.670000,-5.756037,69.243521,22.546933,-0.522103,14.922855,-1.496736,-0.592419,14.920228,-1.496736,16.497161,0.003750,1.197790,-2.774395,-0.471218,0.266947,0.077658,-0.157677,0.199046,0.637592,-0.055093,0.135826,0.006137,0.047944,0.000509,-0.005812,-0.009058,-0.010966,1.974698,1.904199,0.333613,0.408893,0.173934,0.173141,2.423355,0.795169,1.537485,0.370385,-1.647365,1.490254,-0.093050,0.063870,-0.170898,1529.000000,1604.000000,1530.000000,1611.000000,16.500000,0.000000,0.000000,0.000000,-1.500000,0.000000,
25.500000,25.447730,-0.691113,15.657638,-1.686552,0.027111,18.877015,0.480427,-0.129656,3661.057790,3620.526408,3655.148916,3629.820192,22.625012,0.250000,-6.528271,70.413031,23.020726,-0.690000,15.180000,-1.740000,-5.913095,76.923328,23.567392,-0.488882,15.514375,-1.496199,-0.562895,15.511866,-1.496199,16.554535,0.003873,0.610167,-2.326150,-0.475784,0.406654,0.053616,-0.139339,0.189380,0.586857,-0.077354,-0.044941,0.006148,0.040392,0.000103,-0.006305,-0.009131,-0.010969,1.875666,1.904569,0.338799,0.421032,0.160696,0.176717,2.496792,0.740792,1.513446,-0.220998,-0.135417,0.338924,-0.065126,0.147139,-0.240734,1537.000000,1596.000000,1536.000000,1603.000000,16.500000,0.000000,0.000000,0.000000,-1.500000,0.000000,
26.000000,26.388283,-0.676055,16.145066,-1.731773,0.031810,18.822955,0.482380,-0.133413,3634.360801,3650.268265,3632.557174,3653.642314,22.625012,0.250000,-6.528271,70.413031,23.020726,-0.690000,15.180000,-1.740000,-6.151284,84.803719,24.316757,-0.464669,15.993923,-1.497219,-0.542940,15.991457,-1.497219,16.499939,0.003793,0.610167,-2.324045,-0.477799,0.403416,0.058174,-0.148409,0.233619,0.615042,-0.149428,0.060487,0.006148,0.040392,0.000103,-0.006305,-0.009131,-0.010969,1.876169,1.905344,0.344001,0.441907,0.173139,0.205339,2.702794,0.794834,1.558053,-0.220998,-0.135417,0.338924,-0.065126,0.147139,-0.240734,1529.000000,1604.000000,1529.000000,1610.000000,16.500000,0.000000,0.000000,0.000000,-1.500000,0.000000,
26.500000,27.333410,-0.660995,16.530167,-1.733231,0.029324,18.456807,0.491227,-0.134904,3630.423279,3644.347006,3626.109866,3647.780000,24.338154,0.250000,-6.705485,85.916097,14.524536,-0.690000,16.270000,-1.650000,-6.230957,92.985525,25.097491,-0.428344,16.413502,-1.497271,-0.509484,16.411184,-1.497271,16.551171,0.003101,1.003954,-1.908989,-0.487083,0.492163,0.049611,-0.116275,0.235144,0.645207,-0.148262,0.141419,0.006248,0.033571,-0.000172,-0.006974,-0.009176,-0.010985,1.700266,1.905806,0.349167,0.460378,0.159908,0.202109,2.858469,0.741879,1.542249,0.314828,-0.267215,-9.927096,-0.075929,0.202669,-0.150871,1528.000000,1603.000000,1528.000000,1609.000000,16.500000,0.000000,0.000000,0.000000,-1.500000,0.000000,
27.000000,28.292591,-0.646789,16.852308,-1.774640,0.030187,18.404973,0.493087,-0.138952,3630.423279,3650.216638,3631.886341,3647.263468,24.338154,0.250000,-6.705485,85.916097,14.524536,-0.690000,16.270000,-1.650000,-6.439035,101.274256,25.847069,-0.404880,16.732094,-1.497508,-0.489676,16.729827,-1.497508,16.499353,0.003157,1.003954,-1.906659,-0.488971,0.489063,0.055305,-0.120550,0.276268,0.671699,-0.207596,0.269036,0.006248,0.033571,-0.000172,-0.006974,-0.009176,-0.010985,1.700792,1.906605,0.354357,0.481964,0.172167,0.233985,3.085585,0.796384,1.580257,0.314828,-0.267215,-9.927096,-0.075929,0.202669,-0.150871,1528.000000,1604.000000,1529.000000,1609.000000,16.500000,0.000000,0.000000,0.000000,-1.500000,0.000000,
27.500000,29.273160,-0.633548,17.122986,-1.822487,0.028231,18.309402,0.507436,-0.138747,3661.794740,3626.345246,3661.138139,3629.734530,26.304253,0.250000,-5.741108,107.249027,26.442214,-0.660000,16.920000,-1.480000,-6.511069,110.579441,26.582226,-0.378523,17.129652,-1.497610,-0.466144,17.127491,-1.497610,16.510157,0.002323,7.252264,-1.800687,-0.504190,0.394038,0.091466,0.006619,0.323867,0.993514,0.614390,0.434149,0.006557,0.032921,-0.000208,-0.008369,-0.009032,-0.011000,1.476232,1.907190,0.359511,0.503722,0.159110,0.218030,3.305954,0.744283,1.570167,1.881679,4.545269,0.460244,-0.072334,0.141460,0.019444,1537.000000,1597.000000,1537.000000,1603.000000,16.500000,0.000000,0.000000,0.000000,-1.500000,0.000000,
28.000000,30.274260,-0.621342,17.347139,-1.865660,0.027232,18.294754,0.510585,-0.142305,3632.261840,3658.208404,3634.227340,3657.198832,26.304253,0.250000,-5.741108,107.249027,26.442214,-0.660000,16.920000,-1.480000,-6.694778,119.202563,27.332055,-0.357270,17.356264,-1.497374,-0.448055,17.354158,-1.497374,16.497166,0.003715,7.252264,-1.798416,-0.505906,0.391001,0.098336,0.008592,0.367333,1.041253,0.618068,0.606750,0.006557,0.032921,-0.000208,-0.008369,-0.009032,-0.011000,1.476814,1.908012,0.364690,0.526043,0.171194,0.248396,3.555929,0.799031,1.603088,1.881679,4.545269,0.460244,-0.072334,0.141460,0.019444,1529.000000,1605.000000,1530.000000,1610.000000,16.500000,0.000000,0.000000,0.000000,-1.500000,0.000000,
28.500000,31.192118,-0.607624,17.386390,-1.599322,0.026436,17.094346,0.510378,-0.146651,3635.357687,3594.150008,3620.533640,3606.524997,27.856887,0.250000,-10.706155,118.751910,34.661004,-0.640000,17.490000,-2.260000,-6.895121,127.662022,28.690320,-0.351318,17.397899,-1.497715,-0.442365,17.395822,-1.497715,16.680281,0.005307,7.101268,-0.423242,-0.504225,0.650313,0.012690,0.006118,0.101211,0.499026,0.356560,0.092069,0.006723,0.008413,-0.001172,-0.008106,-0.008923,-0.011071,1.253375,1.908574,0.369820,0.546315,0.156819,0.226542,3.815387,0.747045,1.595662,-2.824979,-1.944557,7.194037,-0.120651,0.100623,-0.760310,1533.000000,1592.000000,1531.000000,1599.000000,16.500000,0.000000,0.000000,0.000000,-1.500000,0.000000,
29.000000,32.070072,-0.596909,17.437070,-1.608700,0.026819,16.926390,0.510473,-0.151143,3597.645197,3623.979284,3595.700357,3630.620306,27.856887,0.250000,-10.706155,118.751910,34.661004,-0.640000,17.490000,-2.260000,-7.065997,136.376737,29.440257,-0.333138,17.456673,-1.497848,-0.426821,17.454634,-1.497848,16.509010,0.003726,7.101268,-0.418887,-0.505799,0.647215,0.019317,0.014014,0.110493,0.507326,0.361501,0.144882,0.006723,0.008413,-0.001172,-0.008106,-0.008923,-0.011071,1.254042,1.909413,0.374988,0.569068,0.168700,0.255774,4.087481,0.801474,1.625049,-2.824979,-1.944557,7.194037,-0.120651,0.100623,-0.760310,1524.000000,1599.000000,1524.000000,1606.000000,16.500000,0.000000,0.000000,0.000000,-1.500000,0.000000,
29.500000,32.926847,-0.586311,17.446541,-1.551740,0.027470,16.705284,0.507441,-0.155896,3622.476067,3589.696302,3618.069760,3593.601247,29.608528,0.250000,-8.611273,137.042589,27.477641,-0.600000,17.430000,-1.660000,-7.289652,144.947808,30.267019,-0.327092,17.452435,-1.496684,-0.422670,17.450382,-1.496684,16.527419,0.004736,0.412361,-0.179990,-0.501813,0.598825,0.029069,0.000398,0.054814,0.577815,0.216421,0.101627,0.006741,0.003988,-0.001320,-0.007798,-0.008804,-0.011085,1.053242,1.910088,0.380123,0.582321,0.155895,0.225723,4.344838,0.750061,1.619271,0.417255,-0.792653,-2.097563,-0.025757,-0.029398,-0.159932,1531.000000,1591.000000,1531.000000,1597.000000,16.500000,0.000000,0.000000,0.000000,-1.500000,0.000000,
30.000000,33.776919,-0.576766,17.459798,-1.555098,0.027765,16.674982,0.508079,-0.160313,3616.755313,3590.359533,3619.869151,3593.073556,29.608528,0.250000,-8.611273,137.042589,27.477641,-0.600000,17.430000,-1.660000,-7.448808,153.679578,31.016621,-0.310500,17.473562,-1.497606,-0.408485,17.471546,-1.497606,16.498188,0.003726,0.412361,-0.177722,-0.503327,0.595771,0.035823,0.008390,0.057276,0.594361,0.218519,0.129557,0.006741,0.003988,-0.001320,-0.007798,-0.008804,-0.011085,1.054029,1.910952,0.385282,0.605144,0.167677,0.250657,4.635394,0.804292,1.646852,0.417255,-0.792653,-2.097563,-0.025757,-0.029398,-0.159932,1530.000000,1591.000000,1531.000000,1597.000000,16.500000,0.000000,0.000000,0.000000,-1.500000,0.000000,
30.500000,34.640857,-0.568312,17.484743,-1.593900,0.023797,16.772951,0.510981,-0.163650,3621.850942,3600.151050,3620.600832,3601.062814,31.077142,0.250000,-9.608520,154.805350,31.574233,-0.530000,17.510000,-1.410000,-7.559423,162.392106,31.715822,-0.288576,17.505045,-1.498164,-0.388947,17.503102,-1.498164,16.480532,0.003771,0.099390,-0.292729,-0.506289,0.609810,0.043365,0.015194,0.095393,0.604264,0.188730,0.222576,0.006710,0.006094,-0.001252,-0.007879,-0.008851,-0.011081,0.891655,1.911598,0.390421,0.605035,0.155335,0.219129,4.834737,0.752460,1.641460,-0.083458,-0.334802,0.422685,0.007799,0.038382,0.089956,1532.000000,1592.000000,1532.000000,1598.000000,16.500000,0.000000,0.000000,0.000000,-1.500000,0.000000,
31.000000,35.510464,-0.560374,17.502366,-1.599645,0.027091,16.785383,0.512919,-0.167447,3628.281166,3596.034302,3625.232350,3599.922628,31.077142,0.250000,-9.608520,154.805350,31.574233,-0.530000,17.510000,-1.410000,-7.699580,171.151126,32.465987,-0.273001,17.530395,-1.498100,-0.375617,17.528497,-1.498100,16.494681,0.004212,0.099390,-0.291439,-0.507977,0.606713,0.050645,0.023132,0.101106,0.628101,0.198215,0.271629,0.006710,0.006094,-0.001252,-0.007879,-0.008851,-0.011081,0.892575,1.912476,0.395572,0.627279,0.167047,0.239877,5.136697,0.806473,1.668302,-0.083458,-0.334802,0.422685,0.007799,0.038382,0.089956,1532.000000,1592.000000,1532.000000,1598.000000,16.500000,0.000000,0.000000,0.000000,-1.500000,0.000000,
31.500000,36.340749,-0.553804,17.471627,-1.491675,0.024815,16.477847,0.544630,-0.162263,3613.573699,3583.729542,3607.710645,3587.162609,32.689944,0.250000,-9.741260,172.372227,25.519783,-0.290000,17.570000,-1.810000,-7.020557,179.924023,33.323036,-0.138270,17.515416,-1.497896,-0.239288,17.514328,-1.497896,16.541920,-0.001127,1.157470,0.060997,-0.544800,0.805645,0.118077,0.038730,-0.006266,0.842100,0.204124,0.176451,0.006225,-0.000095,-0.001418,-0.007859,-0.010142,-0.010908,0.766559,1.912515,0.400709,0.612268,0.154319,0.211428,5.250323,0.753410,1.662650,0.316058,-0.236699,-7.081187,0.216731,0.040245,-0.309599,1530.000000,1590.000000,1529.000000,1596.000000,16.500000,0.000000,0.000000,0.000000,-1.500000,0.000000,
32.000000,37.155388,-0.550283,17.457700,-1.488381,0.026620,16.434807,0.551355,-0.164867,3609.801971,3587.837622,3613.428155,3587.161215,32.689944,0.250000,-9.741260,172.372227,25.519783,-0.290000,17.570000,-1.810000,-7.085283,188.680692,34.073012,-0.121614,17.510769,-1.498106,-0.224328,17.509754,-1.498106,16.499438,0.003356,1.157470,0.063712,-0.547140,0.802603,0.131272,0.048291,-0.009870,0.904784,0.225799,0.172363,0.006225,-0.000095,-0.001418,-0.007859,-0.010142,-0.010908,0.767617,1.913387,0.405852,0.633274,0.165962,0.229341,5.555567,0.807010,1.689124,0.316058,-0.236699,-7.081187,0.216731,0.040245,-0.309599,1529.000000,1591.000000,1530.000000,1596.000000,16.500000,0.000000,0.000000,0.000000,-1.500000,0.000000,
32.500000,37.970141,-0.546035,17.447295,-1.490919,0.023220,16.454570,0.524543,-0.177492,3611.491498,3591.341291,3609.579136,3590.649310,34.137616,0.250000,-11.237191,190.546047,36.928264,-0.650000,17.460000,-1.480000,-8.333739,197.391007,34.842790,-0.266107,17.501932,-1.497800,-0.373887,17.499961,-1.497800,16.492696,0.009520,0.589365,0.037465,-0.514409,0.540900,0.061362,0.049836,-0.007058,0.669269,0.237670,0.148991,0.006972,0.000305,-0.001411,-0.007764,-0.008637,-0.011118,0.668695,1.913271,0.410974,0.604935,0.153537,0.202829,5.570819,0.750599,1.683245,-0.901833,0.087306,2.690264,-0.234966,-0.045802,0.021318,1530.000000,1591.000000,1530.000000,1596.000000,16.500000,0.000000,0.000000,0.000000,-1.500000,0.000000,
33.000000,38.783514,-0.540502,17.438253,-1.488260,0.027568,16.455656,0.520675,-0.182992,3584.806344,3615.680898,3582.828294,3614.485789,34.137616,0.250000,-11.237191,190.546047,36.928264,-0.650000,17.460000,-1.480000,-8.463491,206.141982,35.592830,-0.253741,17.501945,-1.498220,-0.364153,17.499996,-1.498220,16.495490,0.004164,0.589365,0.038990,-0.515647,0.537910,0.068193,0.059069,-0.010111,0.702018,0.264813,0.144678,0.006972,0.000305,-0.001411,-0.007764,-0.008637,-0.011118,0.669910,1.914126,0.416109,0.624267,0.165139,0.218109,5.871782,0.803693,1.709585,-0.901833,0.087306,2.690264,-0.234966,-0.045802,0.021318,1522.000000,1598.000000,1522.000000,1603.000000,16.500000,0.000000,0.000000,0.000000,-1.500000,0.000000,
33.500000,39.618106,-0.533472,17.456643,-1.551100,0.028795,16.636962,0.471126,-0.201127,3616.606306,3590.346436,3618.069765,3587.203556,35.820534,0.250000,-8.964960,204.112504,35.570848,-0.680000,17.420000,-1.310000,-9.326954,214.139514,36.218313,-0.329859,17.422960,-1.499742,-0.447152,17.420344,-1.499742,16.464412,0.012806,6.385650,-0.171815,-0.457723,0.274149,0.064408,-0.036698,0.051218,0.969746,-0.422191,0.286288,0.006660,0.003196,-0.001331,-0.006858,-0.007831,-0.011261,0.592727,1.913374,0.421229,0.588600,0.153169,0.194396,5.821483,0.749941,1.703241,2.125307,-3.832371,-0.186962,-0.210699,-0.078134,0.191173,1530.000000,1591.000000,1531.000000,1596.000000,16.500000,0.000000,0.000000,0.000000,-1.500000,0.000000,
34.000000,40.460350,-0.523630,17.465954,-1.551415,0.025921,16.664364,0.464300,-0.207367,3616.753755,3586.441078,3619.868528,3592.926424,35.820534,0.250000,-8.964960,204.112504,35.570848,-0.680000,17.420000,-1.310000,-9.488326,222.854450,36.968805,-0.316477,17.436787,-1.498655,-0.436671,17.434191,-1.498655,16.493794,0.004766,6.385650,-0.171296,-0.458532,0.271258,0.067836,-0.032038,0.052569,1.003182,-0.439450,0.312229,0.006660,0.003196,-0.001331,-0.006858,-0.007831,-0.011261,0.594093,1.914203,0.426358,0.606075,0.164737,0.207549,6.113484,0.802788,1.729560,2.125307,-3.832371,-0.186962,-0.210699,-0.078134,0.191173,1530.000000,1590.000000,1531.000000,1597.000000,16.500000,0.000000,0.000000,0.000000,-1.500000,0.000000,
34.500000,41.288126,-0.513326,17.460821,-1.514118,0.029057,16.587686,0.447798,-0.217119,3620.010157,3589.640536,3618.015257,3592.867901,37.216330,0.250000,-10.992750,224.907289,32.743146,-0.550000,17.430000,-1.630000,-10.112456,231.589897,37.747336,-0.357492,17.440342,-1.497008,-0.481529,17.437358,-1.497008,16.508639,0.007160,0.317037,-0.080385,-0.439845,0.154444,0.051192,-0.022816,0.016816,1.029265,-0.416942,0.297255,0.006729,0.001613,-0.001354,-0.006848,-0.007405,-0.011326,0.533090,1.912494,0.431472,0.565625,0.152650,0.186952,6.014069,0.750172,1.722644,0.328058,0.217995,-4.390685,-0.097325,-0.007306,-0.128447,1531.000000,1591.000000,1531.000000,1597.000000,16.500000,0.000000,0.000000,0.000000,-1.500000,0.000000,
35.000000,42.109342,-0.503067,17.462022,-1.513881,0.026434,16.574542,0.445777,-0.221979,3616.090149,3583.966032,3618.053507,3588.961577,37.216330,0.250000,-10.992750,224.907289,32.743146,-0.550000,17.430000,-1.630000,-10.287966,240.311792,38.497098,-0.345521,17.446682,-1.497793,-0.471969,17.443720,-1.497793,16.496261,0.004427,0.317037,-0.079022,-0.440463,0.151536,0.052857,-0.017667,0.015920,1.055675,-0.427147,0.305471,0.006729,0.001613,-0.001354,-0.006848,-0.007405,-0.011326,0.534598,1.913291,0.436594,0.581165,0.164186,0.198611,6.293677,0.802797,1.748927,0.328058,0.217995,-4.390685,-0.097325,-0.007306,-0.128447,1530.000000,1590.000000,1531.000000,1596.000000,16.500000,0.000000,0.000000,0.000000,-1.500000,0.000000,
35.500000,42.938974,-0.492053,17.471463,-1.540707,0.025155,16.601386,0.409517,-0.236724,3616.116504,3593.331016,3617.432223,3592.506626,39.089787,0.250000,-12.111788,242.347424,38.628506,-0.630000,17.570000,-1.400000,-11.521626,249.115165,39.176013,-0.452117,17.487869,-1.498247,-0.584452,17.483947,-1.498247,16.490708,0.010558,0.412561,-0.111159,-0.398342,-0.054943,-0.003057,0.015343,0.042242,0.899992,-0.321066,0.394007,0.006858,0.002565,-0.001336,-0.007245,-0.006494,-0.011463,0.485449,1.911738,0.441699,0.542281,0.152412,0.180134,6.192967,0.751034,1.741497,-0.330208,0.182858,-0.033560,-0.182555,0.123885,0.101079,1531.000000,1591.000000,1532.000000,1596.000000,16.500000,0.000000,0.000000,0.000000,-1.500000,0.000000,
36.000000,43.770846,-0.479597,17.474005,-1.540742,0.023534,16.604374,0.403464,-0.242464,3616.109189,3593.704933,3617.939176,3596.575310,39.089787,0.250000,-12.111788,242.347424,38.628506,-0.630000,17.570000,-1.400000,-11.744962,257.861584,39.926202,-0.442147,17.497332,-1.497890,-0.577168,17.493399,-1.497890,16.495169,0.003975,0.412561,-0.109905,-0.398632,-0.057708,-0.005573,0.022304,0.042584,0.898238,-0.311731,0.415267,0.006858,0.002565,-0.001336,-0.007245,-0.006494,-0.011463,0.487103,1.912505,0.446815,0.556054,0.163921,0.190508,6.459976,0.803520,1.767763,-0.330208,0.182858,-0.033560,-0.182555,0.123885,0.101079,1531.000000,1591.000000,1532.000000,1597.000000,16.500000,0.000000,0.000000,0.000000,-1.500000,0.000000,
36.500000,44.593074,-0.467522,17.468826,-1.518384,0.027080,16.573929,0.397727,-0.248793,3620.009204,3585.723368,3618.026788,3586.692098,40.418039,0.250000,-12.543655,259.484118,38.550831,-0.510000,17.450000,-1.590000,-12.111195,266.529299,40.717550,-0.449459,17.483784,-1.497492,-0.587338,17.479695,-1.497492,16.499830,0.004240,0.106758,-0.075218,-0.392624,-0.084718,-0.017715,0.014055,0.020702,0.857663,-0.374974,0.387464,0.006873,0.001789,-0.001344,-0.007046,-0.006373,-0.011496,0.446849,1.910646,0.451902,0.520390,0.152161,0.174099,6.377779,0.753747,1.759780,-0.108344,-0.272366,-1.540349,-0.027138,-0.048882,-0.088735,1531.000000,1590.000000,1531.000000,1596.000000,16.500000,0.000000,0.000000,0.000000,-1.500000,0.000000,
37.000000,45.410547,-0.456147,17.468614,-1.518093,0.029364,16.568809,0.397444,-0.252763,3620.008883,3585.765079,3618.069699,3587.203895,40.418039,0.250000,-12.543655,259.484118,38.550831,-0.510000,17.450000,-1.590000,-12.333585,275.272811,41.467381,-0.441099,17.489940,-1.497886,-0.581094,17.485848,-1.497886,16.495873,0.003699,0.106758,-0.073805,-0.392876,-0.087497,-0.020759,0.020437,0.020005,0.848461,-0.366420,0.397709,0.006873,0.001789,-0.001344,-0.007046,-0.006373,-0.011496,0.448635,1.911389,0.457011,0.532590,0.163642,0.183473,6.632962,0.806131,1.786009,-0.108344,-0.272366,-1.540349,-0.027138,-0.048882,-0.088735,1531.000000,1590.000000,1531.000000,1596.000000,16.500000,0.000000,0.000000,0.000000,-1.500000,0.000000,
37.500000,46.178045,-0.449650,17.421388,-1.377069,0.026114,16.383757,0.503809,-0.226491,3607.335808,3577.479893,3605.856524,3586.587835,42.272049,0.250000,-15.469153,277.149222,42.262082,0.040000,17.300000,-2.070000,-10.827890,283.958383,42.634076,-0.259187,17.416313,-1.496836,-0.389474,17.413887,-1.496836,16.526872,-0.015558,6.769676,0.140818,-0.517644,0.282361,0.043413,-0.008077,-0.119843,0.749416,-0.476133,-0.056376,0.007673,-0.002559,-0.001402,-0.006426,-0.007749,-0.011174,0.415025,1.909755,0.462091,0.499842,0.151717,0.168924,6.570561,0.756504,1.777480,-2.516716,-0.021497,0.629731,0.514976,-0.190870,-0.568971,1529.000000,1589.000000,1529.000000,1596.000000,16.500000,0.000000,0.000000,0.000000,-1.500000,0.000000,
38.000000,46.921917,-0.450505,17.406514,-1.370739,0.025910,16.355173,0.522390,-0.225307,3576.540202,3610.521283,3576.426142,3613.895065,42.272049,0.250000,-15.469153,277.149222,42.262082,0.040000,17.300000,-2.070000,-10.956476,292.664032,43.383683,-0.256284,17.405961,-1.497516,-0.386945,17.403546,-1.497516,16.498368,0.002379,6.769676,0.142317,-0.519110,0.279468,0.047229,-0.003523,-0.126898,0.772512,-0.479102,-0.117960,0.007673,-0.002559,-0.001402,-0.006426,-0.007749,-0.011174,0.416922,1.910480,0.467195,0.510619,0.163165,0.177552,6.814642,0.808702,1.803636,-2.516716,-0.021497,0.629731,0.514976,-0.190870,-0.568971,1521.000000,1597.000000,1521.000000,1603.000000,16.500000,0.000000,0.000000,0.000000,-1.500000,0.000000,
38.500000,47.635506,-0.452331,17.368568,-1.287964,0.026770,16.269486,0.546912,-0.223122,3571.943195,3604.745883,3573.907706,3607.987509,43.471348,0.250000,-14.005780,294.638046,43.008302,-0.300000,17.210000,-1.820000,-10.834826,301.279177,44.355560,-0.228351,17.339935,-1.495663,-0.357935,17.337744,-1.495663,16.509413,-0.000130,1.186582,0.238499,-0.545911,0.331517,0.061701,-0.031788,-0.207759,0.772566,-0.567589,-0.431557,0.007891,-0.004747,-0.001423,-0.005911,-0.007981,-0.011098,0.388593,1.909755,0.472272,0.480781,0.151387,0.164179,6.770861,0.755992,1.794622,-0.534186,0.162724,-0.540309,0.102308,-0.191591,-0.319120,1520.000000,1596.000000,1521.000000,1602.000000,16.500000,0.000000,0.000000,0.000000,-1.500000,0.000000,
39.000000,48.334902,-0.455916,17.350904,-1.279464,0.027769,16.256587,0.551885,-0.225940,3600.895552,3576.760776,3598.955378,3576.216503,43.471348,0.250000,-14.005780,294.638046,43.008302,-0.300000,17.210000,-1.820000,-10.948421,309.945388,45.104908,-0.226912,17.324793,-1.497354,-0.358085,17.322578,-1.497354,16.496739,0.003687,1.186582,0.239366,-0.547342,0.328612,0.066865,-0.029242,-0.217884,0.805154,-0.582908,-0.537841,0.007891,-0.004747,-0.001423,-0.005911,-0.007981,-0.011098,0.390635,1.910466,0.477371,0.490324,0.162821,0.172112,7.004590,0.807902,1.820713,-0.534186,0.162724,-0.540309,0.102308,-0.191591,-0.319120,1528.000000,1589.000000,1528.000000,1594.000000,16.500000,0.000000,0.000000,0.000000,-1.500000,0.000000,
39.500000,49.049349,-0.458667,17.352516,-1.323133,0.022547,16.321387,0.528635,-0.236393,3598.658652,3582.724707,3600.634164,3583.689281,44.508797,0.250000,-15.091466,312.068420,47.227471,-0.440000,17.340000,-1.260000,-11.708679,318.667038,45.706956,-0.287133,17.340202,-1.498910,-0.422727,17.337427,-1.498910,16.484788,0.008184,0.888832,0.163115,-0.519734,0.252631,0.031121,-0.015322,-0.175826,0.593359,-0.527853,-0.482661,0.007800,-0.003246,-0.001416,-0.006070,-0.007580,-0.011168,0.366428,1.909943,0.482436,0.463531,0.151377,0.159637,6.982729,0.755299,1.811223,-1.201076,0.333776,1.957648,-0.051773,0.020671,0.240568,1528.000000,1589.000000,1529.000000,1595.000000,16.500000,0.000000,0.000000,0.000000,-1.500000,0.000000,
40.000000,49.766919,-0.459371,17.343867,-1.314272,0.027252,16.330010,0.525633,-0.241541,3571.943201,3604.749357,3573.920826,3607.471973,44.508797,0.250000,-15.091466,312.068420,47.227471,-0.440000,17.340000,-1.260000,-11.851424,327.335777,46.457370,-0.284610,17.334643,-1.498111,-0.422613,17.331828,-1.498111,16.494483,0.004164,0.888832,0.163682,-0.520553,0.249786,0.034402,-0.012190,-0.183828,0.610190,-0.534796,-0.572431,0.007800,-0.003246,-0.001416,-0.006070,-0.007580,-0.011168,0.368603,1.910645,0.487530,0.472029,0.162803,0.166911,7.207022,0.807008,1.837275,-1.201076,0.333776,1.957648,-0.051773,0.020671,0.240568,1520.000000,1596.000000,1521.000000,1602.000000,16.500000,0.000000,0.000000,0.000000,-1.500000,0.000000,
40.500000,50.494346,-0.459830,17.350079,-1.345462,0.026247,16.386455,0.518066,-0.247504,3607.132299,3583.142575,3606.988866,3580.189110,45.957678,0.250000,-13.738890,329.577329,57.790594,-0.450000,17.330000,-1.300000,-11.801974,336.082252,47.220495,-0.264120,17.353492,-1.499059,-0.405221,17.350771,-1.499059,16.486531,0.005583,1.122102,0.099682,-0.511690,0.256992,0.051868,0.000664,-0.153734,0.754207,-0.465568,-0.665480,0.007550,-0.001998,-0.001434,-0.006189,-0.007648,-0.011166,0.347632,1.909526,0.492583,0.448823,0.151357,0.155462,7.218342,0.756062,1.827280,0.809211,0.441787,11.168220,-0.026036,-0.001497,0.201707,1529.000000,1590.000000,1529.000000,1595.000000,16.500000,0.000000,0.000000,0.000000,-1.500000,0.000000,
41.000000,51.223415,-0.459460,17.348570,-1.338519,0.025507,16.394713,0.517534,-0.252172,3603.226701,3577.483084,3605.235491,3580.709446,45.957678,0.250000,-13.738890,329.577329,57.790594,-0.450000,17.330000,-1.300000,-11.932778,344.759521,47.970863,-0.259929,17.355529,-1.498593,-0.403322,17.352788,-1.498593,16.495713,0.004117,1.122102,0.100237,-0.512561,0.254162,0.055676,0.004229,-0.160094,0.781562,-0.464408,-0.743776,0.007550,-0.001998,-0.001434,-0.006189,-0.007648,-0.011166,0.349919,1.910217,0.497672,0.456433,0.162772,0.162184,7.434543,0.807618,1.853288,0.809211,0.441787,11.168220,-0.026036,-0.001497,0.201707,1528.000000,1589.000000,1529.000000,1595.000000,16.500000,0.000000,0.000000,0.000000,-1.500000,0.000000,
41.500000,51.958660,-0.458377,17.356228,-1.358632,0.025728,16.425999,0.498919,-0.261378,3607.145762,3579.282762,3605.236511,3580.709445,47.353411,0.250000,-14.447649,347.848188,48.101623,-0.480000,17.260000,-1.370000,-12.207370,353.600172,48.621120,-0.270236,17.377687,-1.499024,-0.417849,17.374764,-1.499024,16.490373,0.007646,0.840064,0.063795,-0.490517,0.223425,0.052201,0.018877,-0.140435,0.827654,-0.296320,-0.715947,0.007298,-0.001342,-0.001433,-0.006204,-0.007511,-0.011210,0.331605,1.908655,0.502712,0.436375,0.151289,0.151642,7.476183,0.756725,1.842801,0.386939,1.290587,-0.034269,-0.077533,-0.093888,0.131718,1529.000000,1589.000000,1529.000000,1595.000000,16.500000,0.000000,0.000000,0.000000,-1.500000,0.000000,
