Time ,gndAlt,velLL X  ,velLL Y  ,velLL Z  ,r,Roll ,Pitch,Yaw  ,gps_velN,gps_velE,Baro Altitude,Baro Altitude RMS,Nav Alt,Nav velLL X,Nav velLL Y,Nav velLL Z,Baro Update Count,GPS Update Count,Baro Chi2,GPS Chi2,GPS2D Chi2,Ground Align Chi2,Roll Error,Pitch Error,Yaw Error,Vel N Error,Vel E Error,Vel D Error,velLL X Error,velLL Y Error,N Error (m),E Error (m),Alt Error (m),Acc Bias X Error,Acc Bias Y Error,Acc Bias Z Error,Gyro Bias X Error,Gyro Bias Y Error,Gyro Bias Z Error,Roll Stdev,Pitch Stdev,Yaw Stdev,VN Stdev,VE Stdev,VD Stdev,N Stdev,E Stdev,Alt Stdev,GPSResidual[GPS_N],GPSResidual[GPS_E],GPSResidual[GPS_ALT],GPSResidual[GPS_VN],GPSResidual[GPS_VE],GPSResidual[GPS_VD],
0.500000,0.101886,-0.001489,0.009473,0.002397,-0.010555,14.027753,2.250979,81.065854,-0.002176,-0.056833,0.000000,0.250000,0.000000,0.000000,0.000000,0.000000,0.000000,0.000000,0.000000,0.000000,0.000000,0.000000,0.000000,0.000000,0.000000,0.000000,0.000000,0.000000,0.000000,0.000000,0.000000,0.000000,0.000000,0.000000,0.000000,0.000000,0.000000,0.000000,0.000000,0.000000,0.000000,0.000000,0.000000,0.000000,0.000000,0.000000,0.000000,0.000000,0.000000,0.000000,0.000000,0.000000,0.000000,0.000000,
1.000000,0.101886,-0.001422,0.009057,0.002292,0.047650,14.028408,2.248111,81.077484,-0.352633,-0.020735,0.000000,0.250000,0.000000,0.000000,0.000000,0.000000,0.000000,0.000000,0.000000,0.000000,0.000000,0.000000,0.000000,0.000000,0.000000,0.000000,0.000000,0.000000,0.000000,0.000000,0.000000,0.000000,0.000000,0.000000,0.000000,0.000000,0.000000,0.000000,0.000000,0.000000,0.000000,0.000000,0.000000,0.000000,0.000000,0.000000,0.000000,0.000000,0.000000,0.000000,0.000000,0.000000,0.000000,0.000000,
1.500000,0.101886,-0.001430,0.009121,0.002308,0.053929,14.029014,2.244386,81.092417,0.276312,0.005055,0.000000,0.250000,0.000000,0.000000,0.000000,0.000000,0.000000,0.000000,0.000000,0.000000,0.000000,0.000000,0.000000,0.000000,0.000000,0.000000,0.000000,0.000000,0.001430,-0.009121,0.000000,0.000000,-0.000000,0.000000,0.000000,0.000000,0.000000,0.000000,0.000000,8.554585,2.726392,0.000000,0.000000,0.000000,0.000000,0.000000,0.000000,0.000000,0.000000,0.000000,0.000000,0.000000,0.000000,0.000000,
2.000000,0.101929,-0.001403,0.008965,0.002268,0.006621,14.029256,2.241677,81.103140,0.086194,-0.052892,0.000000,0.250000,0.000021,0.002053,-0.008820,0.001263,0.000000,0.000000,0.000000,0.000000,0.000000,0.000000,-3.615658,-0.539215,-81.106686,0.011433,-0.008820,-0.001081,0.003457,-0.017785,0.019149,-0.001738,-0.002764,0.008556,0.061474,-0.013431,-0.008397,-0.009618,-0.039084,8.554631,2.726544,0.028770,0.212318,0.651904,0.121421,0.032977,0.101088,0.018858,0.000000,0.000000,0.000000,0.000000,0.000000,0.000000,
2.500000,0.101928,-0.001491,0.009534,0.002412,0.000375,14.029648,2.239196,81.113080,-0.010251,-0.000144,0.013152,0.250000,-0.000356,-0.002282,0.016148,0.003648,1.000000,0.000000,0.002699,0.000000,0.000000,0.020650,-3.481506,-0.519541,-81.119070,0.006864,0.016148,0.001362,-0.000791,0.006614,0.023315,0.002379,-0.003569,0.008847,0.061672,-0.013836,-0.008397,-0.009589,-0.038926,4.920218,1.957710,0.035713,0.091591,0.092723,0.082010,0.034808,0.035222,0.032501,0.000000,0.000000,0.000000,0.000000,0.000000,0.000000,
3.000000,0.101928,-0.001454,0.009307,0.002355,-0.014378,14.030025,2.236595,81.123483,0.087560,0.010897,0.013152,0.250000,-0.002217,-0.004008,0.029071,0.006307,1.000000,0.000000,0.002699,0.000000,0.000000,0.020650,-3.480169,-0.518647,-81.135773,0.005284,0.029072,0.003986,-0.002554,0.019765,0.026991,0.011505,-0.002888,0.008847,0.061672,-0.013836,-0.008397,-0.009589,-0.038926,4.920358,1.958050,0.051243,0.151214,0.153179,0.133203,0.094174,0.095372,0.085669,0.000000,0.000000,0.000000,0.000000,0.000000,0.000000,
3.500000,0.101928,-0.001472,0.009440,0.002389,0.014404,14.030451,2.233935,81.134142,0.608903,-0.555146,-0.205166,0.250000,-0.001570,0.000025,-0.001022,0.003427,2.000000,0.000000,0.676317,0.000000,0.000000,0.109896,-3.558065,-0.526251,-81.138400,0.009063,-0.001022,0.001167,0.001498,-0.010462,0.034240,-0.006579,-0.004716,0.008706,0.060919,-0.013952,-0.008383,-0.009498,-0.038425,4.801099,1.930868,0.036067,0.054283,0.054331,0.047500,0.042443,0.042471,0.040480,0.000000,0.000000,0.000000,0.000000,0.000000,0.000000,
4.000000,0.101928,-0.001493,0.009583,0.002425,0.040425,14.030891,2.231341,81.144548,0.056042,-0.200644,-0.205166,0.250000,-0.003364,-0.000795,0.003557,0.005186,2.000000,0.000000,0.676317,0.000000,0.000000,0.109896,-3.557047,-0.525213,-81.154917,0.008835,0.003558,0.002779,0.000699,-0.006026,0.039071,-0.006702,-0.004103,0.008706,0.060919,-0.013952,-0.008383,-0.009498,-0.038425,4.801250,1.931233,0.051473,0.075885,0.075965,0.063148,0.070877,0.070940,0.066461,0.000000,0.000000,0.000000,0.000000,0.000000,0.000000,
4.500000,0.101928,-0.001456,0.009359,0.002368,0.018000,14.031258,2.228817,81.154642,0.048075,0.025217,-0.186197,0.250000,-0.005731,-0.000306,0.000354,0.004488,3.000000,0.000000,0.543049,0.000000,0.000000,0.022186,-3.560568,-0.524813,-81.165622,0.009100,0.000354,0.002137,0.001151,-0.009006,0.043852,-0.006331,-0.002916,0.008707,0.060977,-0.014003,-0.008379,-0.009458,-0.038205,4.790373,1.929222,0.042354,0.047222,0.047235,0.039014,0.051700,0.051707,0.048728,0.000000,0.000000,0.000000,0.000000,0.000000,0.000000,
5.000000,0.101928,-0.001478,0.009511,0.002406,0.039331,14.031752,2.226171,81.165294,0.241990,-0.108132,-0.186197,0.250000,-0.008219,-0.001275,0.005532,0.006120,3.000000,0.000000,0.543049,0.000000,0.000000,0.022186,-3.559500,-0.523703,-81.181929,0.008274,0.005532,0.003733,0.000204,-0.003980,0.048327,-0.004565,-0.001610,0.008707,0.060977,-0.014003,-0.008379,-0.009458,-0.038205,4.790531,1.929609,0.056192,0.063434,0.063454,0.049087,0.072496,0.072514,0.067755,0.000000,0.000000,0.000000,0.000000,0.000000,0.000000,
5.500000,0.101928,-0.001443,0.009293,0.002351,0.012105,14.032114,2.223682,81.175244,-0.306562,-0.317150,-0.180762,0.250000,-0.011397,-0.001000,0.003348,0.005408,4.000000,0.000000,0.486749,0.000000,0.000000,0.062177,-3.566582,-0.523680,-81.186651,0.008690,0.003348,0.002986,0.000443,-0.005945,0.053284,-0.005056,0.000387,0.008703,0.061027,-0.014057,-0.008352,-0.009391,-0.037810,4.787559,1.928993,0.041732,0.044599,0.044604,0.035149,0.059048,0.059051,0.055090,0.000000,0.000000,0.000000,0.000000,0.000000,0.000000,
6.000000,0.101929,-0.001463,0.009436,0.002387,0.028539,14.032491,2.221072,81.185677,-0.052547,-0.042253,-0.180762,0.250000,-0.014310,-0.001625,0.005211,0.006230,4.000000,0.000000,0.486749,0.000000,0.000000,0.062177,-3.565130,-0.522647,-81.202916,0.007412,0.005211,0.003971,-0.000162,-0.004225,0.057339,-0.001699,0.002119,0.008703,0.061027,-0.014057,-0.008352,-0.009391,-0.037810,4.787723,1.929398,0.055682,0.058977,0.058984,0.043236,0.075921,0.075928,0.070434,0.000000,0.000000,0.000000,0.000000,0.000000,0.000000,
6.500000,0.101928,-0.001485,0.009585,0.002425,0.042420,14.032886,2.218500,81.195970,0.205999,-0.000268,-0.284558,0.250000,-0.024586,-0.002226,0.010512,0.008539,5.000000,0.000000,1.156883,0.000000,0.000000,0.024038,-3.574934,-0.523505,-81.215766,0.007407,0.010513,0.006132,-0.000742,0.000927,0.062415,-0.001649,0.011215,0.008705,0.061100,-0.014071,-0.008297,-0.009388,-0.037710,4.786590,1.929087,0.050050,0.043431,0.043433,0.033100,0.064523,0.064524,0.059729,0.000000,0.000000,0.000000,0.000000,0.000000,0.000000,
7.000000,0.101928,-0.001449,0.009369,0.002370,0.007544,14.033208,2.215948,81.206140,-0.070553,0.230811,-0.284558,0.250000,-0.028957,-0.003266,0.014650,0.009831,5.000000,0.000000,1.156883,0.000000,0.000000,0.024038,-3.573759,-0.522552,-81.232045,0.006154,0.014652,0.007478,-0.001817,0.005282,0.065944,0.004667,0.014404,0.008705,0.061100,-0.014071,-0.008297,-0.009388,-0.037710,4.786760,1.929508,0.062343,0.056992,0.056993,0.040215,0.079100,0.079103,0.072763,0.000000,0.000000,0.000000,0.000000,0.000000,0.000000,
7.500000,0.101928,-0.001473,0.009530,0.002411,0.016517,14.033686,2.213300,81.216790,-0.329754,-0.287673,0.154597,0.250000,-0.011782,-0.001603,0.005750,0.001874,6.000000,0.000000,0.464378,0.000000,0.000000,0.120586,-3.584711,-0.522686,-81.238623,0.007538,0.005750,-0.000411,-0.000131,-0.003781,0.072421,-0.003936,-0.003951,0.008664,0.061070,-0.014225,-0.008101,-0.009375,-0.037409,4.786380,1.929319,0.047236,0.042863,0.042863,0.031914,0.068420,0.068421,0.062928,0.000000,0.000000,0.000000,0.000000,0.000000,0.000000,
8.000000,0.101929,-0.001438,0.009319,0.002357,-0.023450,14.034057,2.210659,81.227338,0.132766,-0.030397,0.154597,0.250000,-0.012217,-0.002484,0.008874,0.002373,6.000000,0.000000,0.464378,0.000000,0.000000,0.120586,-3.583520,-0.521624,-81.254485,0.006815,0.008875,0.000049,-0.001046,-0.000445,0.076651,-0.002480,-0.004698,0.008664,0.061070,-0.014225,-0.008101,-0.009375,-0.037409,4.786557,1.929756,0.060006,0.056018,0.056016,0.038460,0.081609,0.081611,0.074447,0.000000,0.000000,0.000000,0.000000,0.000000,0.000000,
8.500000,0.101928,-0.001396,0.009054,0.002290,0.020746,14.034470,2.208149,81.237397,-0.003925,-0.003721,-0.197893,0.250000,-0.024276,-0.001477,0.004447,0.004364,7.000000,0.000000,0.516927,0.000000,0.000000,0.038729,-3.603973,-0.522298,-81.269814,0.007982,0.004448,0.002000,-0.000081,-0.004608,0.082447,-0.006974,0.006181,0.008654,0.061301,-0.014244,-0.007947,-0.009411,-0.037386,4.786056,1.929511,0.056678,0.042573,0.042572,0.031167,0.071104,0.071105,0.065016,0.000000,0.000000,0.000000,0.000000,0.000000,0.000000,
9.000000,0.101929,-0.001421,0.009230,0.002335,0.022148,14.034941,2.205588,81.247702,0.448928,0.326213,-0.197893,0.250000,-0.025837,-0.002052,0.005423,0.004704,7.000000,0.000000,0.516927,0.000000,0.000000,0.038729,-3.602849,-0.521252,-81.285840,0.007583,0.005424,0.002296,-0.000631,-0.003807,0.086877,-0.007098,0.006561,0.008654,0.061301,-0.014244,-0.007947,-0.009411,-0.037386,4.786237,1.929959,0.067894,0.055519,0.055515,0.037336,0.083446,0.083448,0.075525,0.000000,0.000000,0.000000,0.000000,0.000000,0.000000,
9.500000,0.101929,-0.001445,0.009399,0.002378,0.021160,14.035354,2.203061,81.257836,0.138921,0.123849,0.009415,0.250000,-0.021337,-0.000924,0.000163,0.001632,8.000000,0.000000,0.015558,0.000000,0.000000,0.032516,-3.610846,-0.521528,-81.295741,0.008503,0.000163,-0.000724,0.000522,-0.009237,0.092505,-0.009932,0.000880,0.008641,0.061367,-0.014297,-0.007828,-0.009414,-0.037196,4.785608,1.929681,0.053594,0.042425,0.042422,0.030655,0.072912,0.072913,0.066310,0.000000,0.000000,0.000000,0.000000,0.000000,0.000000,
10.000000,0.101929,-0.001468,0.009560,0.002418,0.017707,14.035618,2.200383,81.268461,0.118479,0.218915,0.009415,0.250000,-0.022297,-0.001749,0.002498,0.002049,8.000000,0.000000,0.015558,0.000000,0.000000,0.032516,-3.610140,-0.520551,-81.311640,0.007419,0.002500,-0.000242,-0.000281,-0.007062,0.096530,-0.007846,0.000659,0.008641,0.061367,-0.014297,-0.007828,-0.009414,-0.037196,4.785794,1.930139,0.065235,0.055264,0.055258,0.036557,0.084738,0.084738,0.076140,0.000000,0.000000,0.000000,0.000000,0.000000,0.000000,
10.500000,0.806181,-0.100572,0.798394,-1.414354,0.049295,-4.457456,-0.574239,80.910942,-0.801903,0.033446,0.128520,0.250000,0.621607,-0.088365,0.715357,-1.510844,9.000000,0.000000,0.248952,0.000000,0.000000,0.007718,-3.631984,-0.540246,-81.150308,0.724925,0.688753,-0.094665,0.012207,-0.083037,0.389435,0.268563,-0.035273,0.008631,0.061400,-0.014332,-0.007772,-0.009434,-0.037120,4.784284,1.929549,0.239745,0.067163,0.119615,0.123247,0.077166,0.089764,0.073666,0.000000,0.000000,0.000000,0.000000,0.000000,0.000000,
11.000000,1.563416,-0.048565,0.343714,-1.330435,0.045562,-3.887268,-0.415157,80.907335,-0.365061,0.033468,0.128520,0.250000,1.375332,-0.034043,0.245654,-1.502398,9.000000,0.000000,0.248952,0.000000,0.000000,0.007718,-3.593125,-0.542226,-81.174655,0.320360,0.239131,-0.170856,0.014522,-0.098061,0.648215,0.497121,-0.101893,0.008631,0.061400,-0.014332,-0.007772,-0.009434,-0.037120,4.784287,1.929988,0.232091,0.076425,0.100202,0.228399,0.098005,0.131371,0.139063,0.000000,0.000000,0.000000,0.000000,0.000000,0.000000,
11.500000,2.288197,-0.028565,0.098896,-1.404044,0.051133,-1.873921,-0.082183,80.900758,-0.290564,-0.018692,1.229231,0.250000,2.043378,-0.015494,0.009770,-1.502534,10.000000,0.000000,0.905345,0.000000,0.000000,0.007718,-1.491539,-0.504807,-81.296270,0.089740,0.022112,-0.098029,0.013071,-0.089127,0.743756,0.607913,-0.072395,0.008032,0.022648,-0.007122,-0.007793,-0.009451,-0.037090,4.241068,1.929856,0.189162,0.088793,0.091069,0.280942,0.128953,0.161592,0.227460,0.000000,0.000000,0.000000,0.000000,0.000000,0.000000,
12.000000,2.988784,-0.027081,0.036574,-1.367346,0.051309,0.126889,0.023197,80.909383,-0.043947,-0.020510,1.229231,0.250000,2.794853,-0.012151,-0.074128,-1.499618,10.000000,0.000000,0.905345,0.000000,0.000000,0.007718,-1.495701,-0.509313,-81.314925,0.027604,-0.053084,-0.131892,0.014931,-0.110702,0.766303,0.593245,-0.130081,0.008032,0.022648,-0.007122,-0.007793,-0.009451,-0.037090,4.241221,1.930331,0.186178,0.099066,0.090334,0.359962,0.167687,0.198126,0.382742,0.000000,0.000000,0.000000,0.000000,0.000000,0.000000,
12.500000,3.647000,-0.030247,0.092178,-1.261521,0.046563,0.896744,0.049980,80.920637,0.113900,-0.450527,3.019727,0.250000,3.613016,-0.011384,-0.036607,-1.497110,11.000000,0.000000,0.034334,0.000000,0.000000,0.007718,-2.148404,-0.527302,-81.306860,0.082816,-0.021061,-0.235012,0.018863,-0.128785,0.793610,0.548088,-0.296806,0.008234,0.034599,-0.009335,-0.007790,-0.009446,-0.037099,2.387457,1.929134,0.132928,0.107921,0.095299,0.238870,0.211551,0.192481,0.300451,0.000000,0.000000,0.000000,0.000000,0.000000,0.000000,
13.000000,4.282754,-0.032972,0.144602,-1.215010,0.044796,0.343147,0.023386,80.930570,0.051558,-0.278018,3.019727,0.250000,4.362907,-0.011791,0.004149,-1.497572,11.000000,0.000000,0.034334,0.000000,0.000000,0.007718,-2.145240,-0.529620,-81.321885,0.135701,0.014052,-0.281929,0.021181,-0.140453,0.850444,0.547935,-0.426290,0.008234,0.034599,-0.009335,-0.007790,-0.009446,-0.037099,2.387879,1.929631,0.139437,0.119239,0.107834,0.284848,0.261611,0.232075,0.428058,0.000000,0.000000,0.000000,0.000000,0.000000,0.000000,
13.500000,4.999063,-0.028548,0.101027,-1.448188,0.048420,-1.002879,-0.093720,80.941346,-0.060458,0.007532,3.998251,0.250000,4.724028,-0.012862,-0.063593,-1.504919,12.000000,0.000000,0.930428,0.000000,0.000000,0.007718,-0.236752,-0.481327,-81.410604,0.092447,-0.051296,-0.056666,0.015686,-0.164621,0.897159,0.613710,-0.090521,0.007539,-0.000410,-0.002879,-0.007794,-0.009463,-0.037072,1.346208,1.929447,0.124556,0.134642,0.121344,0.166016,0.318819,0.269736,0.279948,0.000000,0.000000,0.000000,0.000000,0.000000,0.000000,
14.000000,5.728977,-0.023513,0.059751,-1.431305,0.046663,0.076652,-0.010664,80.950995,0.120286,0.311266,3.998251,0.250000,5.476204,-0.005719,-0.128978,-1.499860,12.000000,0.000000,0.930428,0.000000,0.000000,0.007718,-0.236190,-0.484822,-81.426731,0.055880,-0.115068,-0.068551,0.017795,-0.188730,0.930658,0.568146,-0.122055,0.007539,-0.000410,-0.002879,-0.007794,-0.009463,-0.037072,1.346970,1.929957,0.130183,0.146552,0.134824,0.186865,0.382939,0.326111,0.364837,0.000000,0.000000,0.000000,0.000000,0.000000,0.000000,
14.500000,6.510124,-0.020710,0.063911,-1.578621,0.049028,0.005646,-0.042408,80.960840,-0.048076,0.004888,5.185844,0.250000,5.926145,-0.005806,-0.155494,-1.502854,13.000000,0.000000,0.870839,0.000000,0.000000,0.007718,0.674079,-0.454581,-81.478648,0.059198,-0.144954,0.075573,0.014904,-0.219405,0.946426,0.533304,0.199508,0.007057,-0.017155,0.000193,-0.007792,-0.009472,-0.037059,0.930258,1.930162,0.131084,0.161149,0.148693,0.121109,0.453762,0.388611,0.253047,0.000000,0.000000,0.000000,0.000000,0.000000,0.000000,
15.000000,7.308878,-0.018961,0.083898,-1.577312,0.047718,0.450006,0.010325,80.971707,-0.171433,0.313626,5.185844,0.250000,6.677696,-0.001964,-0.162210,-1.499222,13.000000,0.000000,0.870839,0.000000,0.000000,0.007718,0.673666,-0.457764,-81.494131,0.081753,-0.156527,0.077841,0.016997,-0.246108,0.980391,0.456129,0.237623,0.007057,-0.017155,0.000193,-0.007792,-0.009472,-0.037059,0.931413,1.930705,0.137240,0.173975,0.162802,0.133153,0.531277,0.459865,0.312907,0.000000,0.000000,0.000000,0.000000,0.000000,0.000000,
15.500000,8.067423,-0.024582,0.145115,-1.452055,0.050529,0.883317,0.109092,80.983772,-0.114067,0.069368,7.286720,0.250000,7.731476,-0.000385,-0.115978,-1.498344,14.000000,0.000000,1.339294,0.000000,0.000000,0.007718,0.038322,-0.503470,-81.485253,0.144435,-0.114380,-0.046309,0.024197,-0.261092,1.052881,0.373088,-0.070546,0.007737,-0.005479,-0.001941,-0.007798,-0.009466,-0.037068,0.754487,1.930916,0.141612,0.185683,0.176763,0.096577,0.614079,0.538071,0.232059,0.000000,0.000000,0.000000,0.000000,0.000000,0.000000,
16.000000,8.814632,-0.031372,0.204527,-1.444018,0.047156,0.522224,0.054363,80.993624,-0.207903,0.295193,7.286720,0.250000,8.481637,-0.004541,-0.078221,-1.498167,14.000000,0.000000,1.339294,0.000000,0.000000,0.007718,0.041531,-0.505270,-81.501282,0.200894,-0.079163,-0.054093,0.026831,-0.282748,1.140632,0.325856,-0.095908,0.007737,-0.005479,-0.001941,-0.007798,-0.009466,-0.037068,0.756013,1.931474,0.147926,0.199655,0.191621,0.105938,0.703336,0.623693,0.278413,0.000000,0.000000,0.000000,0.000000,0.000000,0.000000,
16.500000,9.592443,-0.030944,0.232448,-1.513688,0.049411,0.232919,-0.033873,81.003172,-0.411323,0.139693,8.256691,0.250000,9.025327,-0.004863,-0.081101,-1.499895,15.000000,0.000000,0.893028,0.000000,0.000000,0.007718,0.374644,-0.462797,-81.530224,0.228511,-0.086728,0.013635,0.026081,-0.313549,1.233041,0.284515,0.109682,0.007002,-0.011536,-0.000833,-0.007795,-0.009468,-0.037064,0.672888,1.931481,0.153568,0.214957,0.206848,0.082949,0.799706,0.716857,0.216933,0.000000,0.000000,0.000000,0.000000,0.000000,0.000000,
17.000000,10.379644,-0.029719,0.256036,-1.509667,0.048156,0.367572,0.019589,81.013967,-0.201841,-0.122407,8.256691,0.250000,9.775986,-0.000605,-0.081481,-1.498275,15.000000,0.000000,0.893028,0.000000,0.000000,0.007718,0.374691,-0.465788,-81.545889,0.255663,-0.092044,0.011175,0.029114,-0.337517,1.353969,0.238998,0.115645,0.007002,-0.011536,-0.000833,-0.007795,-0.009468,-0.037064,0.674639,1.932069,0.159434,0.229832,0.222476,0.090297,0.903471,0.817661,0.255401,0.000000,0.000000,0.000000,0.000000,0.000000,0.000000,
17.500000,11.178537,-0.030819,0.287333,-1.532920,0.049908,0.393571,0.016110,81.024093,-0.008624,0.244912,9.764839,0.250000,10.448988,-0.000012,-0.077385,-1.498677,16.000000,0.000000,0.162356,0.000000,0.000000,0.007718,0.473073,-0.445113,-81.565604,0.287327,-0.091695,0.034044,0.030807,-0.364718,1.481630,0.189400,0.207194,0.006608,-0.013332,-0.000502,-0.007796,-0.009469,-0.037062,0.631716,1.931809,0.165036,0.245445,0.238428,0.074515,1.014445,0.926227,0.205771,0.000000,0.000000,0.000000,0.000000,0.000000,0.000000,
18.000000,11.983478,-0.032883,0.319870,-1.531130,0.048332,0.412524,0.042820,81.035077,-0.321400,0.017351,9.764839,0.250000,11.199298,0.001306,-0.068851,-1.497717,16.000000,0.000000,0.162356,0.000000,0.000000,0.007718,0.474347,-0.447953,-81.581538,0.321152,-0.086186,0.033167,0.034189,-0.388721,1.633990,0.144580,0.223751,0.006608,-0.013332,-0.000502,-0.007796,-0.009469,-0.037062,0.633661,1.932421,0.170787,0.261263,0.254864,0.080779,1.133203,1.042804,0.239254,0.000000,0.000000,0.000000,0.000000,0.000000,0.000000,
18.500000,12.770499,-0.041043,0.354592,-1.473679,0.049146,0.444828,0.138599,81.046488,-0.618869,0.696826,11.700239,0.250000,12.130321,0.000780,-0.049479,-1.496564,17.000000,0.000000,1.090244,0.000000,0.000000,0.007718,0.288777,-0.522569,-81.589889,0.356315,-0.064228,-0.023020,0.041824,-0.404071,1.829630,0.121012,0.037965,0.007834,-0.009893,-0.001145,-0.007791,-0.009468,-0.037065,0.610005,1.931843,0.176241,0.276957,0.271418,0.069249,1.259141,1.167368,0.197464,0.000000,0.000000,0.000000,0.000000,0.000000,0.000000,
19.000000,13.554007,-0.049665,0.387074,-1.470221,0.050701,0.375756,0.073078,81.056052,-0.167432,-0.093668,11.700239,0.250000,12.879896,-0.004106,-0.039623,-1.497117,17.000000,0.000000,1.090244,0.000000,0.000000,0.007718,0.291403,-0.524203,-81.605970,0.385070,-0.050719,-0.027075,0.045559,-0.426697,2.015254,0.092542,0.025179,0.007834,-0.009893,-0.001145,-0.007791,-0.009468,-0.037065,0.612137,1.932467,0.181966,0.293739,0.288685,0.074949,1.393249,1.300344,0.227761,0.000000,0.000000,0.000000,0.000000,0.000000,0.000000,
19.500000,14.338529,-0.053989,0.414928,-1.463649,0.045644,0.348961,0.051015,81.066473,-0.488037,0.213608,13.034951,0.250000,13.639184,-0.004237,-0.033855,-1.497341,18.000000,0.000000,0.003470,0.000000,0.000000,0.007718,0.285423,-0.530992,-81.621900,0.413234,-0.044902,-0.033738,0.049752,-0.448782,2.216845,0.069699,-0.000080,0.007914,-0.009743,-0.001174,-0.007791,-0.009469,-0.037065,0.598646,1.931517,0.187495,0.310919,0.306260,0.065898,1.535294,1.441726,0.191344,0.000000,0.000000,0.000000,0.000000,0.000000,0.000000,
20.000000,15.124243,-0.057637,0.441421,-1.460021,0.051705,0.342972,0.051177,81.076411,-0.468851,0.693481,13.034951,0.250000,14.389115,-0.003655,-0.029770,-1.497723,18.000000,0.000000,0.003470,0.000000,0.000000,0.007718,0.287107,-0.533538,-81.637641,0.440606,-0.041257,-0.037850,0.053982,-0.471192,2.430551,0.047972,-0.018229,0.007914,-0.009743,-0.001174,-0.007791,-0.009469,-0.037065,0.600878,1.932170,0.193015,0.328610,0.324363,0.071133,1.686128,1.591980,0.219545,0.000000,0.000000,0.000000,0.000000,0.000000,0.000000,
20.500000,15.944636,-0.084362,1.136554,-1.469616,0.052241,14.323819,0.457087,81.122183,-1.286438,0.226249,14.332999,0.250000,15.051418,-0.027730,0.608131,-1.491617,19.000000,0.000000,0.322363,0.000000,0.000000,0.007718,0.361184,-0.485807,-81.653530,1.092586,0.518966,-0.022283,0.056633,-0.528423,2.734889,0.101283,0.055840,0.007055,-0.010892,-0.000947,-0.007797,-0.009467,-0.037064,0.592291,1.931105,0.198014,0.346838,0.342843,0.063508,1.845415,1.751050,0.186802,0.000000,0.000000,0.000000,0.000000,0.000000,0.000000,
21.000000,16.902424,-0.123530,2.480592,-1.462496,0.052346,16.016613,0.486731,81.141209,-2.451859,0.264212,14.332999,0.250000,15.798770,-0.062883,1.927948,-1.493769,19.000000,0.000000,0.322363,0.000000,0.000000,0.007718,0.348948,-0.484798,-81.669459,2.400983,1.671519,-0.031313,0.060647,-0.552645,3.603527,0.644291,0.042123,0.007055,-0.010892,-0.000947,-0.007797,-0.009467,-0.037064,0.594433,1.931835,0.203313,0.365451,0.361781,0.068602,2.014007,1.919457,0.213470,0.000000,0.000000,0.000000,0.000000,0.000000,0.000000,
21.500000,18.016424,-0.163476,3.843676,-1.430250,0.056314,16.190133,0.537849,81.166861,-3.552119,0.398546,16.145171,0.250000,16.639693,-0.096690,3.272485,-1.495524,20.000000,0.000000,0.406797,0.000000,0.000000,0.007718,0.288816,-0.542394,-0.596575,0.555505,0.015040,-0.065289,0.066786,-0.571190,3.267478,-0.136793,-0.077896,0.008078,-0.009839,-0.001162,-0.007747,-0.009471,-0.037065,0.589293,1.930405,0.208533,0.384324,0.381057,0.062826,2.191270,2.097220,0.183338,0.000000,0.000000,0.000000,0.000000,0.000000,0.000000,
22.000000,19.290916,-0.204844,5.171788,-1.421168,0.050446,16.203492,0.545070,81.179469,-5.117588,0.454102,16.145171,0.250000,17.388770,-0.135050,4.582088,-1.496559,20.000000,0.000000,0.406797,0.000000,0.000000,0.007718,0.289870,-0.540903,-0.612444,0.577149,0.029958,-0.075370,0.069794,-0.589699,3.550835,-0.125335,-0.113346,0.008078,-0.009839,-0.001162,-0.007747,-0.009471,-0.037065,0.591657,1.931117,0.213764,0.403927,0.400862,0.068379,2.378306,2.284590,0.209122,0.000000,0.000000,0.000000,0.000000,0.000000,0.000000,
22.500000,20.724876,-0.238280,6.438019,-1.419697,0.053382,16.188815,0.206175,81.092027,-6.365501,0.764853,17.492849,0.250000,18.131187,-0.423025,5.960042,-1.497227,21.000000,1.000000,0.015625,5.406761,0.000000,0.007718,0.307436,-0.153447,4.804981,0.400891,-0.753854,-0.077587,-0.184745,-0.477977,2.862431,-2.277284,-0.143906,0.003563,-0.009029,-0.001185,-0.009004,-0.006901,-0.037257,0.537846,1.781402,0.219137,0.202503,0.160308,0.061065,0.884173,0.672910,0.179885,-1.168625,-1.832134,10.603369,-0.120722,-0.782346,0.057858,
23.000000,22.307278,-0.244978,7.626627,-1.410819,0.052941,16.185353,0.157343,81.088463,-6.832089,0.587276,17.492849,0.250000,18.880934,-0.438803,7.137564,-1.497153,21.000000,1.000000,0.015625,5.406761,0.000000,0.007718,0.309659,-0.149310,4.789417,0.401960,-0.860894,-0.086298,-0.193826,-0.489063,3.063311,-2.681075,-0.185163,0.003563,-0.009029,-0.001185,-0.009004,-0.006901,-0.037257,0.540032,1.781410,0.224330,0.217835,0.173788,0.065669,0.966827,0.732730,0.204582,-1.168625,-1.832134,10.603369,-0.120722,-0.782346,0.057858,
23.500000,23.979762,0.017881,7.397471,-1.388175,0.053675,-18.599679,-7.450520,79.809631,-7.318869,1.508619,18.947256,0.250000,19.616386,-0.332690,6.918955,-1.489289,22.000000,2.000000,0.077527,7.005666,0.000000,0.007718,0.206278,0.173577,-5.074150,0.549004,0.177094,-0.095443,-0.350571,-0.478516,3.337170,-1.734823,-0.215654,-0.000903,-0.008277,-0.001190,-0.008664,-0.005873,-0.037464,0.563450,1.763813,0.246820,0.218093,0.153149,0.058960,0.876066,0.534063,0.177268,0.289260,0.716698,4.004323,-0.103625,1.893649,-0.376165,
24.000000,25.441603,0.299366,5.102079,-1.391296,0.059613,-24.727233,-3.453468,78.126348,-5.128536,1.194883,18.947256,0.250000,20.360568,-0.038483,4.613172,-1.489024,22.000000,2.000000,0.077527,7.005666,0.000000,0.007718,0.246232,0.174051,-5.071621,0.549109,-0.040536,-0.097686,-0.337848,-0.488908,3.613537,-1.699164,-0.264401,-0.000903,-0.008277,-0.001190,-0.008664,-0.005873,-0.037464,0.598267,1.751897,0.240297,0.233781,0.167220,0.061755,0.968122,0.587039,0.200681,0.289260,0.716698,4.004323,-0.103625,1.893649,-0.376165,
24.500000,26.619939,0.423517,2.686200,-1.440046,0.062138,-24.848227,-1.343807,77.149798,-2.323297,1.301437,20.074915,0.250000,20.936026,0.056288,2.341921,-1.496720,23.000000,3.000000,1.653173,3.914973,0.000000,0.007718,0.445219,0.221699,-5.217705,0.356624,-0.238215,-0.058168,-0.367229,-0.344279,3.186106,-1.639649,-0.126306,-0.001498,-0.009440,-0.000944,-0.011219,-0.005663,-0.037482,0.614135,1.735329,0.241049,0.247157,0.157156,0.057600,1.056253,0.491597,0.174386,-1.256762,0.235365,5.007078,-0.582735,0.087926,-0.009244,
25.000000,27.555539,0.466778,1.246206,-1.463050,0.046395,-5.950324,-0.222014,76.809112,-1.061352,0.792402,20.074915,0.250000,21.692496,0.090356,0.847068,-1.516567,23.000000,3.000000,1.653173,3.914973,0.000000,0.007718,0.467553,0.215439,-5.222148,0.341913,-0.387651,-0.054431,-0.376421,-0.399137,3.359098,-1.803051,-0.154462,-0.001498,-0.009440,-0.000944,-0.011219,-0.005663,-0.037482,0.623641,1.732618,0.244669,0.264217,0.172749,0.062513,1.166259,0.546852,0.196879,-1.256762,0.235365,5.007078,-0.582735,0.087926,-0.009244,
25.500000,28.417267,0.470373,1.093118,-1.473611,0.048554,0.503197,-0.051453,76.809813,-0.957328,0.705197,21.500268,0.250000,22.321431,0.075025,0.802646,-1.505838,24.000000,4.000000,1.069649,2.370723,0.000000,0.007718,0.571203,0.208754,-4.532441,0.214822,-0.391492,-0.032376,-0.395348,-0.290472,3.025781,-2.107937,-0.045673,-0.001325,-0.010263,-0.000780,-0.013248,-0.005741,-0.037523,0.615460,1.714124,0.249494,0.252277,0.163161,0.057696,1.190636,0.477717,0.172626,-0.978206,-0.317044,0.359257,-0.498700,0.247640,-0.143811,
26.000000,29.276106,0.472172,1.157580,-1.466380,0.049358,0.835979,-0.091481,76.819282,-1.132437,1.029787,21.500268,0.250000,23.073977,0.062632,0.865340,-1.500772,24.000000,4.000000,1.069649,2.370723,0.000000,0.007718,0.568687,0.208698,-4.548858,0.213185,-0.400195,-0.034454,-0.409541,-0.292240,3.133090,-2.305819,-0.062640,-0.001325,-0.010263,-0.000780,-0.013248,-0.005741,-0.037523,0.617069,1.714364,0.254576,0.268644,0.179223,0.061072,1.303653,0.537292,0.195142,-0.978206,-0.317044,0.359257,-0.498700,0.247640,-0.143811,
26.500000,30.130468,0.410771,1.147277,-1.443780,0.046424,-0.544773,1.126322,76.833505,-1.005147,0.589730,23.363951,0.250000,23.889342,0.111107,0.946618,-1.498486,25.000000,5.000000,0.213762,2.157898,0.000000,0.007718,0.594975,0.152236,-4.068558,0.152930,-0.276674,-0.054733,-0.299664,-0.200659,3.052938,-2.081863,-0.152250,-0.001729,-0.009535,-0.000902,-0.014437,-0.007394,-0.037397,0.605065,1.689610,0.258912,0.247272,0.166849,0.056158,1.293109,0.475236,0.171598,-0.345101,0.870836,3.589855,-0.217162,0.365398,-0.088707,
27.000000,30.978492,0.346922,1.107221,-1.441065,0.050996,-0.075118,0.257781,76.849028,-0.991177,0.585213,23.363951,0.250000,24.639486,0.037691,0.910777,-1.498084,25.000000,5.000000,0.213762,2.157898,0.000000,0.007718,0.598972,0.152206,-4.093615,0.140795,-0.284291,-0.057245,-0.309231,-0.196444,3.126365,-2.222018,-0.180505,-0.001729,-0.009535,-0.000902,-0.014437,-0.007394,-0.037397,0.606565,1.689956,0.264269,0.262522,0.182939,0.059694,1.403187,0.538529,0.193708,-0.345101,0.870836,3.589855,-0.217162,0.365398,-0.088707,
27.500000,31.824876,0.297800,1.057019,-1.445264,0.047763,-0.701161,0.714422,76.856430,-0.968313,0.798193,24.662330,0.250000,25.353432,0.065715,0.954107,-1.497921,26.000000,6.000000,0.150697,2.994917,0.000000,0.007718,0.651616,0.141998,-3.505766,0.067290,-0.195427,-0.052807,-0.232085,-0.102912,2.937323,-2.097317,-0.171298,-0.002415,-0.009447,-0.000876,-0.015551,-0.008470,-0.037342,0.592219,1.663001,0.268982,0.233674,0.167433,0.055210,1.354783,0.472374,0.170542,-0.567265,0.486839,7.107504,-0.131895,0.278079,0.068941,
28.000000,32.665362,0.258820,1.013438,-1.442959,0.048504,-0.100508,0.147217,76.870567,-0.673894,0.384830,24.662330,0.250000,26.103552,0.022194,0.919632,-1.498061,26.000000,6.000000,0.150697,2.994917,0.000000,0.007718,0.655446,0.142147,-3.528133,0.053743,-0.197737,-0.055323,-0.236626,-0.093805,2.967688,-2.195572,-0.198586,-0.002415,-0.009447,-0.000876,-0.015551,-0.008470,-0.037342,0.593719,1.663474,0.274206,0.247697,0.183168,0.058824,1.456830,0.537732,0.192216,-0.567265,0.486839,7.107504,-0.131895,0.278079,0.068941,
28.500000,33.499380,0.236323,0.972299,-1.435296,0.046570,-0.555463,0.301913,76.880077,-0.423005,0.866972,26.253839,0.250000,26.866930,0.027281,0.954531,-1.497453,27.000000,7.000000,0.000103,1.170741,0.000000,0.007718,0.713552,0.039062,-3.190973,-0.014313,-0.157302,-0.062270,-0.209042,-0.017768,2.777064,-2.192173,-0.242244,-0.000922,-0.009599,-0.000887,-0.016297,-0.008870,-0.037344,0.578285,1.637712,0.279015,0.216814,0.165668,0.054765,1.388246,0.468390,0.169553,-0.474060,0.122645,4.197438,-0.075898,0.207197,-0.050996,
29.000000,34.326562,0.219790,0.934604,-1.433065,0.049824,-0.130923,0.049863,76.891815,-0.370525,0.395401,26.253839,0.250000,27.616928,0.008511,0.930922,-1.497751,27.000000,7.000000,0.000103,1.170741,0.000000,0.007718,0.717762,0.039194,-3.210078,-0.030299,-0.156480,-0.064897,-0.211279,-0.003683,2.766105,-2.270543,-0.274303,-0.000922,-0.009599,-0.000887,-0.016297,-0.008870,-0.037344,0.579767,1.638290,0.284068,0.229766,0.180887,0.058437,1.479990,0.534378,0.190947,-0.474060,0.122645,4.197438,-0.075898,0.207197,-0.050996,
29.500000,35.154772,0.224504,0.904726,-1.445051,0.048803,-0.336890,-0.142227,76.903097,-0.974883,0.657209,27.548026,0.250000,28.295987,-0.002521,0.949653,-1.497907,28.000000,8.000000,0.455333,2.453348,0.000000,0.007718,0.780655,-0.018054,-3.315099,-0.080675,-0.157734,-0.053072,-0.227025,0.044927,2.656164,-2.323941,-0.231249,0.000271,-0.010170,-0.000803,-0.016719,-0.008735,-0.037347,0.564351,1.614900,0.289033,0.200208,0.162797,0.054634,1.407512,0.464601,0.168831,-0.074404,0.156215,-5.553925,-0.309582,-0.159022,-0.431046,
30.000000,35.979390,0.232491,0.877963,-1.442816,0.049543,-0.115154,-0.072980,76.913284,-0.592056,0.243009,27.548026,0.250000,29.046127,0.003268,0.940409,-1.497878,28.000000,8.000000,0.455333,2.453348,0.000000,0.007718,0.785007,-0.020861,-3.330166,-0.098301,-0.156310,-0.055263,-0.229224,0.062446,2.611693,-2.402367,-0.258581,0.000271,-0.010170,-0.000803,-0.016719,-0.008735,-0.037347,0.565747,1.615574,0.293893,0.212387,0.177486,0.058304,1.488598,0.530323,0.190103,-0.074404,0.156215,-5.553925,-0.309582,-0.159022,-0.431046,
30.500000,36.805830,0.214106,0.893122,-1.451859,0.048277,0.473200,0.354716,76.924868,-0.811185,0.393554,29.029342,0.250000,29.746250,0.033006,0.924798,-1.498415,29.000000,9.000000,0.266596,2.752828,0.000000,0.007718,0.724483,0.141600,-3.234492,-0.057494,-0.119632,-0.046718,-0.181100,0.031676,2.766746,-2.299870,-0.233084,-0.003054,-0.009706,-0.000782,-0.016240,-0.009117,-0.037292,0.550711,1.594890,0.298563,0.185545,0.159470,0.054649,1.419754,0.461492,0.168405,0.424829,0.587638,5.846870,0.120752,-0.329575,-0.151104,
31.000000,37.636336,0.192447,0.910599,-1.449594,0.051051,0.093492,0.102283,76.933921,-0.832099,0.389272,29.029342,0.250000,30.496378,0.010826,0.958817,-1.498015,29.000000,9.000000,0.266596,2.752828,0.000000,0.007718,0.731507,0.141465,-3.253694,-0.073704,-0.113689,-0.048584,-0.181622,0.048218,2.734199,-2.357963,-0.257155,-0.003054,-0.009706,-0.000782,-0.016240,-0.009117,-0.037292,0.552163,1.595588,0.303528,0.197271,0.173680,0.058361,1.490681,0.526382,0.189645,0.424829,0.587638,5.846870,0.120752,-0.329575,-0.151104,
31.500000,38.472741,0.124125,0.908482,-1.462113,0.050871,0.043370,1.191310,76.945483,-0.703010,-0.160535,30.437995,0.250000,31.183414,0.069597,0.962018,-1.498415,30.000000,10.000000,0.436247,6.078782,0.000000,0.007718,0.707195,0.200483,-2.701225,-0.050368,0.000278,-0.036550,-0.054528,0.053536,2.817416,-2.066312,-0.213883,-0.005451,-0.009363,-0.000745,-0.016166,-0.010510,-0.037259,0.537779,1.577239,0.308102,0.173152,0.156299,0.054810,1.424193,0.457752,0.168216,0.204121,0.483738,10.385607,0.179029,0.650518,0.029136,
32.000000,39.311749,0.055216,0.900175,-1.459832,0.051519,-0.051591,0.377293,76.956127,-0.301377,0.538304,30.437995,0.250000,31.933601,0.005394,0.969741,-1.498148,30.000000,10.000000,0.436247,6.078782,0.000000,0.007718,0.713952,0.199218,-2.727358,-0.067226,0.011157,-0.038466,-0.049822,0.069567,2.788154,-2.063261,-0.232890,-0.005451,-0.009363,-0.000745,-0.016166,-0.010510,-0.037259,0.539191,1.577949,0.313109,0.184710,0.170121,0.058580,1.485554,0.521633,0.189505,0.204121,0.483738,10.385607,0.179029,0.650518,0.029136,
32.500000,40.162234,0.067559,0.876040,-1.492634,0.047779,-0.271921,-0.441260,76.968748,-0.815546,1.149702,31.690299,0.250000,32.540454,-0.029638,0.976269,-1.498509,31.000000,11.000000,1.416721,1.054495,0.000000,0.007718,0.800172,0.115168,-2.851757,-0.108182,-0.024145,-0.006107,-0.097198,0.100229,2.620507,-2.218116,-0.096396,-0.003403,-0.010644,-0.000567,-0.016168,-0.010032,-0.037278,0.525675,1.561253,0.318270,0.163925,0.153798,0.054960,1.429973,0.453653,0.168217,-0.401152,-0.305390,-3.379624,0.162654,-0.166076,-0.081281,
33.000000,41.011736,0.092160,0.851144,-1.491065,0.047413,-0.135755,-0.105811,76.977763,-0.845478,0.290330,31.690299,0.250000,33.290802,0.000060,0.968426,-1.497828,31.000000,11.000000,1.416721,1.054495,0.000000,0.007718,0.804313,0.111624,-2.863100,-0.122569,-0.016346,-0.007064,-0.092101,0.117282,2.563131,-2.228156,-0.099945,-0.003403,-0.010644,-0.000567,-0.016168,-0.010032,-0.037278,0.526941,1.562083,0.322928,0.175535,0.167334,0.058647,1.483125,0.516726,0.189574,-0.401152,-0.305390,-3.379624,0.162654,-0.166076,-0.081281,
33.500000,41.851828,0.033350,0.805141,-1.476447,0.051513,-0.648388,1.139732,76.979980,-0.833899,0.409944,33.539323,0.250000,34.092563,0.051815,0.997120,-1.497631,32.000000,12.000000,0.098119,3.922206,0.000000,0.007718,0.813822,0.052650,-2.483937,-0.169371,0.100640,-0.021370,0.018465,0.191979,2.332369,-1.779738,-0.160854,-0.003472,-0.010168,-0.000633,-0.016678,-0.011081,-0.037271,0.514037,1.547457,0.327397,0.157677,0.151439,0.054958,1.444672,0.450958,0.168290,-0.523366,1.082215,6.247169,0.240323,0.062994,-0.101179,
34.000000,42.685463,-0.033956,0.758767,-1.475142,0.051763,-0.273900,0.398147,76.996438,-1.002890,0.006601,33.539323,0.250000,34.842508,-0.007534,0.970741,-1.497919,32.000000,12.000000,0.098119,3.922206,0.000000,0.007718,0.818005,0.050629,-2.510560,-0.190052,0.114004,-0.022964,0.026422,0.211975,2.242641,-1.725961,-0.172202,-0.003472,-0.010168,-0.000633,-0.016678,-0.011081,-0.037271,0.515354,1.548264,0.332334,0.169435,0.164754,0.058626,1.491237,0.513149,0.189681,-0.523366,1.082215,6.247169,0.240323,0.062994,-0.101179,
34.500000,43.529759,-0.071883,0.783347,-1.505735,0.051983,0.711772,0.487384,77.007760,-0.664953,-0.262179,34.622146,0.250000,35.460638,0.010990,0.932285,-1.498955,33.000000,13.000000,1.281876,1.394248,0.000000,0.007718,0.791845,0.105142,-2.432208,-0.117452,0.151993,0.006596,0.082873,0.148938,2.502038,-1.550644,-0.040579,-0.004890,-0.010610,-0.000509,-0.015808,-0.011538,-0.037271,0.503226,1.535081,0.337087,0.153919,0.149969,0.054909,1.468285,0.448964,0.168353,0.797451,0.345559,2.121481,0.196645,-0.119526,0.078483,
35.000000,44.383271,-0.100680,0.813637,-1.503990,0.048380,0.118669,0.216365,77.015763,-0.766264,0.114421,34.622146,0.250000,36.210978,-0.006244,0.980873,-1.497807,33.000000,13.000000,1.281876,1.394248,0.000000,0.007718,0.798580,0.104358,-2.451881,-0.131871,0.170065,0.006009,0.094436,0.167236,2.439964,-1.469887,-0.037679,-0.004890,-0.010610,-0.000509,-0.015808,-0.011538,-0.037271,0.504641,1.535899,0.341937,0.165864,0.163140,0.058576,1.510008,0.510655,0.189749,0.797451,0.345559,2.121481,0.196645,-0.119526,0.078483,
35.500000,45.240977,-0.119583,0.857029,-1.506332,0.052804,0.864866,0.254778,77.026795,-0.696522,0.366799,36.352946,0.250000,36.956221,0.006455,0.943471,-1.498009,34.000000,14.000000,0.003596,6.206389,0.000000,0.007718,0.714294,0.201865,-2.379467,-0.047358,0.180075,0.008092,0.126038,0.086442,2.624207,-1.460998,-0.029126,-0.006978,-0.010336,-0.000510,-0.014638,-0.011822,-0.037349,0.493410,1.524111,0.346675,0.151056,0.148828,0.054868,1.486991,0.448184,0.168383,0.092965,-0.361538,1.443991,1.129364,0.324527,0.448993,
36.000000,46.105630,-0.137938,0.894473,-1.505127,0.048012,0.171294,0.205698,77.036768,-0.943771,0.124696,36.352946,0.250000,37.706309,0.002270,0.994196,-1.497578,34.000000,14.000000,0.003596,6.206389,0.000000,0.007718,0.720644,0.198845,-2.396223,-0.055696,0.199060,0.007446,0.140208,0.099723,2.598725,-1.365980,-0.025487,-0.006978,-0.010336,-0.000510,-0.014638,-0.011822,-0.037349,0.494758,1.524968,0.351444,0.163199,0.161901,0.058559,1.524218,0.509486,0.189777,0.092965,-0.361538,1.443991,1.129364,0.324527,0.448993,
36.500000,46.967034,-0.083179,0.909706,-1.492405,0.049623,0.334318,-1.120494,77.041789,-0.914069,0.121090,37.920062,0.250000,38.496260,-0.051488,0.980104,-1.497518,35.000000,15.000000,0.038721,2.947368,0.000000,0.007718,0.672037,0.360876,-2.508742,-0.053135,0.090616,-0.005360,0.031691,0.070398,2.573798,-1.737358,-0.066983,-0.008468,-0.009907,-0.000564,-0.014248,-0.010392,-0.037333,0.484794,1.514177,0.356745,0.149097,0.147862,0.054858,1.504963,0.448033,0.168397,-0.093125,-0.981969,0.965674,0.209949,-0.466257,-0.460963,
37.000000,47.826660,-0.023783,0.917783,-1.491844,0.052846,0.039222,-0.205772,77.055270,-0.980654,-0.184319,37.920062,0.250000,39.246162,0.018245,0.999015,-1.497944,35.000000,15.000000,0.038721,2.947368,0.000000,0.007718,0.678877,0.357481,-2.514219,-0.058078,0.101824,-0.006257,0.042029,0.081232,2.546423,-1.689121,-0.070137,-0.008468,-0.009907,-0.000564,-0.014248,-0.010392,-0.037333,0.485865,1.515119,0.361048,0.161412,0.160870,0.058559,1.538402,0.508946,0.189795,-0.093125,-0.981969,0.965674,0.209949,-0.466257,-0.460963,
37.500000,48.692659,-0.016797,0.920604,-1.509966,0.048860,0.176507,-0.006921,77.065836,-0.802800,0.125213,39.159821,0.250000,39.917960,0.010343,0.986173,-1.498500,36.000000,16.000000,0.525554,1.323994,0.000000,0.007718,0.704779,0.305538,-2.477016,-0.047085,0.082420,0.011324,0.027140,0.065569,2.587548,-1.751331,0.011573,-0.007363,-0.010581,-0.000481,-0.013876,-0.010158,-0.037335,0.476366,1.505195,0.365672,0.148047,0.146890,0.054797,1.525356,0.447037,0.168404,0.153554,-0.242159,5.410812,0.067311,-0.107584,0.018479,
38.000000,49.560907,-0.021561,0.920997,-1.508951,0.050944,0.016787,0.109230,77.076618,-1.109005,-0.556214,39.159821,0.250000,40.668117,0.013256,0.996517,-1.498027,36.000000,16.000000,0.525554,1.323994,0.000000,0.007718,0.711123,0.301192,-2.491720,-0.054587,0.092535,0.010711,0.034817,0.075519,2.562421,-1.707440,0.016835,-0.007363,-0.010581,-0.000481,-0.013876,-0.010158,-0.037335,0.477699,1.506073,0.370354,0.160491,0.159853,0.058413,1.556120,0.507430,0.189771,0.153554,-0.242159,5.410812,0.067311,-0.107584,0.018479,
38.500000,50.429736,-0.051308,0.940357,-1.508546,0.049838,0.588163,0.554493,77.089234,-1.107073,-0.362112,40.755185,0.250000,41.410720,0.036060,0.965761,-1.497793,37.000000,17.000000,0.022919,2.806292,0.000000,0.007718,0.668847,0.331838,-2.369141,0.005007,0.128569,0.010516,0.087369,0.025404,2.827126,-1.521830,0.029481,-0.008352,-0.010410,-0.000485,-0.013321,-0.010503,-0.037379,0.468730,1.496235,0.374917,0.146882,0.145588,0.054640,1.548738,0.444338,0.168349,0.744731,0.429144,6.032887,-0.012426,-0.177781,-0.172640,
39.000000,51.303087,-0.086834,0.966182,-1.507927,0.053272,0.172332,0.268266,77.098130,-0.959012,0.134090,40.755185,0.250000,42.160742,0.009598,0.999884,-1.498022,37.000000,17.000000,0.022919,2.806292,0.000000,0.007718,0.674214,0.330756,-2.388646,-0.001012,0.141493,0.009726,0.096432,0.033702,2.828366,-1.454097,0.034288,-0.008352,-0.010410,-0.000485,-0.013321,-0.010503,-0.037379,0.470152,1.497075,0.379693,0.159386,0.158512,0.058247,1.577595,0.503936,0.189656,0.744731,0.429144,6.032887,-0.012426,-0.177781,-0.172640,
39.500000,52.175989,-0.083772,0.918886,-1.506340,0.049509,-0.950523,-0.245784,77.111766,-0.956765,0.107839,42.220369,0.250000,42.902555,-0.014638,1.048030,-1.497880,38.000000,18.000000,0.056718,6.475991,0.000000,0.007718,0.744167,0.327511,-2.515766,-0.098222,0.141009,0.008283,0.069134,0.129144,2.516334,-1.463664,0.046779,-0.007969,-0.010443,-0.000486,-0.014321,-0.010194,-0.037317,0.461980,1.487172,0.384525,0.146177,0.144943,0.054467,1.573099,0.443063,0.168243,-0.520789,-0.326319,9.382592,-0.565218,0.238206,-0.545262,
40.000000,53.039087,-0.070916,0.852050,-1.505215,0.048185,-0.363595,-0.000476,77.119650,-0.802858,0.066630,42.220369,0.250000,43.652542,0.007259,0.993388,-1.497472,38.000000,18.000000,0.056718,6.475991,0.000000,0.007718,0.748500,0.323729,-2.528814,-0.108619,0.150028,0.007451,0.078175,0.141338,2.464878,-1.390885,0.050463,-0.007969,-0.010443,-0.000486,-0.014321,-0.010194,-0.037317,0.463370,1.488034,0.389134,0.158704,0.157846,0.058025,1.600543,0.502232,0.189469,-0.520789,-0.326319,9.382592,-0.565218,0.238206,-0.545262,
40.500000,53.898400,-0.072979,0.838884,-1.508393,0.046738,0.123144,0.039310,77.129557,-1.488447,0.333108,43.722842,0.250000,44.384529,0.003311,0.976973,-1.498012,39.000000,19.000000,0.041797,0.718184,0.000000,0.007718,0.745165,0.306753,-2.517172,-0.107073,0.146697,0.010233,0.076290,0.138088,2.426190,-1.368389,0.073207,-0.007615,-0.010591,-0.000472,-0.014075,-0.010093,-0.037324,0.455919,1.478175,0.393781,0.146098,0.144535,0.054244,1.605845,0.441893,0.168082,-0.065746,-0.112430,3.024736,0.240525,-0.061798,-0.154013,
41.000000,54.757585,-0.078467,0.839010,-1.507682,0.049763,0.010235,0.106830,77.139894,-0.812613,0.036689,43.722842,0.250000,45.134555,0.006508,0.990259,-1.497843,39.000000,19.000000,0.041797,0.718184,0.000000,0.007718,0.750577,0.303031,-2.532334,-0.117521,0.158726,0.009649,0.084975,0.151249,2.370330,-1.291890,0.077936,-0.007615,-0.010591,-0.000472,-0.014075,-0.010093,-0.037324,0.457324,1.479032,0.398439,0.158626,0.157436,0.057745,1.633345,0.500762,0.189201,-0.065746,-0.112430,3.024736,0.240525,-0.061798,-0.154013,
41.500000,55.620473,-0.062049,0.925515,-1.510901,0.050346,2.102042,-0.426883,77.141783,-1.054746,0.428046,45.218698,0.250000,45.863972,-0.020333,0.881434,-1.497911,40.000000,20.000000,0.025851,7.630296,0.000000,0.007718,0.631428,0.354472,-2.298279,0.057193,0.066699,0.012819,0.041716,-0.044081,3.047810,-1.658955,0.104281,-0.007947,-0.010703,-0.000457,-0.011993,-0.009533,-0.037415,0.450703,1.469037,0.403265,0.146229,0.144321,0.053988,1.641006,0.441140,0.167861,1.718036,-1.138696,-5.875523,0.353857,-0.029883,-0.143090,
42.000000,56.499190,-0.038809,1.043263,-1.510502,0.046942,0.697476,-0.060935,77.161256,-0.669482,-0.629051,45.218698,0.250000,46.614060,0.009811,1.005022,-1.498124,40.000000,20.000000,0.025851,7.630296,0.000000,0.007718,0.634223,0.351398,-2.310536,0.057327,0.078493,0.012328,0.048620,-0.038241,3.076835,-1.622342,0.110296,-0.007947,-0.010703,-0.000457,-0.011993,-0.009533,-0.037415,0.451953,1.469942,0.407806,0.158753,0.157220,0.057452,1.668972,0.499830,0.188855,1.718036,-1.138696,-5.875523,0.353857,-0.029883,-0.143090,
42.500000,57.384496,-0.001825,1.065639,-1.509995,0.049138,0.218429,-0.764778,77.167688,-1.031544,0.233443,46.753376,0.250000,47.364617,-0.030170,1.006590,-1.498253,41.000000,21.000000,0.000193,2.125130,0.000000,0.007718,0.629217,0.425301,-2.289326,0.059904,-0.000241,0.011653,-0.028345,-0.059048,3.169145,-1.956983,0.115452,-0.008379,-0.010646,-0.000458,-0.011865,-0.008700,-0.037403,0.445817,1.459875,0.412691,0.145955,0.144182,0.053739,1.666540,0.440458,0.167594,0.323450,-0.983809,-0.243755,-0.344031,0.042960,0.061880,
43.000000,58.269378,0.041009,1.065890,-1.508587,0.045839,0.045421,-0.187034,77.179426,-1.031913,0.277085,46.753376,0.250000,48.114684,0.016136,1.010086,-1.497324,41.000000,21.000000,0.000193,2.125130,0.000000,0.007718,0.635181,0.422768,-2.299178,0.059470,0.002841,0.011118,-0.024873,-0.055804,3.199334,-1.956214,0.120903,-0.008379,-0.010646,-0.000458,-0.011865,-0.008700,-0.037403,0.447163,1.460748,0.417134,0.158467,0.157075,0.057175,1.693801,0.499029,0.188463,0.323450,-0.983809,-0.243755,-0.344031,0.042960,0.061880,
43.500000,59.137262,0.066187,1.024629,-1.471727,0.049565,-0.719229,-0.418274,77.191327,-0.990754,0.292205,48.630751,0.250000,49.012481,0.007544,1.048689,-1.497084,42.000000,22.000000,1.459532,2.983167,0.000000,0.007718,0.608107,0.641718,-2.511257,-0.023612,-0.006993,-0.025405,-0.058643,0.024059,2.846714,-2.054604,-0.035583,-0.011985,-0.009294,-0.000590,-0.012822,-0.008353,-0.037353,0.441372,1.450892,0.421835,0.145751,0.144010,0.053598,1.694691,0.439484,0.167319,-1.079878,-0.412776,1.222781,0.219592,0.328324,-0.195543,
44.000000,59.992750,0.086684,0.973325,-1.470715,0.047881,-0.229825,-0.061485,77.199009,-0.962366,0.530745,48.630751,0.250000,49.762172,0.030112,1.003732,-1.497270,42.000000,22.000000,1.459532,2.983167,0.000000,0.007718,0.611306,0.638537,-2.523667,-0.029617,-0.005875,-0.026814,-0.056572,0.030407,2.833689,-2.057788,-0.048884,-0.011985,-0.009294,-0.000590,-0.012822,-0.008353,-0.037353,0.442860,1.451727,0.426363,0.158255,0.156900,0.057120,1.721762,0.497954,0.188121,-1.079878,-0.412776,1.222781,0.219592,0.328324,-0.195543,
44.500000,60.844576,0.075948,0.953407,-1.471674,0.046748,-0.100328,0.243756,77.208888,-0.822713,0.371591,49.871868,0.250000,50.502452,0.035809,1.002272,-1.497428,43.000000,23.000000,0.006393,0.658122,0.000000,0.007718,0.625256,0.610839,-2.582426,-0.043774,0.014672,-0.025966,-0.040138,0.048866,2.781889,-2.041255,-0.052379,-0.011831,-0.009367,-0.000582,-0.012932,-0.008591,-0.037336,0.437488,1.442016,0.430900,0.146141,0.143976,0.053576,1.731998,0.438609,0.167124,-0.107400,-0.134985,-0.679805,0.035637,0.385480,-0.020942,
45.000000,61.694506,0.058934,0.940285,-1.470938,0.048482,-0.027456,0.128667,77.219519,-1.121310,0.055107,49.871868,0.250000,51.252440,0.021477,0.997541,-1.498131,43.000000,23.000000,0.006393,0.658122,0.000000,0.007718,0.627988,0.609866,-2.599702,-0.052035,0.019563,-0.027274,-0.037457,0.057256,2.758173,-2.032566,-0.065942,-0.011831,-0.009367,-0.000582,-0.012932,-0.008591,-0.037336,0.438997,1.442836,0.435564,0.158617,0.156864,0.057064,1.760194,0.497064,0.187890,-0.107400,-0.134985,-0.679805,0.035637,0.385480,-0.020942,
45.500000,62.539652,0.021585,0.974990,-1.456815,0.051608,0.934672,0.714565,77.234725,-0.732172,0.681306,51.553479,0.250000,52.061605,0.052065,0.950805,-1.497483,44.000000,24.000000,0.277753,2.767009,0.000000,0.007718,0.558756,0.604210,-2.659095,0.041924,0.065819,-0.040853,0.030480,-0.024185,3.164070,-1.869975,-0.144159,-0.012478,-0.009051,-0.000622,-0.012150,-0.009188,-0.037368,0.433789,1.432890,0.440047,0.146636,0.143922,0.053544,1.772811,0.438152,0.166985,1.093567,0.339077,3.853618,0.046321,0.106340,0.265802,
46.000000,63.390911,-0.022800,1.021945,-1.455274,0.045576,0.303840,0.289219,77.240497,-0.570139,0.058475,51.553479,0.250000,52.811518,0.013292,1.003756,-1.497499,44.000000,24.000000,0.277753,2.767009,0.000000,0.007718,0.563022,0.603755,-2.679282,0.037302,0.076188,-0.042372,0.036092,-0.018189,3.184105,-1.834208,-0.165221,-0.012478,-0.009051,-0.000622,-0.012150,-0.009188,-0.037368,0.435375,1.433673,0.444762,0.159077,0.156799,0.057028,1.802298,0.496605,0.187723,1.093567,0.339077,3.853618,0.046321,0.106340,0.265802,
46.500000,64.250996,-0.019464,1.004437,-1.472471,0.049534,-0.386546,-0.277754,77.251071,-0.914275,0.691649,52.743470,0.250000,53.486651,-0.016084,1.025213,-1.498513,45.000000,25.000000,0.415027,0.417150,0.000000,0.007718,0.621045,0.542916,-2.645210,-0.007922,0.054229,-0.026183,0.003380,0.020775,3.027069,-1.908480,-0.105375,-0.010976,-0.009608,-0.000565,-0.012343,-0.008867,-0.037358,0.430372,1.423294,0.449527,0.146929,0.143882,0.053473,1.810203,0.438185,0.166878,-0.437026,-0.262967,0.979927,-0.032405,-0.068367,0.023849,
47.000000,65.107973,-0.003132,0.971582,-1.470828,0.049691,-0.138430,-0.055010,77.260433,-1.115121,0.125913,52.743470,0.250000,54.236812,0.005460,0.998828,-1.497961,45.000000,25.000000,0.415027,0.417150,0.000000,0.007718,0.623802,0.540181,-2.658810,-0.012778,0.059312,-0.027409,0.008592,0.027246,3.022164,-1.880022,-0.119022,-0.010976,-0.009608,-0.000565,-0.012343,-0.008867,-0.037358,0.431913,1.424114,0.454079,0.159341,0.156735,0.056884,1.840223,0.496630,0.187566,-0.437026,-0.262967,0.979927,-0.032405,-0.068367,0.023849,
47.500000,65.965627,-0.033026,0.919997,-1.483163,0.046144,-0.838330,0.666995,77.265556,-0.821209,0.244391,54.208545,0.250000,54.930649,0.033844,1.034343,-1.498076,46.000000,26.000000,0.268657,6.338281,0.000000,0.007718,0.707307,0.451291,-2.677694,-0.082346,0.135650,-0.015025,0.066870,0.114346,2.813567,-1.664701,-0.071819,-0.010221,-0.010006,-0.000522,-0.013143,-0.009521,-0.037295,0.427066,1.413500,0.458510,0.147436,0.143810,0.053306,1.852136,0.438200,0.166746,-0.302169,0.079069,8.405711,-0.462376,0.837994,0.167687,
48.000000,66.817441,-0.075242,0.862551,-1.481702,0.045873,-0.286901,0.292630,77.279463,-0.820867,0.120032,54.208545,0.250000,55.680843,-0.000583,0.988066,-1.497799,46.000000,26.000000,0.268657,6.338281,0.000000,0.007718,0.710114,0.450116,-2.698269,-0.094227,0.145034,-0.016246,0.074659,0.125515,2.769583,-1.594456,-0.079905,-0.010221,-0.010006,-0.000522,-0.013143,-0.009521,-0.037295,0.428607,1.414305,0.463196,0.159820,0.156647,0.056661,1.883126,0.496626,0.187349,-0.302169,0.079069,8.405711,-0.462376,0.837994,0.167687,
48.500000,67.666930,-0.060453,0.860223,-1.484958,0.049892,0.295894,-0.514030,77.289025,-0.878239,-0.054859,55.730515,0.250000,56.408308,-0.037233,0.966788,-1.498064,47.000000,27.000000,0.073366,1.392407,0.000000,0.007718,0.697447,0.455898,-2.655855,-0.089787,0.090839,-0.013305,0.023220,0.106565,2.749188,-1.779908,-0.064401,-0.009661,-0.010144,-0.000511,-0.012786,-0.008984,-0.037329,0.423980,1.403653,0.468013,0.148141,0.143695,0.053086,1.898157,0.438472,0.166563,-0.019979,-0.600201,2.974688,0.199260,-0.148814,-0.295597,
49.000000,68.516829,-0.030249,0.870544,-1.483858,0.052852,0.076228,-0.121441,77.300895,-0.854329,0.161860,55.730515,0.250000,57.158431,-0.000350,0.988655,-1.497835,47.000000,27.000000,0.073366,1.392407,0.000000,0.007718,0.702697,0.453343,-2.667293,-0.097463,0.100012,-0.014150,0.029899,0.118111,2.702721,-1.732055,-0.071509,-0.009661,-0.010144,-0.000511,-0.012786,-0.008984,-0.037329,0.425499,1.404482,0.472495,0.160490,0.156505,0.056392,1.930463,0.496851,0.187055,-0.019979,-0.600201,2.974688,0.199260,-0.148814,-0.295597,
49.500000,69.373240,-0.018638,0.875509,-1.501241,0.050342,0.222623,-0.182492,77.310853,-1.443668,0.134545,57.076042,0.250000,57.833511,-0.016487,0.976090,-1.498433,48.000000,28.000000,0.477230,2.049283,0.000000,0.007718,0.720102,0.360886,-2.645887,-0.087623,0.068444,0.002608,0.002150,0.100581,2.710930,-1.844696,0.002728,-0.007725,-0.010736,-0.000459,-0.012364,-0.008729,-0.037349,0.421000,1.394091,0.477095,0.148707,0.143605,0.052803,1.943629,0.438548,0.166320,0.079453,-0.389566,6.613921,0.143174,-0.075586,0.022859,
50.000000,70.231894,-0.009880,0.879485,-1.500248,0.053165,0.034071,-0.006475,77.322060,-0.818584,0.172767,57.076042,0.250000,58.583697,-0.002918,0.990641,-1.497913,48.000000,28.000000,0.477230,2.049283,0.000000,0.007718,0.725637,0.357668,-2.659885,-0.095848,0.075859,0.002156,0.006962,0.111155,2.665369,-1.808469,0.003670,-0.007725,-0.010736,-0.000459,-0.012364,-0.008729,-0.037349,0.422581,1.394903,0.481640,0.161023,0.156395,0.056019,1.976825,0.496886,0.186662,0.079453,-0.389566,6.613921,0.143174,-0.075586,0.022859,
50.500000,71.083906,-0.033084,0.874390,-1.484053,0.051035,0.033730,0.513320,77.332710,-0.859755,0.275447,58.964209,0.250000,59.413588,0.024985,0.989506,-1.497284,49.000000,29.000000,0.610307,7.224014,0.000000,0.007718,0.702814,0.381728,-2.683336,-0.087325,0.125819,-0.013454,0.058069,0.115117,2.654180,-1.742220,-0.081436,-0.008963,-0.010324,-0.000501,-0.012395,-0.009315,-0.037323,0.418235,1.385106,0.486098,0.148994,0.143449,0.052510,1.987964,0.438487,0.166002,-0.029847,-0.436579,3.142534,0.287433,1.079431,0.632217,
51.000000,71.934284,-0.066334,0.867288,-1.483276,0.048831,-0.028413,0.243525,77.342921,-0.785077,-0.187370,58.964209,0.250000,60.163492,-0.000426,0.993159,-1.497291,49.000000,29.000000,0.610307,7.224014,0.000000,0.007718,0.707383,0.380866,-2.702597,-0.096972,0.136944,-0.014258,0.065907,0.125871,2.608325,-1.676361,-0.088634,-0.008963,-0.010324,-0.000501,-0.012395,-0.009315,-0.037323,0.419881,1.385890,0.490741,0.161280,0.156221,0.055733,2.021638,0.496760,0.186201,-0.029847,-0.436579,3.142534,0.287433,1.079431,0.632217,
51.500000,72.790311,-0.080789,0.888650,-1.497022,0.052462,0.648567,0.144815,77.353108,-1.275565,-0.003667,60.165039,0.250000,60.860237,-0.008099,0.956576,-1.498013,50.000000,30.000000,0.180379,1.370787,0.000000,0.007718,0.693169,0.275580,-2.725726,-0.040602,0.130034,-0.001237,0.072690,0.067926,2.793594,-1.682134,-0.037766,-0.007136,-0.010825,-0.000463,-0.011637,-0.009355,-0.037339,0.415793,1.376951,0.495340,0.149259,0.143363,0.052254,2.031738,0.438611,0.165668,0.463437,-0.180322,3.141486,0.297635,-0.041018,0.310130,
52.000000,73.652463,-0.089941,0.919022,-1.496492,0.047119,0.196325,0.101997,77.363117,-0.956510,1.589404,60.165039,0.250000,61.610378,-0.008674,0.995313,-1.498163,50.000000,30.000000,0.180379,1.370787,0.000000,0.007718,0.697699,0.273842,-2.742336,-0.045756,0.142221,-0.001762,0.081266,0.076291,2.772288,-1.613856,-0.038757,-0.007136,-0.010825,-0.000463,-0.011637,-0.009355,-0.037339,0.417447,1.377740,0.499929,0.161522,0.156115,0.055407,2.065714,0.496838,0.185720,0.463437,-0.180322,3.141486,0.297635,-0.041018,0.310130,
52.500000,74.525144,-0.083870,0.862553,-1.525170,0.049325,-1.178920,-0.205373,77.376313,-0.729824,-0.739292,61.419913,0.250000,62.238757,-0.027942,1.053770,-1.498763,51.000000,31.000000,1.075672,3.040982,0.000000,0.007718,0.815462,0.214448,-2.706814,-0.161687,0.144899,0.026183,0.055928,0.191217,2.395060,-1.546679,0.092630,-0.005679,-0.011497,-0.000386,-0.012565,-0.009055,-0.037325,0.413555,1.369673,0.504580,0.149221,0.143309,0.051965,2.071491,0.438792,0.165308,-0.523136,0.041644,1.547825,-0.836639,-0.127154,0.214580,
53.000000,75.389959,-0.072660,0.782526,-1.524273,0.053211,-0.440458,-0.012568,77.384209,-0.510181,0.512082,61.419913,0.250000,62.989095,-0.009358,0.986457,-1.498106,51.000000,31.000000,1.075672,3.040982,0.000000,0.007718,0.819067,0.210935,-2.720184,-0.173474,0.151738,0.025880,0.063302,0.203931,2.311501,-1.472523,0.105393,-0.005679,-0.011497,-0.000386,-0.012565,-0.009055,-0.037325,0.415214,1.370460,0.509102,0.161455,0.156041,0.055067,2.105191,0.496981,0.185201,-0.523136,0.041644,1.547825,-0.836639,-0.127154,0.214580,
53.500000,76.249240,-0.052347,0.803658,-1.522912,0.049199,0.894009,-0.422785,77.392614,-0.824296,0.107532,63.130683,0.250000,63.742774,-0.033178,0.931439,-1.498351,52.000000,32.000000,0.000446,1.374920,0.000000,0.007718,0.765514,0.212924,-2.732586,-0.112386,0.091005,0.024487,0.019169,0.127781,2.506475,-1.683549,0.113897,-0.005182,-0.011527,-0.000391,-0.011769,-0.008620,-0.037361,0.411640,1.363423,0.513777,0.149520,0.143192,0.051692,2.117574,0.438979,0.164926,0.653132,-0.675055,-0.498676,0.167637,-0.152387,-0.097772,
54.000000,77.113811,-0.028885,0.850519,-1.522654,0.052601,0.277725,-0.082923,77.406683,-0.869409,0.176931,63.130683,0.250000,64.492837,-0.004282,0.989752,-1.497996,52.000000,32.000000,0.000446,1.374920,0.000000,0.007718,0.769355,0.209933,-2.744230,-0.119581,0.100658,0.024485,0.024603,0.139233,2.448846,-1.635409,0.125894,-0.005182,-0.011527,-0.000391,-0.011769,-0.008620,-0.037361,0.413212,1.364235,0.518250,0.161734,0.155906,0.054764,2.151704,0.497108,0.184666,0.653132,-0.675055,-0.498676,0.167637,-0.152387,-0.097772,
54.500000,77.986502,-0.017094,0.881797,-1.535214,0.052048,0.653551,-0.206950,77.415885,-0.866881,0.185821,64.465630,0.250000,65.186214,-0.019923,0.960581,-1.498179,53.000000,33.000000,0.268286,0.961979,0.000000,0.007718,0.750525,0.148709,-2.754086,-0.068080,0.059956,0.036861,-0.002829,0.078784,2.624864,-1.781769,0.199329,-0.003791,-0.011907,-0.000359,-0.011078,-0.008375,-0.037378,0.409832,1.358222,0.522842,0.149359,0.143103,0.051447,2.157376,0.438873,0.164545,0.548922,-0.461595,2.159032,0.129063,-0.111619,-0.031674,
55.000000,78.864891,-0.006131,0.910396,-1.535278,0.048530,0.173201,-0.029413,77.427410,-1.926072,-0.574432,64.465630,0.250000,65.936367,-0.005270,0.997258,-1.498220,53.000000,33.000000,0.268286,0.961979,0.000000,0.007718,0.755276,0.145751,-2.767826,-0.073361,0.066661,0.036906,0.000861,0.086862,2.589823,-1.749904,0.217518,-0.003791,-0.011907,-0.000359,-0.011078,-0.008375,-0.037378,0.411471,1.359012,0.527358,0.161554,0.155802,0.054482,2.191116,0.496948,0.184140,0.548922,-0.461595,2.159032,0.129063,-0.111619,-0.031674,
55.500000,79.484221,0.421393,0.208985,-0.487268,0.044832,-20.356090,-10.095805,78.637901,-0.102183,0.459615,65.965321,0.250000,66.442068,0.457843,0.296369,-0.483735,54.000000,34.000000,0.106546,3.566139,0.000000,0.007718,0.765950,0.073537,-2.869801,-0.032329,0.067459,0.038573,0.036450,0.087384,2.731765,-1.559927,0.257670,-0.003236,-0.012043,-0.000353,-0.010842,-0.008737,-0.037374,0.401846,1.358054,0.538899,0.148228,0.141305,0.051248,2.192608,0.438459,0.164156,0.506939,0.427156,6.803147,-0.103165,-0.023713,-0.502029,
56.000000,79.264476,0.921765,-0.858705,0.689555,0.090475,-11.263473,-5.054400,77.172894,1.133151,0.629072,65.965321,0.250000,66.270214,0.966337,-0.779152,0.760274,54.000000,34.000000,0.106546,3.566139,0.000000,0.007718,0.794592,0.097094,-2.818595,-0.006340,0.017427,0.039944,0.044572,0.079553,2.723112,-1.539037,0.278265,-0.003236,-0.012043,-0.000353,-0.010842,-0.008737,-0.037374,0.414944,1.354069,0.538773,0.164429,0.151881,0.054677,2.223736,0.495396,0.183568,0.506939,0.427156,6.803147,-0.103165,-0.023713,-0.502029,
56.500000,78.844691,1.119675,-1.327755,0.246205,0.056035,-0.803556,-0.035862,76.642907,1.431088,0.618601,66.573012,0.250000,66.144049,1.167230,-1.239347,0.265226,55.000000,35.000000,1.323786,0.375871,0.000000,0.007718,0.750152,0.192264,-2.733957,-0.035103,-0.005004,0.011383,0.047555,0.088408,2.610386,-1.587835,0.154299,-0.004840,-0.011338,-0.000426,-0.011167,-0.008526,-0.037395,0.417014,1.348835,0.540516,0.147475,0.140600,0.051635,2.157210,0.439387,0.163806,-0.227051,-0.161406,2.352560,-0.104581,0.049211,-0.028623,
57.000000,78.596715,1.064489,-1.268347,0.043052,0.048313,0.935804,0.621073,76.652293,1.156452,0.794712,66.573012,0.250000,66.079650,1.118671,-1.172992,0.056378,55.000000,35.000000,1.323786,0.375871,0.000000,0.007718,0.736963,0.182726,-2.740805,-0.044595,0.006165,0.011733,0.054182,0.095354,2.590776,-1.587677,0.159847,-0.004840,-0.011338,-0.000426,-0.011167,-0.008526,-0.037395,0.418587,1.349657,0.544922,0.158650,0.153479,0.054619,2.182520,0.496530,0.183269,-0.227051,-0.161406,2.352560,-0.104581,0.049211,-0.028623,
