Time ,gndAlt,velLL X  ,velLL Y  ,velLL Z  ,r,Roll ,Pitch,Yaw  ,gps_velN,gps_velE,Baro Altitude,Baro Altitude RMS,Nav Alt,Nav velLL X,Nav velLL Y,Nav velLL Z,Baro Update Count,GPS Update Count,Baro Chi2,GPS Chi2,GPS2D Chi2,Ground Align Chi2,Roll Error,Pitch Error,Yaw Error,Vel N Error,Vel E Error,Vel D Error,velLL X Error,velLL Y Error,N Error (m),E Error (m),Alt Error (m),Acc Bias X Error,Acc Bias Y Error,Acc Bias Z Error,Gyro Bias X Error,Gyro Bias Y Error,Gyro Bias Z Error,Roll Stdev,Pitch Stdev,Yaw Stdev,VN Stdev,VE Stdev,VD Stdev,N Stdev,E Stdev,Alt Stdev,GPSResidual[GPS_N],GPSResidual[GPS_E],GPSResidual[GPS_ALT],GPSResidual[GPS_VN],GPSResidual[GPS_VE],GPSResidual[GPS_VD],
0.500000,0.101886,-0.001489,0.009473,0.002397,-0.010555,14.027753,2.250979,81.065854,-0.029846,0.000346,0.000000,0.250000,0.000000,0.000000,0.000000,0.000000,0.000000,0.000000,0.000000,0.000000,0.000000,0.000000,0.000000,0.000000,0.000000,0.000000,0.000000,0.000000,0.000000,0.000000,0.000000,0.000000,0.000000,0.000000,0.000000,0.000000,0.000000,0.000000,0.000000,0.000000,0.000000,0.000000,0.000000,0.000000,0.000000,0.000000,0.000000,0.000000,0.000000,0.000000,0.000000,0.000000,0.000000,0.000000,
1.000000,0.101886,-0.001422,0.009057,0.002292,0.047650,14.028408,2.248111,81.077484,0.218219,-0.302195,0.000000,0.250000,0.000000,0.000000,0.000000,0.000000,0.000000,0.000000,0.000000,0.000000,0.000000,0.000000,0.000000,0.000000,0.000000,0.000000,0.000000,0.000000,0.000000,0.000000,0.000000,0.000000,0.000000,0.000000,0.000000,0.000000,0.000000,0.000000,0.000000,0.000000,0.000000,0.000000,0.000000,0.000000,0.000000,0.000000,0.000000,0.000000,0.000000,0.000000,0.000000,0.000000,0.000000,0.000000,
1.500000,0.101886,-0.001430,0.009121,0.002308,0.053929,14.029014,2.244386,81.092417,0.078999,0.064184,0.000000,0.250000,0.000000,0.000000,0.000000,0.000000,0.000000,0.000000,0.000000,0.000000,0.000000,0.000000,0.000000,0.000000,0.000000,0.000000,0.000000,0.000000,0.001430,-0.009121,0.000000,0.000000,-0.000000,0.000000,0.000000,0.000000,0.000000,0.000000,0.000000,8.554585,2.726392,0.000000,0.000000,0.000000,0.000000,0.000000,0.000000,0.000000,0.000000,0.000000,0.000000,0.000000,0.000000,0.000000,
2.000000,0.101929,-0.001403,0.008965,0.002268,0.006621,14.029256,2.241677,81.103140,-0.004770,0.037784,0.000000,0.250000,0.000021,0.002053,-0.008820,0.001263,0.000000,0.000000,0.000000,0.000000,0.000000,0.000000,-3.615658,-0.539215,-81.106686,0.011433,-0.008820,-0.001081,0.003457,-0.017785,0.019149,-0.001738,-0.002764,0.008556,0.061474,-0.013431,-0.008397,-0.009618,-0.039084,8.554631,2.726544,0.028770,0.212318,0.651904,0.121421,0.032977,0.101088,0.018858,0.000000,0.000000,0.000000,0.000000,0.000000,0.000000,
2.500000,0.101928,-0.001491,0.009534,0.002412,0.000375,14.029648,2.239196,81.113080,-0.000436,0.097995,-0.058751,0.250000,-0.000651,-0.002282,0.016067,0.004364,1.000000,0.000000,0.055465,0.000000,0.000000,0.020650,-3.490992,-0.519628,-81.119070,0.006863,0.016067,0.002078,-0.000791,0.006533,0.023315,0.002363,-0.003274,0.008851,0.061830,-0.013775,-0.008397,-0.009589,-0.038926,4.920218,1.957710,0.035713,0.091589,0.092722,0.082002,0.034807,0.035221,0.032499,0.000000,0.000000,0.000000,0.000000,0.000000,0.000000,
3.000000,0.101928,-0.001454,0.009307,0.002355,-0.014378,14.030025,2.236595,81.123483,0.174828,0.124246,-0.058751,0.250000,-0.002978,-0.004008,0.028887,0.007457,1.000000,0.000000,0.055465,0.000000,0.000000,0.020650,-3.489655,-0.518734,-81.135773,0.005283,0.028887,0.005135,-0.002555,0.019580,0.026991,0.011423,-0.002127,0.008851,0.061830,-0.013775,-0.008397,-0.009589,-0.038926,4.920358,1.958050,0.051243,0.151210,0.153175,0.133184,0.094172,0.095370,0.085660,0.000000,0.000000,0.000000,0.000000,0.000000,0.000000,
3.500000,0.101928,-0.001472,0.009440,0.002389,0.014404,14.030451,2.233935,81.134142,-0.288859,0.064073,0.272186,0.250000,0.005941,0.000023,-0.000609,-0.004224,2.000000,0.000000,1.161421,0.000000,0.000000,0.110220,-3.494208,-0.525271,-81.138401,0.009061,-0.000609,-0.006483,0.001495,-0.010049,0.034239,-0.006465,-0.012227,0.008677,0.059844,-0.014188,-0.008383,-0.009498,-0.038424,4.802258,1.930924,0.036067,0.054286,0.054335,0.047523,0.042443,0.042472,0.040486,0.000000,0.000000,0.000000,0.000000,0.000000,0.000000,
4.000000,0.101928,-0.001493,0.009583,0.002425,0.040425,14.030891,2.231341,81.144548,-0.363351,0.620585,0.272186,0.250000,0.008498,-0.000799,0.004468,-0.004563,2.000000,0.000000,1.161421,0.000000,0.000000,0.110220,-3.493191,-0.524226,-81.154920,0.008831,0.004468,-0.006970,0.000694,-0.005115,0.039068,-0.006257,-0.015964,0.008677,0.059844,-0.014188,-0.008383,-0.009498,-0.038424,4.802408,1.931289,0.051473,0.075893,0.075976,0.063201,0.070881,0.070944,0.066486,0.000000,0.000000,0.000000,0.000000,0.000000,0.000000,
4.500000,0.101928,-0.001456,0.009359,0.002368,0.018000,14.031258,2.228817,81.154642,0.319000,0.346090,0.064363,0.250000,0.006730,-0.000308,0.000597,-0.002343,3.000000,0.000000,0.055955,0.000000,0.000000,0.023861,-3.519374,-0.523346,-81.165624,0.009098,0.000597,-0.004695,0.001149,-0.008762,0.043852,-0.006425,-0.015378,0.008675,0.060248,-0.014118,-0.008376,-0.009458,-0.038205,4.786262,1.929106,0.042354,0.047224,0.047237,0.039028,0.051699,0.051707,0.048724,0.000000,0.000000,0.000000,0.000000,0.000000,0.000000,
5.000000,0.101928,-0.001478,0.009511,0.002406,0.039331,14.031752,2.226171,81.165294,-0.068654,-0.109352,0.064363,0.250000,0.007960,-0.001279,0.005889,-0.001920,3.000000,0.000000,0.055955,0.000000,0.000000,0.023861,-3.518307,-0.522232,-81.181933,0.008270,0.005890,-0.004307,0.000200,-0.003622,0.048325,-0.004508,-0.017789,0.008675,0.060248,-0.014118,-0.008376,-0.009458,-0.038205,4.786418,1.929492,0.056192,0.063436,0.063457,0.049106,0.072497,0.072514,0.067759,0.000000,0.000000,0.000000,0.000000,0.000000,0.000000,
5.500000,0.101928,-0.001443,0.009293,0.002351,0.012105,14.032114,2.223682,81.175244,-0.037953,-0.005659,-0.016004,0.250000,0.005126,-0.001002,0.003357,0.000160,4.000000,0.000000,0.007453,0.000000,0.000000,0.054957,-3.537654,-0.521688,-81.186653,0.008688,0.003357,-0.002263,0.000441,-0.005936,0.053284,-0.005233,-0.016136,0.008665,0.060492,-0.014101,-0.008347,-0.009391,-0.037810,4.781441,1.928818,0.041732,0.044600,0.044604,0.035154,0.059047,0.059051,0.055087,0.000000,0.000000,0.000000,0.000000,0.000000,0.000000,
6.000000,0.101929,-0.001463,0.009436,0.002387,0.028539,14.032491,2.221072,81.185677,-0.148266,0.126341,-0.016004,0.250000,0.005004,-0.001629,0.005159,0.000315,4.000000,0.000000,0.007453,0.000000,0.000000,0.054957,-3.536205,-0.520652,-81.202919,0.007408,0.005159,-0.001944,-0.000166,-0.004277,0.057338,-0.001887,-0.017195,0.008665,0.060492,-0.014101,-0.008347,-0.009391,-0.037810,4.781603,1.929222,0.055682,0.058978,0.058985,0.043243,0.075921,0.075928,0.070433,0.000000,0.000000,0.000000,0.000000,0.000000,0.000000,
6.500000,0.101928,-0.001485,0.009585,0.002425,0.042420,14.032886,2.218500,81.195970,-0.047557,-0.042513,0.310077,0.250000,0.019566,-0.002229,0.010528,-0.002800,5.000000,0.000000,1.423926,0.000000,0.000000,0.011400,-3.535759,-0.519552,-81.215770,0.007404,0.010528,-0.005208,-0.000744,0.000943,0.062415,-0.001811,-0.032938,0.008629,0.060398,-0.014184,-0.008293,-0.009388,-0.037710,4.779899,1.928906,0.050050,0.043432,0.043433,0.033099,0.064522,0.064524,0.059728,0.000000,0.000000,0.000000,0.000000,0.000000,0.000000,
7.000000,0.101928,-0.001449,0.009369,0.002370,0.007544,14.033208,2.215948,81.206140,0.098197,-0.538930,0.310077,0.250000,0.021161,-0.003271,0.014734,-0.002692,5.000000,0.000000,1.423926,0.000000,0.000000,0.011400,-3.534586,-0.518595,-81.232050,0.006149,0.014735,-0.005045,-0.001822,0.005365,0.065943,0.004529,-0.035714,0.008629,0.060398,-0.014184,-0.008293,-0.009388,-0.037710,4.780067,1.929326,0.062343,0.056993,0.056994,0.040213,0.079100,0.079103,0.072763,0.000000,0.000000,0.000000,0.000000,0.000000,0.000000,
7.500000,0.101928,-0.001473,0.009530,0.002411,0.016517,14.033686,2.213300,81.216790,0.093426,0.028037,0.115812,0.250000,0.023477,-0.001607,0.005535,-0.001829,6.000000,0.000000,0.147127,0.000000,0.000000,0.091682,-3.549875,-0.517877,-81.238627,0.007534,0.005536,-0.004114,-0.000134,-0.003995,0.072421,-0.004171,-0.039211,0.008578,0.060411,-0.014168,-0.008096,-0.009374,-0.037409,4.779693,1.929120,0.047236,0.042863,0.042863,0.031914,0.068420,0.068421,0.062927,0.000000,0.000000,0.000000,0.000000,0.000000,0.000000,
8.000000,0.101929,-0.001438,0.009319,0.002357,-0.023450,14.034057,2.210659,81.227338,-0.289215,-0.172587,0.115812,0.250000,0.024976,-0.002490,0.008417,-0.001653,6.000000,0.000000,0.147127,0.000000,0.000000,0.091682,-3.548688,-0.516811,-81.254491,0.006809,0.008418,-0.003977,-0.001052,-0.000902,0.076649,-0.002882,-0.041891,0.008578,0.060411,-0.014168,-0.008096,-0.009374,-0.037409,4.779866,1.929557,0.060006,0.056018,0.056016,0.038459,0.081609,0.081611,0.074446,0.000000,0.000000,0.000000,0.000000,0.000000,0.000000,
8.500000,0.101928,-0.001396,0.009054,0.002290,0.020746,14.034470,2.208149,81.237397,0.094230,-0.079489,-0.182153,0.250000,0.011759,-0.001481,0.004037,0.002306,7.000000,0.000000,0.638594,0.000000,0.000000,0.025644,-3.563715,-0.516966,-81.269820,0.007978,0.004038,-0.000058,-0.000086,-0.005017,0.082447,-0.007213,-0.029854,0.008560,0.060545,-0.014133,-0.007949,-0.009410,-0.037386,4.779433,1.929337,0.056678,0.042573,0.042571,0.031166,0.071104,0.071104,0.065014,0.000000,0.000000,0.000000,0.000000,0.000000,0.000000,
9.000000,0.101929,-0.001421,0.009230,0.002335,0.022148,14.034941,2.205588,81.247702,0.005331,-0.003220,-0.182153,0.250000,0.011268,-0.002060,0.004715,0.002491,7.000000,0.000000,0.638594,0.000000,0.000000,0.025644,-3.562591,-0.515915,-81.285847,0.007576,0.004716,0.000083,-0.000639,-0.004515,0.086873,-0.007616,-0.030544,0.008560,0.060545,-0.014133,-0.007949,-0.009410,-0.037386,4.779611,1.929785,0.067894,0.055518,0.055514,0.037335,0.083446,0.083447,0.075525,0.000000,0.000000,0.000000,0.000000,0.000000,0.000000,
9.500000,0.101929,-0.001445,0.009399,0.002378,0.021160,14.035354,2.203061,81.257836,0.232992,0.081896,-0.021797,0.250000,0.010396,-0.000928,-0.000309,0.001401,8.000000,0.000000,0.018060,0.000000,0.000000,0.024198,-3.570741,-0.516131,-81.295747,0.008498,-0.000309,-0.000956,0.000517,-0.009709,0.092505,-0.010175,-0.030853,0.008548,0.060620,-0.014160,-0.007843,-0.009413,-0.037196,4.779129,1.929550,0.053594,0.042425,0.042422,0.030656,0.072912,0.072913,0.066309,0.000000,0.000000,0.000000,0.000000,0.000000,0.000000,
10.000000,0.101929,-0.001468,0.009560,0.002418,0.017707,14.035618,2.200383,81.268461,0.172000,0.051790,-0.021797,0.250000,0.009556,-0.001757,0.001739,0.001801,8.000000,0.000000,0.018060,0.000000,0.000000,0.024198,-3.570028,-0.515149,-81.311646,0.007411,0.001740,-0.000491,-0.000289,-0.007821,0.096527,-0.008398,-0.031193,0.008548,0.060620,-0.014160,-0.007843,-0.009413,-0.037196,4.779312,1.930007,0.065235,0.055263,0.055258,0.036556,0.084737,0.084738,0.076140,0.000000,0.000000,0.000000,0.000000,0.000000,0.000000,
10.500000,0.806975,-0.100343,0.797751,-1.416507,0.047960,-4.496193,-0.579607,80.910333,-0.840574,-0.048562,0.020782,0.250000,0.645485,-0.088301,0.715335,-1.510479,9.000000,0.000000,0.001987,0.000000,0.000000,0.005736,-3.591025,-0.534994,-81.151948,0.724405,0.688599,-0.092177,0.012042,-0.082416,0.389480,0.268694,-0.058391,0.008543,0.060647,-0.014175,-0.007803,-0.009433,-0.037119,4.777867,1.929468,0.239869,0.067161,0.119415,0.122983,0.077165,0.089700,0.073696,0.000000,0.000000,0.000000,0.000000,0.000000,0.000000,
11.000000,1.565439,-0.047970,0.340494,-1.334328,0.045551,-3.899589,-0.417552,80.907300,-0.431802,-0.000914,0.020782,0.250000,1.399180,-0.033630,0.242822,-1.502738,9.000000,0.000000,0.001987,0.000000,0.000000,0.005736,-3.551810,-0.536754,-81.176341,0.317510,0.236220,-0.167243,0.014340,-0.097673,0.647328,0.496392,-0.123496,0.008543,0.060647,-0.014175,-0.007803,-0.009433,-0.037119,4.777863,1.929907,0.231980,0.076430,0.099914,0.227978,0.098003,0.131177,0.138979,0.000000,0.000000,0.000000,0.000000,0.000000,0.000000,
11.500000,2.231054,-0.033007,0.206943,-1.215510,0.050134,0.084189,-0.000121,80.903757,-0.019398,0.068815,1.606566,0.250000,2.172290,-0.014416,0.086187,-1.499432,10.000000,0.000000,0.059375,0.000000,0.000000,0.005736,-4.097788,-0.555766,-81.197038,0.195590,0.086156,-0.282591,0.018591,-0.120756,0.762957,0.549118,-0.260891,0.008697,0.070554,-0.016024,-0.007798,-0.009428,-0.037126,4.236227,1.929749,0.183514,0.085674,0.083785,0.295893,0.127893,0.158175,0.230263,0.000000,0.000000,0.000000,0.000000,0.000000,0.000000,
12.000000,2.844965,-0.036362,0.236498,-1.125745,0.050640,0.318039,0.053358,80.914123,-1.005127,-0.353053,1.606566,0.250000,2.922801,-0.015045,0.111239,-1.498465,10.000000,0.000000,0.059375,0.000000,0.000000,0.005736,-4.101700,-0.560013,-81.216971,0.224333,0.109879,-0.371385,0.021316,-0.125259,0.867611,0.596982,-0.424611,0.008697,0.070554,-0.016024,-0.007798,-0.009428,-0.037126,4.236415,1.930225,0.184011,0.096250,0.085595,0.392692,0.165049,0.190287,0.397166,0.000000,0.000000,0.000000,0.000000,0.000000,0.000000,
12.500000,3.486455,-0.035485,0.188354,-1.237407,0.047731,-1.109031,-0.051130,80.924963,0.097667,-0.183493,2.821227,0.250000,3.491545,-0.016578,0.055555,-1.502487,11.000000,0.000000,0.224146,0.000000,0.000000,0.005736,-2.416209,-0.524533,-81.292246,0.177060,0.060808,-0.264350,0.018907,-0.132799,0.967639,0.700237,-0.381410,0.008210,0.039625,-0.010282,-0.007806,-0.009444,-0.037103,2.313323,1.929150,0.133761,0.109452,0.095616,0.251407,0.209160,0.188360,0.307748,0.000000,0.000000,0.000000,0.000000,0.000000,0.000000,
13.000000,4.111466,-0.032382,0.130045,-1.182276,0.050768,-0.192444,-0.006039,80.934930,-0.038203,-0.080364,2.821227,0.250000,4.243002,-0.011043,-0.017302,-1.499453,11.000000,0.000000,0.224146,0.000000,0.000000,0.005736,-2.415288,-0.528138,-81.309918,0.122718,-0.005777,-0.316441,0.021340,-0.147346,1.039510,0.710629,-0.526834,0.008210,0.039625,-0.010282,-0.007806,-0.009444,-0.037103,2.313738,1.929636,0.138359,0.120596,0.108106,0.297302,0.260103,0.228760,0.441607,0.000000,0.000000,0.000000,0.000000,0.000000,0.000000,
13.500000,4.787018,-0.028927,0.092997,-1.353039,0.052114,-0.563160,-0.055410,80.945914,-0.046535,0.395962,3.986666,0.250000,4.684352,-0.010913,-0.079014,-1.504000,12.000000,0.000000,0.543686,0.000000,0.000000,0.005736,-0.989722,-0.497562,-81.380843,0.085776,-0.065044,-0.150639,0.018014,-0.172010,1.082011,0.742841,-0.309110,0.007773,0.013407,-0.005438,-0.007808,-0.009457,-0.037082,1.274025,1.929631,0.122944,0.135159,0.121533,0.168833,0.317829,0.268548,0.282620,0.000000,0.000000,0.000000,0.000000,0.000000,0.000000,
14.000000,5.467224,-0.026317,0.077453,-1.323673,0.047385,0.191303,0.003579,80.955975,0.228261,0.109291,3.986666,0.250000,5.436245,-0.006004,-0.114648,-1.499609,12.000000,0.000000,0.543686,0.000000,0.000000,0.005736,-0.990019,-0.501012,-81.397706,0.073502,-0.100740,-0.175614,0.020313,-0.192101,1.119424,0.698552,-0.390905,0.007773,0.013407,-0.005438,-0.007808,-0.009457,-0.037082,1.274834,1.930141,0.128933,0.147035,0.135069,0.190052,0.382278,0.325178,0.369011,0.000000,0.000000,0.000000,0.000000,0.000000,0.000000,
14.500000,6.181401,-0.025132,0.089466,-1.424100,0.051244,0.091630,-0.020445,80.966046,-0.088428,-0.007100,5.240851,0.250000,5.951626,-0.006034,-0.130345,-1.501844,13.000000,0.000000,0.516838,0.000000,0.000000,0.005736,-0.322055,-0.482476,-81.439495,0.085087,-0.119461,-0.077659,0.019097,-0.219811,1.149941,0.662805,-0.204043,0.007469,0.001125,-0.003183,-0.007804,-0.009464,-0.037073,0.875240,1.930442,0.130397,0.161135,0.148839,0.122469,0.453225,0.388270,0.254236,0.000000,0.000000,0.000000,0.000000,0.000000,0.000000,
15.000000,6.902500,-0.024615,0.109747,-1.407557,0.047361,0.386107,0.017527,80.976753,-0.113113,-0.010079,5.240851,0.250000,6.702852,-0.003080,-0.131981,-1.499007,13.000000,0.000000,0.516838,0.000000,0.000000,0.005736,-0.322374,-0.485623,-81.455744,0.107517,-0.124781,-0.091353,0.021535,-0.241728,1.197338,0.600454,-0.246538,0.007469,0.001125,-0.003183,-0.007804,-0.009464,-0.037073,0.876475,1.930981,0.136666,0.173964,0.162984,0.135002,0.530750,0.459658,0.314880,0.000000,0.000000,0.000000,0.000000,0.000000,0.000000,
15.500000,7.653877,-0.024165,0.137020,-1.485049,0.048444,0.272104,-0.014371,80.986964,-0.289485,0.010613,6.505140,0.250000,7.241677,-0.003265,-0.134325,-1.500480,14.000000,0.000000,0.654745,0.000000,0.000000,0.005736,0.097864,-0.461714,-81.488077,0.134299,-0.131800,-0.015452,0.020900,-0.271345,1.247291,0.542711,-0.050580,0.007056,-0.006584,-0.001774,-0.007797,-0.009468,-0.037067,0.709126,1.931263,0.141571,0.188489,0.177443,0.097067,0.614969,0.538313,0.232825,0.000000,0.000000,0.000000,0.000000,0.000000,0.000000,
16.000000,8.414097,-0.024139,0.166547,-1.476785,0.047869,0.436399,0.023499,80.997339,-0.216954,-0.369874,6.505140,0.250000,7.992613,-0.000562,-0.128261,-1.499184,14.000000,0.000000,0.654745,0.000000,0.000000,0.005736,0.097539,-0.464761,-81.504018,0.165951,-0.130397,-0.022351,0.023577,-0.294808,1.322084,0.476296,-0.060283,0.007056,-0.006584,-0.001774,-0.007797,-0.009468,-0.037067,0.710724,1.931825,0.147673,0.202291,0.192297,0.105879,0.706038,0.624382,0.279314,0.000000,0.000000,0.000000,0.000000,0.000000,0.000000,
16.500000,9.168778,-0.027369,0.206644,-1.453335,0.047136,0.502677,0.054074,81.007876,-0.466690,-0.305418,8.200264,0.250000,8.784657,-0.000194,-0.109579,-1.497620,15.000000,0.000000,0.036230,0.000000,0.000000,0.005736,0.035591,-0.475830,-81.517461,0.206475,-0.114795,-0.044403,0.027176,-0.316223,1.418324,0.415040,-0.120909,0.007192,-0.005438,-0.001984,-0.007799,-0.009467,-0.037068,0.633068,1.931924,0.153159,0.216361,0.207303,0.082534,0.803544,0.717868,0.217080,0.000000,0.000000,0.000000,0.000000,0.000000,0.000000,
17.000000,9.922803,-0.031291,0.245898,-1.445627,0.049492,0.446565,0.046251,81.017739,-0.140322,-0.459260,8.200264,0.250000,9.534622,-0.001038,-0.092829,-1.497930,15.000000,0.000000,0.036230,0.000000,0.000000,0.005736,0.037979,-0.478265,-81.533359,0.245244,-0.100260,-0.052367,0.030253,-0.338727,1.531670,0.361271,-0.145349,0.007192,-0.005438,-0.001984,-0.007799,-0.009467,-0.037068,0.634948,1.932507,0.159148,0.231182,0.222936,0.089699,0.908166,0.818959,0.255325,0.000000,0.000000,0.000000,0.000000,0.000000,0.000000,
17.500000,10.670086,-0.035776,0.281543,-1.417568,0.046406,0.429308,0.066525,81.028213,-0.254915,0.112069,9.780757,0.250000,10.343336,-0.001079,-0.076814,-1.496999,16.000000,0.000000,0.094019,0.000000,0.000000,0.005736,-0.029015,-0.498572,-81.546779,0.281279,-0.085363,-0.079467,0.034697,-0.358357,1.669849,0.317804,-0.239751,0.007491,-0.004165,-0.002219,-0.007800,-0.009467,-0.037069,0.595821,1.932263,0.164772,0.246218,0.238757,0.074014,1.019680,0.927736,0.205554,0.000000,0.000000,0.000000,0.000000,0.000000,0.000000,
18.000000,11.415201,-0.040354,0.314578,-1.409156,0.051642,0.390799,0.051543,81.037912,-0.505503,-0.298149,9.780757,0.250000,11.093197,-0.002125,-0.065643,-1.497659,16.000000,0.000000,0.094019,0.000000,0.000000,0.005736,-0.026936,-0.501073,-81.562513,0.313739,-0.074746,-0.088574,0.038229,-0.380221,1.818928,0.277745,-0.282010,0.007491,-0.004165,-0.002219,-0.007800,-0.009467,-0.037069,0.597901,1.932869,0.170589,0.262008,0.255199,0.080229,1.138848,1.044523,0.238783,0.000000,0.000000,0.000000,0.000000,0.000000,0.000000,
18.500000,12.170481,-0.041635,0.344128,-1.428505,0.047754,0.357328,0.001970,81.047380,-0.377017,0.033532,11.044186,0.250000,11.752412,-0.001805,-0.062234,-1.498534,17.000000,0.000000,0.275963,0.000000,0.000000,0.005736,0.061766,-0.465217,-81.581741,0.343539,-0.074553,-0.070093,0.039830,-0.406362,1.969912,0.232099,-0.227632,0.006842,-0.005762,-0.001917,-0.007800,-0.009467,-0.037068,0.577028,1.932157,0.176249,0.278523,0.272018,0.068757,1.265621,1.169372,0.197108,0.000000,0.000000,0.000000,0.000000,0.000000,0.000000,
19.000000,12.928546,-0.042853,0.372732,-1.420469,0.047585,0.368831,0.041084,81.058069,-0.480614,-0.021467,11.044186,0.250000,12.502644,0.000942,-0.055691,-1.497961,17.000000,0.000000,0.275963,0.000000,0.000000,0.005736,0.063226,-0.468243,-81.597660,0.374768,-0.071270,-0.077572,0.043795,-0.428424,2.149789,0.195249,-0.264795,0.006842,-0.005762,-0.001917,-0.007800,-0.009467,-0.037068,0.579239,1.932792,0.181853,0.295224,0.289282,0.074292,1.400675,1.302689,0.227126,0.000000,0.000000,0.000000,0.000000,0.000000,0.000000,
19.500000,13.699685,-0.043039,0.401512,-1.448267,0.049327,0.363515,-0.013691,81.067515,-0.348989,-0.090123,12.381961,0.250000,13.133270,0.001572,-0.054742,-1.499044,18.000000,0.000000,0.559823,0.000000,0.000000,0.005736,0.158826,-0.406616,-81.617150,0.403885,-0.074470,-0.050843,0.044611,-0.456253,2.320561,0.143388,-0.173193,0.005745,-0.007500,-0.001578,-0.007804,-0.009466,-0.037067,0.567817,1.931574,0.187427,0.312710,0.306987,0.065281,1.543759,1.444430,0.190866,0.000000,0.000000,0.000000,0.000000,0.000000,0.000000,
20.000000,14.474978,-0.043832,0.430004,-1.441648,0.047471,0.369057,0.046384,81.078442,-0.485913,-0.019271,12.381961,0.250000,13.883598,0.005125,-0.048530,-1.498454,18.000000,0.000000,0.559823,0.000000,0.000000,0.005736,0.160305,-0.409723,-81.633048,0.435750,-0.071937,-0.056762,0.048958,-0.478534,2.530859,0.106333,-0.200342,0.005745,-0.007500,-0.001578,-0.007804,-0.009466,-0.037067,0.570140,1.932235,0.192888,0.330320,0.325087,0.070324,1.695667,1.595083,0.218728,0.000000,0.000000,0.000000,0.000000,0.000000,0.000000,
20.500000,15.285484,-0.063773,1.131011,-1.452868,0.054477,14.432780,0.331919,81.112399,-1.356870,-0.395748,13.796055,0.250000,14.532314,-0.013046,0.594658,-1.492284,19.000000,0.000000,0.438919,0.000000,0.000000,0.005736,0.237890,-0.349183,-81.650410,1.098421,0.485886,-0.039589,0.050727,-0.536353,2.829499,0.140443,-0.121132,0.004661,-0.008710,-0.001332,-0.007809,-0.009465,-0.037066,0.563442,1.930751,0.198028,0.348516,0.343590,0.062785,1.855922,1.754528,0.186189,0.000000,0.000000,0.000000,0.000000,0.000000,0.000000,
21.000000,16.233629,-0.091909,2.485366,-1.443496,0.051835,16.139020,0.350996,81.128158,-2.603416,-0.163695,13.796055,0.250000,15.279704,-0.037149,1.925017,-1.493839,19.000000,0.000000,0.438919,0.000000,0.000000,0.005736,0.225791,-0.348031,-81.666246,2.426621,1.636044,-0.050435,0.054760,-0.560349,3.705900,0.666267,-0.143934,0.004661,-0.008710,-0.001332,-0.007809,-0.009465,-0.037066,0.565765,1.931460,0.203331,0.367061,0.362541,0.067723,2.025475,1.923336,0.212472,0.000000,0.000000,0.000000,0.000000,0.000000,0.000000,
21.500000,17.356010,-0.118605,3.867459,-1.453856,0.055906,16.226161,0.310266,81.126761,-3.795663,0.418712,15.258200,0.250000,15.960735,-0.062523,3.286887,-1.496952,20.000000,0.000000,0.221974,0.000000,0.000000,0.005736,0.264374,-0.299665,4.858990,0.532678,-0.308350,-0.043146,0.056081,-0.580572,3.352746,-0.465114,-0.097593,0.003861,-0.009406,-0.001184,-0.007845,-0.009463,-0.037066,0.562465,1.929600,0.208611,0.386270,0.382007,0.062103,2.203811,2.101557,0.182614,0.000000,0.000000,0.000000,0.000000,0.000000,0.000000,
22.000000,18.643936,-0.141017,5.196802,-1.443554,0.053099,16.229426,0.302056,81.135199,-5.179326,0.575849,15.258200,0.250000,16.710259,-0.082105,4.597831,-1.496728,20.000000,0.000000,0.221974,0.000000,0.000000,0.005736,0.265762,-0.297531,4.843153,0.541576,-0.417765,-0.053214,0.058912,-0.598971,3.621457,-0.646669,-0.121975,0.003861,-0.009406,-0.001184,-0.007845,-0.009463,-0.037066,0.565030,1.930286,0.213846,0.405798,0.401828,0.067510,2.391969,2.289418,0.207995,0.000000,0.000000,0.000000,0.000000,0.000000,0.000000,
22.500000,20.090120,-0.163659,6.455131,-1.440917,0.054701,16.033526,0.436374,81.184581,-5.992340,0.903198,16.971262,0.250000,17.500889,-0.105900,6.287911,-1.497216,21.000000,1.000000,0.200231,2.715447,0.000000,0.005736,0.485744,-0.452069,1.298173,0.135089,-0.107095,-0.056407,0.057758,-0.167219,1.176503,-0.131182,-0.189949,0.006604,-0.009338,-0.001303,-0.012321,-0.009460,-0.037087,0.506171,1.771520,0.218889,0.203285,0.160391,0.060443,0.892137,0.673136,0.179112,-2.767184,0.407913,-5.588149,-0.459180,0.418953,-0.001828,
23.000000,21.683953,-0.194124,7.628136,-1.434738,0.054487,16.006487,0.453137,81.199986,-7.527337,1.055563,16.971262,0.250000,18.250662,-0.134553,7.464026,-1.497199,21.000000,1.000000,0.200231,2.715447,0.000000,0.005736,0.489970,-0.450677,1.282346,0.130838,-0.129430,-0.062548,0.059571,-0.164110,1.243170,-0.190205,-0.219965,0.006604,-0.009338,-0.001303,-0.012321,-0.009460,-0.037087,0.508071,1.771631,0.224038,0.218670,0.173875,0.065096,0.975425,0.732981,0.203472,-2.767184,0.407913,-5.588149,-0.459180,0.418953,-0.001828,
23.500000,23.375356,-0.169998,7.395986,-1.422822,0.057632,-18.870316,-1.035891,80.904350,-7.135131,0.680228,18.323407,0.250000,18.977190,-0.079882,7.415782,-1.491311,22.000000,2.000000,0.037664,2.844051,0.000000,0.005736,0.538439,-0.566460,-0.283161,0.032932,0.124380,-0.062368,0.090117,0.019796,0.810624,0.567408,-0.224479,0.008512,-0.009839,-0.001268,-0.013491,-0.009653,-0.037031,0.507498,1.759527,0.230372,0.222426,0.152390,0.058764,0.914595,0.527017,0.176584,-0.859944,1.160702,4.795588,-0.127816,0.089122,0.043355,
24.000000,24.861266,-0.129326,5.072722,-1.413028,0.058523,-25.115075,-0.434359,80.657772,-5.026409,0.695783,18.323407,0.250000,19.721368,-0.033762,5.114518,-1.487977,22.000000,2.000000,0.037664,2.844051,0.000000,0.005736,0.589205,-0.573704,-0.290361,0.020714,0.120112,-0.074775,0.095564,0.041796,0.823953,0.628841,-0.259121,0.008512,-0.009839,-0.001268,-0.013491,-0.009653,-0.037031,0.514376,1.758171,0.234786,0.237897,0.166152,0.061388,1.009366,0.579412,0.199815,-0.859944,1.160702,4.795588,-0.127816,0.089122,0.043355,
24.500000,26.049201,-0.120019,2.639431,-1.421309,0.063902,-25.586594,-0.051132,80.487026,-2.610396,0.364031,19.804668,0.250000,20.435175,-0.011435,2.740151,-1.495497,23.000000,3.000000,0.008652,5.886247,0.000000,0.005736,0.619159,-0.540473,1.223245,-0.048691,0.058995,-0.074339,0.108584,0.100719,0.282483,0.194450,-0.262267,0.007693,-0.009941,-0.001218,-0.013714,-0.009753,-0.037033,0.513528,1.748397,0.239394,0.253168,0.154671,0.056691,1.110934,0.473018,0.173806,-1.398251,-0.756132,-2.539664,0.629502,-0.161373,0.379565,
25.000000,26.967583,-0.122108,0.896833,-1.441433,0.050105,-9.139933,0.078175,80.449111,-0.910219,0.037712,19.804668,0.250000,21.189536,-0.006888,0.966169,-1.517582,23.000000,3.000000,0.008652,5.886247,0.000000,0.005736,0.671053,-0.549277,1.211646,-0.037011,0.102260,-0.077079,0.115220,0.069337,0.260759,0.236594,-0.300586,0.007693,-0.009941,-0.001218,-0.013714,-0.009753,-0.037033,0.516390,1.748265,0.244295,0.269977,0.168815,0.061305,1.224508,0.527344,0.195905,-1.398251,-0.756132,-2.539664,0.629502,-0.161373,0.379565,
25.500000,27.782829,-0.091142,0.620981,-1.452381,0.051040,0.402504,-0.586986,80.504460,-0.626684,0.029077,20.976956,0.250000,21.818963,-0.037916,0.758823,-1.507682,24.000000,4.000000,1.288836,2.939153,0.000000,0.005736,0.736194,-0.523677,0.383334,-0.127844,0.071140,-0.055299,0.053226,0.137843,-0.109723,0.401185,-0.202641,0.007970,-0.010741,-0.001054,-0.014991,-0.008843,-0.037131,0.511140,1.735176,0.249777,0.257993,0.157930,0.057174,1.251531,0.452437,0.171868,-0.742430,0.365029,5.847101,-0.223981,-0.349108,-0.161933,
26.000000,28.589856,-0.059014,0.705977,-1.442653,0.047887,1.005448,-0.122165,80.523362,-0.512911,0.271647,20.976956,0.250000,22.571939,-0.001366,0.852667,-1.501192,24.000000,4.000000,1.288836,2.939153,0.000000,0.005736,0.730134,-0.526686,0.373263,-0.137511,0.076007,-0.058629,0.057647,0.146690,-0.175689,0.438133,-0.231381,0.007970,-0.010741,-0.001054,-0.014991,-0.008843,-0.037131,0.512709,1.735492,0.254480,0.274094,0.171946,0.060878,1.367982,0.510779,0.194113,-0.742430,0.365029,5.847101,-0.223981,-0.349108,-0.161933,
26.500000,29.404453,-0.029241,0.726150,-1.446431,0.048496,-0.220298,-0.471172,80.530592,-0.809552,0.232838,22.577306,0.250000,23.279034,-0.025161,0.926734,-1.499071,25.000000,5.000000,0.192981,2.610340,0.000000,0.005736,0.781704,-0.540924,0.278665,-0.197271,0.033224,-0.052831,0.004080,0.200584,-0.492047,0.302945,-0.214404,0.008810,-0.011131,-0.000994,-0.015437,-0.008112,-0.037208,0.508046,1.720655,0.259657,0.250723,0.159233,0.056442,1.350038,0.446820,0.171085,-0.678354,-0.385946,6.305846,0.143610,-0.087729,0.041720,
27.000000,30.215566,-0.004149,0.701092,-1.441952,0.045367,-0.141615,-0.100942,80.539488,-1.197078,-0.230620,22.577306,0.250000,24.029500,0.001484,0.915073,-1.498026,25.000000,5.000000,0.192981,2.610340,0.000000,0.005736,0.788033,-0.543975,0.267756,-0.210494,0.036640,-0.056166,0.005633,0.213981,-0.593768,0.320593,-0.241894,0.008810,-0.011131,-0.000994,-0.015437,-0.008112,-0.037208,0.509842,1.721020,0.264414,0.265681,0.173123,0.060187,1.462332,0.508426,0.193272,-0.678354,-0.385946,6.305846,0.143610,-0.087729,0.041720,
27.500000,31.024495,-0.025289,0.752699,-1.437637,0.051799,1.147155,0.449363,80.554044,-0.864226,0.459332,24.233635,0.250000,24.798599,0.025562,0.869211,-1.497979,26.000000,6.000000,0.065497,1.756899,0.000000,0.005736,0.706252,-0.506779,0.390618,-0.109453,0.063071,-0.060562,0.050851,0.116511,-0.263145,0.420978,-0.290405,0.007656,-0.010898,-0.001013,-0.013943,-0.008597,-0.037138,0.504783,1.707573,0.269050,0.234715,0.158466,0.055743,1.402653,0.447018,0.170538,0.990350,0.200817,-2.545503,0.211985,-0.039186,0.058808,
28.000000,31.841277,-0.051796,0.813079,-1.434404,0.050814,0.361905,0.163167,80.560584,-1.021357,-0.020957,24.233635,0.250000,25.548647,0.001471,0.939636,-1.498131,26.000000,6.000000,0.065497,1.756899,0.000000,0.005736,0.711888,-0.506695,0.371172,-0.117618,0.067132,-0.063837,0.053268,0.126557,-0.319644,0.453695,-0.321752,0.007656,-0.010898,-0.001013,-0.013943,-0.008597,-0.037138,0.506838,1.707973,0.274150,0.248416,0.172127,0.059369,1.505483,0.510321,0.192479,0.990350,0.200817,-2.545503,0.211985,-0.039186,0.058808,
28.500000,32.666900,-0.069839,0.902949,-1.438924,0.047031,1.611315,0.252914,80.572698,-0.960993,0.352216,25.588567,0.250000,26.266883,0.014627,0.880777,-1.497727,27.000000,7.000000,0.103999,3.813021,0.000000,0.005736,0.609180,-0.424422,0.409170,0.032221,0.073523,-0.058854,0.084466,-0.022172,0.242493,0.509758,-0.319860,0.005935,-0.010769,-0.000990,-0.011896,-0.008863,-0.037070,0.502565,1.697301,0.279028,0.213215,0.156334,0.055063,1.406479,0.448313,0.169926,1.463040,0.096112,2.171343,0.161621,-0.119326,-0.371077,
29.000000,33.505684,-0.084353,0.986898,-1.435855,0.047196,0.503410,0.111391,80.580503,-1.010076,0.152411,25.588567,0.250000,27.017013,0.004296,0.967844,-1.497685,27.000000,7.000000,0.103999,3.813021,0.000000,0.005736,0.613932,-0.424577,0.391665,0.031513,0.077771,-0.062021,0.088648,-0.019054,0.258673,0.547737,-0.350338,0.005935,-0.010769,-0.000990,-0.011896,-0.008863,-0.037070,0.504531,1.697798,0.284025,0.225827,0.169764,0.058620,1.496035,0.511961,0.191548,1.463040,0.096112,2.171343,0.161621,-0.119326,-0.371077,
29.500000,34.363454,-0.089525,0.924366,-1.480518,0.048111,-1.291461,0.051992,80.591501,-0.974055,-0.026516,26.606979,0.250000,27.566152,0.017059,1.037851,-1.499136,28.000000,8.000000,3.060749,3.147097,0.000000,0.005736,0.701766,-0.198590,0.416288,-0.093792,0.115882,-0.018743,0.106584,0.113485,-0.175808,0.778421,-0.163671,0.001951,-0.010759,-0.000802,-0.013666,-0.008867,-0.037088,0.501060,1.690199,0.288959,0.191997,0.153759,0.054506,1.381364,0.448994,0.169249,-0.898478,0.646043,0.353976,-0.520729,-0.386693,-0.031415,
30.000000,35.213751,-0.094271,0.843478,-1.477573,0.050284,-0.357800,0.085905,80.600991,0.009798,0.279247,26.606979,0.250000,28.316683,0.017234,0.963064,-1.498335,28.000000,8.000000,3.060749,3.147097,0.000000,0.005736,0.705771,-0.201471,0.400915,-0.100266,0.122686,-0.020986,0.111505,0.119586,-0.224090,0.838263,-0.173868,0.001951,-0.010759,-0.000802,-0.013666,-0.008867,-0.037088,0.502926,1.690771,0.293842,0.203921,0.167007,0.058008,1.456819,0.512190,0.190561,-0.898478,0.646043,0.353976,-0.520729,-0.386693,-0.031415,
30.500000,36.059582,-0.056608,0.848539,-1.479133,0.047422,0.424067,-0.727207,80.610470,-0.817063,0.021400,28.417452,0.250000,29.052364,-0.024740,0.941382,-1.497822,29.000000,9.000000,0.010030,0.722189,0.000000,0.005736,0.700605,-0.205038,0.001341,-0.086729,0.047775,-0.018840,0.031868,0.092843,-0.207031,0.615384,-0.168983,0.002811,-0.011055,-0.000774,-0.013205,-0.007975,-0.037116,0.500283,1.685810,0.299173,0.177321,0.151190,0.054108,1.377308,0.448749,0.168575,0.112001,-0.539674,1.497270,0.134411,-0.237253,0.119370,
31.000000,36.906254,-0.017137,0.868490,-1.477184,0.048687,0.168904,-0.156453,80.623517,-0.887226,0.336713,28.417452,0.250000,29.802446,0.017403,0.968821,-1.497945,29.000000,9.000000,0.010030,0.722189,0.000000,0.005736,0.705992,-0.207564,-0.007544,-0.093444,0.050860,-0.020870,0.034540,0.100331,-0.251814,0.640208,-0.179162,0.002811,-0.011055,-0.000774,-0.013205,-0.007975,-0.037116,0.501876,1.686478,0.303705,0.188970,0.164315,0.057606,1.441966,0.511108,0.189643,0.112001,-0.539674,1.497270,0.134411,-0.237253,0.119370,
31.500000,37.756735,0.066059,0.867459,-1.487845,0.048063,0.018545,-1.478611,80.631814,-0.835199,0.184547,29.803115,0.250000,30.505387,-0.056629,0.972855,-1.498695,30.000000,10.000000,0.195351,5.299781,0.000000,0.005736,0.742567,-0.206799,-0.673821,-0.122228,-0.090279,-0.010877,-0.122688,0.105396,-0.402915,0.083828,-0.138659,0.004222,-0.011614,-0.000705,-0.013164,-0.006421,-0.037174,0.499985,1.683811,0.309429,0.166159,0.149087,0.053877,1.374263,0.447845,0.168000,-0.241951,-1.342617,7.977534,0.034074,-0.067698,0.228937,
32.000000,38.604992,0.148120,0.860819,-1.485491,0.047974,0.006258,-0.413704,80.642133,-0.740613,0.403670,29.803115,0.250000,31.255569,0.022587,0.973987,-1.498113,30.000000,10.000000,0.195351,5.299781,0.000000,0.005736,0.747227,-0.208208,-0.675922,-0.129650,-0.093523,-0.012693,-0.125533,0.113168,-0.465588,0.038028,-0.144807,0.004222,-0.011614,-0.000705,-0.013164,-0.006421,-0.037174,0.501351,1.684527,0.313532,0.177795,0.162144,0.057370,1.429541,0.509327,0.188920,-0.241951,-1.342617,7.977534,0.034074,-0.067698,0.228937,
32.500000,39.447868,0.093999,0.885209,-1.471775,0.048144,0.574982,1.216294,80.660524,-1.270748,0.214912,31.593894,0.250000,32.065532,0.080381,0.951665,-1.497383,31.000000,11.000000,0.525895,5.317933,0.000000,0.005736,0.701813,-0.281065,-0.331906,-0.067464,0.000993,-0.025790,-0.013618,0.066456,-0.269875,0.272566,-0.216042,0.004090,-0.011383,-0.000758,-0.012473,-0.007838,-0.037169,0.498592,1.683635,0.317778,0.158395,0.147534,0.053720,1.376375,0.446995,0.167570,0.495608,0.239791,-4.923591,0.324195,0.894069,0.468964,
33.000000,40.294225,0.022846,0.910497,-1.469843,0.047906,0.176496,0.374851,80.665409,-0.915807,0.152458,31.593894,0.250000,32.815488,0.008337,0.983316,-1.497444,31.000000,11.000000,0.525895,5.317933,0.000000,0.005736,0.706956,-0.281341,-0.358074,-0.073400,0.002962,-0.027791,-0.014508,0.072819,-0.304851,0.273756,-0.229687,0.004090,-0.011383,-0.000758,-0.012473,-0.007838,-0.037169,0.500654,1.684194,0.322806,0.170186,0.160554,0.057183,1.423947,0.507734,0.188391,0.495608,0.239791,-4.923591,0.324195,0.894069,0.468964,
33.500000,41.144308,0.030283,0.967770,-1.469168,0.046479,1.107256,-0.352023,80.668281,-0.957100,-0.413890,32.956933,0.250000,33.564177,-0.015386,0.937683,-1.497677,32.000000,12.000000,0.001541,2.193552,0.000000,0.005736,0.650919,-0.262890,-0.474462,0.021997,-0.041483,-0.028609,-0.045669,-0.030087,0.079962,0.072874,-0.242572,0.004105,-0.011488,-0.000752,-0.011237,-0.007527,-0.037157,0.498621,1.683768,0.327922,0.153140,0.146517,0.053581,1.381596,0.445868,0.167251,1.037407,-0.505193,1.905509,0.049712,0.009483,0.198547,
34.000000,42.001855,0.051895,1.022397,-1.467165,0.047750,0.348282,-0.115541,80.681506,-0.997257,0.384768,32.956933,0.250000,34.314201,0.006534,0.994647,-1.497578,32.000000,12.000000,0.001541,2.193552,0.000000,0.005736,0.655661,-0.264667,-0.487903,0.021116,-0.040649,-0.030574,-0.045361,-0.027750,0.091001,0.052520,-0.257613,0.004105,-0.011488,-0.000752,-0.011237,-0.007527,-0.037157,0.500304,1.684460,0.332602,0.165165,0.159530,0.057014,1.422696,0.506054,0.187991,1.037407,-0.505193,1.905509,0.049712,0.009483,0.198547,
34.500000,42.875977,0.018859,1.052201,-1.500764,0.048821,0.516826,0.672872,80.697163,-1.441507,0.200521,34.035749,0.250000,34.915477,0.041861,0.976592,-1.499077,33.000000,13.000000,1.786009,1.823138,0.000000,0.005736,0.650284,-0.239822,-0.320395,0.078667,0.014919,0.001488,0.023002,-0.075608,0.302684,0.288264,-0.111876,0.002974,-0.011950,-0.000620,-0.010625,-0.008186,-0.037153,0.497547,1.684452,0.337094,0.149723,0.145998,0.053440,1.384740,0.445037,0.166999,0.325432,0.682396,3.389784,0.371021,-0.107886,-0.081363,
35.000000,43.757936,-0.020479,1.073366,-1.498221,0.047352,0.204583,0.225580,80.705113,-1.089411,0.160080,34.035749,0.250000,35.665852,0.004585,0.996705,-1.498040,33.000000,13.000000,1.786009,1.823138,0.000000,0.005736,0.655084,-0.239648,-0.341557,0.080490,0.017881,0.000078,0.025064,-0.076661,0.342715,0.296654,-0.111744,0.002974,-0.011950,-0.000620,-0.010625,-0.008186,-0.037153,0.499483,1.685073,0.342007,0.162001,0.159012,0.056841,1.420252,0.504888,0.187663,0.325432,0.682396,3.389784,0.371021,-0.107886,-0.081363,
35.500000,44.637893,0.010482,1.044995,-1.493423,0.046466,-0.455773,-0.684658,80.717883,-1.014817,0.160078,35.855613,0.250000,36.433394,-0.032493,1.021475,-1.497641,34.000000,14.000000,0.035450,1.038457,0.000000,0.005736,0.694652,-0.216213,-0.437664,0.018345,-0.037566,-0.004374,-0.042976,-0.023521,0.126143,0.068258,-0.130936,0.003333,-0.011946,-0.000629,-0.011240,-0.007428,-0.037151,0.496989,1.684773,0.347175,0.147754,0.145635,0.053286,1.393223,0.444017,0.166779,-0.589178,-0.552524,0.258113,-0.127526,-0.099888,0.148693,
36.000000,45.511031,0.049390,1.012728,-1.492316,0.052329,-0.066802,-0.190139,80.725774,-0.943337,0.273725,35.855613,0.250000,37.183446,0.007250,0.990117,-1.497859,34.000000,14.000000,0.035450,1.038457,0.000000,0.005736,0.696632,-0.218636,-0.447601,0.017186,-0.037336,-0.005734,-0.042140,-0.022611,0.135268,0.049680,-0.133714,0.003333,-0.011946,-0.000629,-0.011240,-0.007428,-0.037151,0.498661,1.685460,0.351684,0.160239,0.158653,0.056656,1.424482,0.503632,0.187364,-0.589178,-0.552524,0.258113,-0.127526,-0.099888,0.148693,
36.500000,46.385384,0.015707,0.970420,-1.505935,0.048464,-0.584631,0.725295,80.731023,-0.904558,0.146030,37.135984,0.250000,37.875030,0.040916,1.016645,-1.498383,35.000000,15.000000,0.390815,8.509040,0.000000,0.005736,0.755164,-0.267842,-0.439094,-0.039107,0.038703,0.007294,0.025209,0.046225,-0.085450,0.338357,-0.073222,0.003396,-0.012195,-0.000573,-0.011974,-0.008171,-0.037165,0.495746,1.685120,0.356112,0.146965,0.145508,0.053123,1.412335,0.443528,0.166570,-0.570814,0.718855,13.421513,-0.017747,0.123582,0.158728,
37.000000,47.255696,-0.026942,0.931827,-1.503895,0.046073,-0.116359,0.246250,80.744370,-0.668921,0.393333,37.135984,0.250000,38.625179,0.000590,0.982691,-1.497609,35.000000,15.000000,0.390815,8.509040,0.000000,0.005736,0.757060,-0.268227,-0.461456,-0.044187,0.042719,0.006079,0.027532,0.050864,-0.106054,0.358886,-0.070127,0.003396,-0.012195,-0.000573,-0.011974,-0.008171,-0.037165,0.497584,1.685765,0.360984,0.159572,0.158519,0.056462,1.441144,0.503040,0.187073,-0.570814,0.718855,13.421513,-0.017747,0.123582,0.158728,
37.500000,48.126969,-0.037746,0.937977,-1.511490,0.046306,0.319824,0.070156,80.754266,-0.921968,0.065729,38.641048,0.250000,39.335925,-0.001672,0.969025,-1.498433,36.000000,16.000000,0.161361,0.246972,0.000000,0.005736,0.751374,-0.268780,-0.488002,-0.023859,0.048699,0.012991,0.036074,0.031047,-0.025934,0.393718,-0.025231,0.003370,-0.012356,-0.000542,-0.011704,-0.008225,-0.037162,0.494723,1.685102,0.365771,0.146736,0.145430,0.052953,1.438967,0.442966,0.166361,0.239848,0.051734,0.725793,0.046862,-0.044422,-0.181330,
38.000000,49.000461,-0.041260,0.949711,-1.509803,0.047348,0.126802,0.040401,80.764616,-0.620092,-0.098767,38.641048,0.250000,40.086002,-0.001490,0.986021,-1.497534,36.000000,16.000000,0.161361,0.246972,0.000000,0.005736,0.756385,-0.270100,-0.504432,-0.028110,0.053614,0.012047,0.039770,0.036310,-0.038678,0.419473,-0.019228,0.003370,-0.012356,-0.000542,-0.011704,-0.008225,-0.037162,0.496512,1.685759,0.370502,0.159394,0.158431,0.056264,1.466761,0.502423,0.186777,0.239848,0.051734,0.725793,0.046862,-0.044422,-0.181330,
38.500000,49.874421,-0.062872,0.977766,-1.507706,0.051902,0.691347,0.451660,80.777916,-1.027710,0.144525,40.322896,0.250000,40.856549,0.019540,0.955617,-1.497981,37.000000,17.000000,0.105142,3.744551,0.000000,0.005736,0.722345,-0.291955,-0.549923,0.035768,0.086303,0.009585,0.082412,-0.022149,0.259144,0.583608,-0.034952,0.003331,-0.012347,-0.000547,-0.011072,-0.008589,-0.037155,0.493305,1.684810,0.375080,0.146058,0.144786,0.052777,1.466396,0.440826,0.166143,0.855198,0.407655,-3.426730,-0.137013,-0.136189,0.660286,
39.000000,50.753419,-0.090709,1.011003,-1.506573,0.052185,0.253384,0.194094,80.786077,-1.019386,0.091795,40.322896,0.250000,41.606591,-0.003019,0.992261,-1.497831,37.000000,17.000000,0.105142,3.744551,0.000000,0.005736,0.726785,-0.291983,-0.569008,0.033834,0.093041,0.008578,0.087691,-0.018742,0.276795,0.628645,-0.030669,0.003331,-0.012347,-0.000547,-0.011072,-0.008589,-0.037155,0.495181,1.685433,0.379861,0.158712,0.157748,0.056060,1.493506,0.499880,0.186467,0.855198,0.407655,-3.426730,-0.137013,-0.136189,0.660286,
39.500000,51.637287,-0.075769,1.004687,-1.515035,0.048877,-0.120129,-0.440770,80.795517,-1.008058,0.093168,41.624416,0.250000,42.316875,-0.030561,1.003604,-1.498122,38.000000,18.000000,0.138909,0.894301,0.000000,0.005736,0.750979,-0.260733,-0.525796,0.009977,0.054213,0.016701,0.045208,-0.001083,0.198211,0.518215,0.016330,0.003377,-0.012526,-0.000514,-0.011211,-0.008035,-0.037157,0.492395,1.684176,0.384795,0.145695,0.144462,0.052603,1.492519,0.439353,0.165918,-0.246553,-0.296842,3.664528,0.011077,-0.224733,-0.008557,
40.000000,52.519385,-0.049488,0.989154,-1.513895,0.049206,-0.014387,-0.110713,80.805295,-1.038511,-0.291777,41.624416,0.250000,43.066993,-0.000295,0.991689,-1.497883,38.000000,18.000000,0.138909,0.894301,0.000000,0.005736,0.753354,-0.263212,-0.537436,0.007099,0.058324,0.015790,0.049194,0.002535,0.202722,0.546506,0.024214,0.003377,-0.012526,-0.000514,-0.011211,-0.008035,-0.037157,0.494060,1.684844,0.389354,0.158339,0.157398,0.055859,1.519101,0.498211,0.186149,-0.246553,-0.296842,3.664528,0.011077,-0.224733,-0.008557,
40.500000,53.401876,-0.058228,1.026140,-1.515345,0.049720,0.987248,0.273625,80.818825,-1.108020,0.128594,43.159663,0.250000,43.806849,0.013348,0.943214,-1.498062,39.000000,19.000000,0.018136,2.365643,0.000000,0.005736,0.701515,-0.290840,-0.590873,0.093633,0.066829,0.017103,0.071576,-0.082925,0.536929,0.554891,0.042671,0.003513,-0.012616,-0.000505,-0.010247,-0.008304,-0.037148,0.490968,1.683614,0.393906,0.145630,0.144261,0.052434,1.522819,0.438490,0.165688,0.674563,-0.174564,5.186476,0.365546,0.249990,-0.021955,
41.000000,54.291754,-0.076454,1.078241,-1.513899,0.048063,0.385841,0.146933,80.827774,-1.172557,-0.032737,43.159663,0.250000,44.556899,-0.000206,0.995921,-1.497546,39.000000,19.000000,0.018136,2.365643,0.000000,0.005736,0.704981,-0.291392,-0.608328,0.094671,0.072447,0.016157,0.076248,-0.082320,0.584266,0.589917,0.050736,0.003513,-0.012616,-0.000505,-0.010247,-0.008304,-0.037148,0.492788,1.684235,0.398621,0.158258,0.157170,0.055664,1.549602,0.497245,0.185828,0.674563,-0.174564,5.186476,0.365546,0.249990,-0.021955,
41.500000,55.184749,-0.069464,1.079999,-1.514335,0.052053,-0.023944,-0.239969,80.836589,-1.499672,0.382548,44.710831,0.250000,45.312948,-0.017434,1.006861,-1.497965,40.000000,20.000000,0.003666,4.394106,0.000000,0.005736,0.714180,-0.273035,-0.615058,0.082342,0.050762,0.016125,0.052030,-0.073137,0.548261,0.502767,0.052604,0.003479,-0.012622,-0.000502,-0.010294,-0.008044,-0.037146,0.490065,1.682830,0.403422,0.145573,0.144118,0.052272,1.551446,0.437966,0.165459,-0.301455,-0.352685,8.851064,0.185397,0.071148,0.432976,
42.000000,56.076126,-0.055464,1.069802,-1.513281,0.048755,0.038648,-0.039745,80.846739,-1.955613,0.143310,44.710831,0.250000,46.062931,0.000758,0.996791,-1.497694,40.000000,20.000000,0.003666,4.394106,0.000000,0.005736,0.716652,-0.275593,-0.628481,0.082962,0.054752,0.015338,0.056221,-0.073011,0.589831,0.529305,0.060216,0.003479,-0.012622,-0.000502,-0.010294,-0.008044,-0.037146,0.491762,1.683475,0.408018,0.158176,0.157003,0.055478,1.578265,0.496666,0.185509,-0.301455,-0.352685,8.851064,0.185397,0.071148,0.432976,
42.500000,56.957300,-0.000316,1.103226,-1.487049,0.050554,0.879816,-1.163737,80.847460,-1.048692,0.154556,46.426485,0.250000,46.911697,-0.055608,0.957883,-1.497294,41.000000,21.000000,0.531371,5.976782,0.000000,0.005736,0.633559,-0.158944,-0.494201,0.134707,-0.067525,-0.010465,-0.055292,-0.145343,0.765222,0.102423,-0.041014,0.002791,-0.012074,-0.000589,-0.009440,-0.006770,-0.037158,0.489567,1.682074,0.413159,0.145625,0.143935,0.052127,1.583843,0.437658,0.165233,0.069662,-0.894812,7.333274,0.570159,-0.571720,-0.399667,
43.000000,57.839991,0.068296,1.148988,-1.486156,0.050320,0.375775,-0.360315,80.866453,-1.204037,0.245338,46.426485,0.250000,47.661539,0.012260,1.000902,-1.497681,41.000000,21.000000,0.531371,5.976782,0.000000,0.005736,0.637072,-0.159936,-0.501302,0.138525,-0.069542,-0.011709,-0.056036,-0.148086,0.833808,0.068323,-0.046814,0.002791,-0.012074,-0.000589,-0.009440,-0.006770,-0.037158,0.490862,1.682799,0.417446,0.158206,0.156797,0.055319,1.611210,0.496294,0.185202,0.069662,-0.894812,7.333274,0.570159,-0.571720,-0.399667,
43.500000,58.721421,0.088785,1.120219,-1.480975,0.048757,-0.665153,-0.218360,80.877188,-1.017953,0.048648,47.911234,0.250000,48.443907,0.006923,1.044756,-1.497793,42.000000,22.000000,0.134057,6.579915,0.000000,0.005736,0.672090,-0.135015,-0.569791,0.064517,-0.082405,-0.016988,-0.081861,-0.075463,0.495263,0.009942,-0.087333,0.002557,-0.011942,-0.000604,-0.010026,-0.006539,-0.037150,0.488157,1.681668,0.422035,0.145753,0.143798,0.052000,1.615893,0.437534,0.165021,-1.300545,0.006261,4.508439,0.536618,-0.145483,0.650804,
44.000000,59.595313,0.099606,1.072649,-1.479954,0.046837,-0.150312,-0.056332,80.886294,-1.016353,0.165006,47.911234,0.250000,49.193921,0.014560,0.995959,-1.497950,42.000000,22.000000,0.134057,6.579915,0.000000,0.005736,0.674309,-0.137589,-0.583763,0.064498,-0.086113,-0.018196,-0.085046,-0.076690,0.527742,-0.032033,-0.096379,0.002557,-0.011942,-0.000604,-0.010026,-0.006539,-0.037150,0.489883,1.682290,0.426624,0.158298,0.156634,0.055172,1.643741,0.496114,0.184916,-1.300545,0.006261,4.508439,0.536618,-0.145483,0.650804,
44.500000,60.462381,0.092813,1.033429,-1.474034,0.047601,-0.565089,0.167806,80.895694,-1.415861,0.657652,49.379280,0.250000,49.959914,0.022355,1.023523,-1.498020,43.000000,23.000000,0.025933,3.205098,0.000000,0.005736,0.719294,-0.140733,-0.629026,0.001682,-0.060510,-0.024074,-0.070459,-0.009906,0.381526,0.036024,-0.123867,0.002382,-0.011834,-0.000619,-0.010790,-0.006706,-0.037150,0.487253,1.681373,0.431194,0.146228,0.143672,0.051883,1.655054,0.437523,0.164823,-0.170302,0.244572,-6.340379,-0.615309,0.088229,-0.174617,
45.000000,61.322720,0.082924,0.994212,-1.472190,0.047354,-0.119806,0.040690,80.906535,-1.016277,0.618958,49.379280,0.250000,50.709904,0.009752,0.987763,-1.497324,43.000000,23.000000,0.025933,3.205098,0.000000,0.005736,0.720993,-0.140383,-0.646398,-0.002920,-0.062426,-0.025448,-0.073173,-0.006448,0.381439,0.005458,-0.136489,0.002382,-0.011834,-0.000619,-0.010790,-0.006706,-0.037150,0.489015,1.681981,0.435864,0.158731,0.156484,0.055040,1.684238,0.496049,0.184652,-0.170302,0.244572,-6.340379,-0.615309,0.088229,-0.174617,
45.500000,62.182061,0.151492,0.930454,-1.483564,0.049361,-1.135523,-1.532238,80.932935,-0.819296,0.177642,50.663654,0.250000,51.401920,-0.068615,1.044083,-1.498624,44.000000,24.000000,0.334919,5.194863,0.000000,0.005736,0.806919,-0.048770,-0.498947,-0.143803,-0.188391,-0.015214,-0.220108,0.113629,-0.170132,-0.517907,-0.087325,0.002407,-0.012025,-0.000582,-0.011893,-0.005291,-0.037202,0.486746,1.681112,0.441157,0.146891,0.143590,0.051780,1.697548,0.437484,0.164641,-1.300553,-1.123916,4.133940,-0.240829,-0.275636,-0.203439,
46.000000,63.029476,0.244262,0.856113,-1.481201,0.046837,-0.359763,-0.563432,80.931163,-0.811217,0.375300,50.663654,0.250000,52.152101,0.016284,0.979023,-1.497747,44.000000,24.000000,0.334919,5.194863,0.000000,0.005736,0.810145,-0.048599,-0.501509,-0.154924,-0.196548,-0.016657,-0.227978,0.122910,-0.244563,-0.614012,-0.095546,0.002407,-0.012025,-0.000582,-0.011893,-0.005291,-0.037202,0.488300,1.681731,0.445328,0.159354,0.156388,0.054923,1.728199,0.495972,0.184409,-1.300553,-1.123916,4.133940,-0.240829,-0.275636,-0.203439,
46.500000,63.872712,0.213675,0.853118,-1.485597,0.047690,0.326936,1.015889,80.941730,-0.840771,0.348334,52.252900,0.250000,52.885890,0.078166,0.956925,-1.497711,45.000000,25.000000,0.011895,1.984421,0.000000,0.005736,0.796496,-0.127073,-0.642948,-0.121838,-0.108503,-0.012337,-0.135509,0.103807,-0.157392,-0.333785,-0.086144,0.002570,-0.012131,-0.000566,-0.011597,-0.006284,-0.037146,0.485388,1.681053,0.449526,0.147824,0.143504,0.051682,1.744814,0.437733,0.164474,0.341555,0.870475,2.551196,0.186366,0.215004,0.289165,
47.000000,64.719024,0.150859,0.866697,-1.484811,0.052167,0.113664,0.316489,80.949207,-0.621732,0.181250,52.252900,0.250000,53.636009,0.009155,0.980781,-1.497935,45.000000,25.000000,0.011895,1.984421,0.000000,0.005736,0.800574,-0.127336,-0.668302,-0.133137,-0.111255,-0.013353,-0.141704,0.114085,-0.220902,-0.388507,-0.092820,0.002570,-0.012131,-0.000566,-0.011597,-0.006284,-0.037146,0.487315,1.681590,0.454270,0.160244,0.156283,0.054801,1.777338,0.496178,0.184183,0.341555,0.870475,2.551196,0.186366,0.215004,0.289165,
47.500000,65.561145,0.104996,0.867010,-1.470528,0.050712,0.088592,0.770766,80.959942,-0.833531,0.242418,53.915585,0.250000,54.438501,0.041803,0.980668,-1.497538,46.000000,26.000000,0.213794,1.676772,0.000000,0.005736,0.781949,-0.168965,-0.759752,-0.119703,-0.032982,-0.027162,-0.063193,0.113659,-0.221143,-0.120131,-0.157426,0.002372,-0.011901,-0.000605,-0.011450,-0.007082,-0.037100,0.484659,1.680725,0.458788,0.148384,0.143364,0.051585,1.790219,0.437664,0.164316,0.055287,0.753734,-3.466605,0.258253,0.170815,-0.166606,
48.000000,66.402229,0.061735,0.863376,-1.469712,0.047449,-0.002885,0.204019,80.969950,-0.923901,0.601222,53.915585,0.250000,55.188433,-0.002872,0.986951,-1.498181,46.000000,26.000000,0.213794,1.676772,0.000000,0.005736,0.786474,-0.168347,-0.783538,-0.129947,-0.031449,-0.028484,-0.064607,0.123575,-0.283330,-0.136047,-0.171602,0.002372,-0.011901,-0.000605,-0.011450,-0.007082,-0.037100,0.486526,1.681283,0.463514,0.160765,0.156122,0.054695,1.823756,0.496037,0.183971,0.055287,0.753734,-3.466605,0.258253,0.170815,-0.166606,
48.500000,67.241412,0.070164,0.855102,-1.466390,0.050366,-0.016823,-0.308894,80.980110,-1.227868,0.221040,55.419011,0.250000,55.960831,-0.019717,0.987141,-1.497719,47.000000,27.000000,0.093583,3.169140,0.000000,0.005736,0.782620,-0.141594,-0.819096,-0.142247,-0.053663,-0.031564,-0.089881,0.132039,-0.392065,-0.171660,-0.209653,0.002322,-0.011861,-0.000610,-0.011372,-0.006759,-0.037115,0.484122,1.680351,0.468261,0.148757,0.143249,0.051502,1.833831,0.437339,0.164170,-0.206679,0.211202,0.624804,0.213646,-0.562650,0.629201,
49.000000,68.078446,0.089974,0.846051,-1.465320,0.046216,-0.029873,-0.129125,80.990406,-0.841469,0.199300,55.419011,0.250000,56.710824,-0.001392,0.988015,-1.498141,47.000000,27.000000,0.093583,3.169140,0.000000,0.005736,0.786193,-0.143300,-0.832693,-0.151995,-0.053660,-0.032906,-0.091367,0.141964,-0.465374,-0.198330,-0.226022,0.002322,-0.011861,-0.000610,-0.011372,-0.006759,-0.037115,0.485793,1.680965,0.472807,0.161105,0.155989,0.054598,1.867916,0.495649,0.183775,-0.206679,0.211202,0.624804,0.213646,-0.562650,0.629201,
49.500000,68.918631,0.067234,0.859035,-1.474884,0.049178,0.459046,0.574340,81.002538,-1.086585,0.401865,56.726358,0.250000,57.414726,0.029755,0.963051,-1.498011,48.000000,28.000000,0.145943,0.763349,0.000000,0.005736,0.770552,-0.198830,-0.866824,-0.106472,-0.007220,-0.023343,-0.037479,0.104016,-0.315676,-0.041159,-0.192817,0.002639,-0.012071,-0.000579,-0.010944,-0.007263,-0.037086,0.483050,1.680132,0.477232,0.149029,0.143178,0.051421,1.876728,0.437099,0.164034,0.542431,0.430169,-0.791755,0.093071,0.090442,0.102005,
50.000000,69.763176,0.032353,0.878528,-1.473394,0.048715,0.134102,0.190981,81.011230,-1.835671,0.158459,56.726358,0.250000,58.164816,-0.004784,0.991160,-1.497611,48.000000,28.000000,0.145943,0.763349,0.000000,0.005736,0.774770,-0.198611,-0.888020,-0.114757,-0.004210,-0.024406,-0.037138,0.112633,-0.370747,-0.043804,-0.205003,0.002639,-0.012071,-0.000579,-0.010944,-0.007263,-0.037086,0.484899,1.680691,0.481905,0.161348,0.155902,0.054502,1.911113,0.495368,0.183592,0.542431,0.430169,-0.791755,0.093071,0.090442,0.102005,
50.500000,70.616829,0.026430,0.863716,-1.495784,0.051706,-0.242768,-0.001105,81.021520,-0.701049,-0.579210,58.021760,0.250000,58.816525,-0.009958,1.003726,-1.498720,49.000000,29.000000,0.791857,2.236604,0.000000,0.005736,0.807712,-0.225029,-0.874796,-0.141131,0.000979,-0.003089,-0.036389,0.140010,-0.571873,-0.010941,-0.110655,0.003155,-0.012478,-0.000516,-0.011005,-0.007250,-0.037091,0.482429,1.679673,0.486542,0.148980,0.143146,0.051338,1.915215,0.436824,0.163905,-0.575390,0.164162,4.016451,0.449530,-0.163329,0.079315,
51.000000,71.469567,0.027712,0.840986,-1.494061,0.046366,-0.098572,-0.013433,81.032150,-1.525900,0.709536,58.021760,0.250000,59.566715,-0.007585,0.989583,-1.497830,49.000000,29.000000,0.791857,2.236604,0.000000,0.005736,0.809725,-0.226290,-0.891049,-0.149599,0.003484,-0.003943,-0.035297,0.148597,-0.644326,-0.009669,-0.112659,0.003155,-0.012478,-0.000516,-0.011005,-0.007250,-0.037091,0.484147,1.680267,0.491132,0.161273,0.155855,0.054400,1.949297,0.495075,0.183415,-0.575390,0.164162,4.016451,0.449530,-0.163329,0.079315,
51.500000,72.329588,0.047265,0.857438,-1.517092,0.052695,0.576028,-0.408946,81.040848,-0.654068,0.073201,59.503838,0.250000,60.229750,-0.028145,0.956829,-1.498636,50.000000,30.000000,0.401243,2.815570,0.000000,0.005736,0.797614,-0.229495,-0.920408,-0.108497,-0.043037,0.018283,-0.075411,0.099391,-0.519462,-0.219317,-0.019288,0.003638,-0.012872,-0.000453,-0.010509,-0.006914,-0.037099,0.481818,1.679196,0.495826,0.149014,0.143115,0.051250,1.955367,0.436648,0.163777,0.479768,-0.540232,-1.507498,0.084620,-0.012586,0.705719,
52.000000,73.195293,0.071456,0.884710,-1.515946,0.047427,0.191330,-0.134796,81.052619,-1.267201,-0.213191,59.503838,0.250000,60.979983,-0.004084,0.991256,-1.498014,50.000000,30.000000,0.401243,2.815570,0.000000,0.005736,0.801762,-0.231474,-0.932522,-0.114577,-0.041870,0.017734,-0.075540,0.106546,-0.574952,-0.240359,-0.010531,0.003638,-0.012872,-0.000453,-0.010509,-0.006914,-0.037099,0.483406,1.679817,0.500325,0.161291,0.155811,0.054295,1.989315,0.494890,0.183237,0.479768,-0.540232,-1.507498,0.084620,-0.012586,0.705719,
52.500000,74.062329,0.071707,0.923528,-1.512805,0.052005,0.874401,0.080022,81.064500,-0.665831,0.233500,61.060123,0.250000,61.723192,0.003131,0.951843,-1.497922,51.000000,31.000000,0.030830,4.682800,0.000000,0.005736,0.746201,-0.236253,-0.928857,-0.037256,-0.048059,0.014667,-0.068576,0.028315,-0.326063,-0.230698,0.004003,0.003691,-0.012836,-0.000460,-0.009724,-0.006894,-0.037091,0.480866,1.678688,0.504845,0.148659,0.143008,0.051163,1.991100,0.436559,0.163648,0.619295,0.282330,-3.275401,0.369322,-0.438844,-0.782642,
53.000000,74.935202,0.066327,0.967247,-1.512082,0.049679,0.295439,0.024326,81.074236,-0.951652,0.200359,61.060123,0.250000,62.473197,-0.002952,0.998917,-1.497914,51.000000,31.000000,0.030830,4.682800,0.000000,0.005736,0.749826,-0.236986,-0.945410,-0.039738,-0.047244,0.014013,-0.069279,0.031670,-0.345056,-0.254307,0.010922,0.003691,-0.012836,-0.000460,-0.009724,-0.006894,-0.037091,0.482601,1.679267,0.509431,0.160923,0.155686,0.054197,2.024357,0.494759,0.183059,0.619295,0.282330,-3.275401,0.369322,-0.438844,-0.782642,
53.500000,75.809270,0.031539,0.984117,-1.506443,0.048047,0.349033,0.733609,81.088371,-1.044254,0.492791,62.665627,0.250000,63.247070,0.033164,0.986959,-1.497341,52.000000,32.000000,0.033925,3.411122,0.000000,0.005736,0.733906,-0.288320,-0.913832,-0.000028,0.016452,0.008897,0.001625,0.002842,-0.172692,-0.025885,-0.008068,0.003798,-0.012801,-0.000470,-0.009480,-0.007488,-0.037084,0.479953,1.678214,0.513863,0.148071,0.142905,0.051083,2.022186,0.436454,0.163521,0.525761,0.581577,7.624954,-0.062325,0.141204,0.186210,
54.000000,76.685648,-0.012059,0.996440,-1.506290,0.050063,0.137797,0.243748,81.096301,-1.007967,0.044817,62.665627,0.250000,63.997049,-0.008349,1.000904,-1.497803,52.000000,32.000000,0.033925,3.411122,0.000000,0.005736,0.737932,-0.288198,-0.935808,-0.001440,0.020132,0.008261,0.003710,0.004465,-0.172835,-0.016538,-0.004037,0.003798,-0.012801,-0.000470,-0.009480,-0.007488,-0.037084,0.481814,1.678747,0.518517,0.160326,0.155569,0.054105,2.054334,0.494615,0.182886,0.525761,0.581577,7.624954,-0.062325,0.141204,0.186210,
54.500000,77.556748,-0.064508,1.045482,-1.484686,0.045387,1.149837,0.988908,81.115200,-1.034098,0.108856,64.367130,0.250000,64.834577,0.037027,0.947519,-1.496976,53.000000,33.000000,0.568078,4.819062,0.000000,0.005736,0.655683,-0.341792,-0.874781,0.113570,0.098144,-0.012407,0.101534,-0.097963,0.245965,0.364835,-0.095692,0.003823,-0.012553,-0.000517,-0.008529,-0.008176,-0.037071,0.479135,1.677854,0.522965,0.147485,0.142802,0.051011,2.052161,0.436368,0.163399,0.820644,1.119609,3.224283,0.558203,-0.360231,0.000102,
55.000000,78.435380,-0.122743,1.107033,-1.484314,0.049697,0.446912,0.345373,81.115706,-0.575270,0.276355,64.367130,0.250000,65.584463,-0.015049,1.006317,-1.497576,53.000000,33.000000,0.568078,4.819062,0.000000,0.005736,0.658123,-0.341945,-0.897719,0.117833,0.105998,-0.013472,0.107694,-0.100716,0.304044,0.416104,-0.102431,0.003823,-0.012553,-0.000517,-0.008529,-0.008176,-0.037071,0.481142,1.678335,0.527621,0.159747,0.155450,0.054026,2.083227,0.494495,0.182722,0.820644,1.119609,3.224283,0.558203,-0.360231,0.000102,
55.500000,79.057088,0.324848,0.421291,-0.417040,0.043976,-20.472211,-10.912748,82.495375,-0.435934,0.413713,65.492563,0.250000,66.019598,0.390512,0.347875,-0.447156,54.000000,34.000000,0.510874,0.643288,0.000000,0.005736,0.688716,-0.353245,-1.057660,0.109982,0.068114,0.004495,0.065664,-0.073416,0.319901,0.392418,-0.018695,0.004050,-0.012820,-0.000472,-0.008645,-0.007980,-0.037069,0.462853,1.684707,0.541695,0.147084,0.141139,0.051099,2.076847,0.436350,0.163285,-0.052430,-0.144635,-3.629938,-0.128763,-0.096560,0.007981,
56.000000,78.848212,0.892895,-0.703947,0.597730,0.080859,-11.254644,-5.623723,80.952499,1.187104,0.662489,65.492563,0.250000,65.843790,0.964671,-0.792945,0.625990,54.000000,34.000000,0.510874,0.643288,0.000000,0.005736,0.733235,-0.325866,-1.012547,0.136173,0.047644,0.006683,0.071776,-0.088998,0.382352,0.420334,-0.015233,0.004050,-0.012820,-0.000472,-0.008645,-0.007980,-0.037069,0.486871,1.677333,0.540117,0.165367,0.152189,0.054778,2.103719,0.493406,0.182637,-0.052430,-0.144635,-3.629938,-0.128763,-0.096560,0.007981,
56.500000,78.478825,1.079644,-1.165885,0.236789,0.059688,-0.993192,0.491376,80.308498,1.321545,0.762957,66.110196,0.250000,65.737445,1.196257,-1.211224,0.225125,55.000000,35.000000,1.013976,0.883820,0.000000,0.005736,0.734481,-0.341291,-0.891664,0.080624,0.084333,-0.018006,0.116613,-0.045339,0.196082,0.587104,-0.135285,0.003981,-0.012461,-0.000532,-0.009211,-0.008102,-0.037114,0.494104,1.670536,0.540798,0.148165,0.140883,0.051777,2.054319,0.436657,0.163337,-0.579173,0.391978,1.523476,-0.180922,-0.054152,0.024013,
57.000000,78.251601,0.988699,-1.119282,0.066668,0.053140,0.927232,0.864738,80.312584,1.431520,0.769052,66.110196,0.250000,65.682273,1.115525,-1.165373,0.049475,55.000000,35.000000,1.013976,0.883820,0.000000,0.005736,0.720593,-0.351074,-0.902089,0.079057,0.094935,-0.018535,0.126825,-0.046091,0.236316,0.632158,-0.144655,0.003981,-0.012461,-0.000532,-0.009211,-0.008102,-0.037114,0.495789,1.671130,0.545295,0.159019,0.153634,0.054745,2.076603,0.494104,0.182820,-0.579173,0.391978,1.523476,-0.180922,-0.054152,0.024013,
