Time ,N (m),E (m),gndAlt,velLL X  ,velLL Y  ,velLL Z  ,Roll ,Pitch,Yaw  ,Body Accel Z,GPS Timestamp,Nav Alt,Nav vel N,Nav vel E,Nav vel D,Baro Update Count,GPS Update Count,Accel Update Count,Ground Align Update Count,Nav Accel Roll,Nav Accel Pitch,Nav Roll,Nav Pitch,Nav Yaw,Gyro Bias X (deg/s),Gyro Bias Y (deg/s),Gyro Bias Z (deg/s),Accel Bias X (g),Accel Bias Y (g),Accel Bias Z (g),Roll Error,Pitch Error,Yaw Error,Vel N Error,Vel E Error,Vel D Error,Alt Error (m),Roll Stdev,Pitch Stdev,N Stdev,E Stdev,Alt Stdev,VN Stdev,VE Stdev,VD Stdev,control mode,takeOff,crashLand,onGround,movingDetection,
0.500000,-0.000000,-0.000000,0.098772,-0.000000,0.000000,0.000000,0.000000,0.000000,45.000000,-0.000000,0.000000,0.000000,0.000000,0.000000,0.000000,0.000000,0.000000,0.000000,0.000000,0.000000,0.000000,0.000000,0.000000,0.000000,0.000000,0.000000,0.000000,0.000000,0.000000,0.000000,0.000000,0.000000,0.000000,0.000000,0.000000,0.000000,0.000000,0.000000,0.000000,0.000000,0.000000,0.000000,0.000000,0.000000,0.000000,0.000000,0.000000,0.000000,1.000000,0.000000,
1.000000,-0.000000,-0.000000,0.098772,-0.000000,0.000000,0.000000,0.000000,0.000000,45.000000,-0.000000,0.000000,0.000000,0.000000,0.000000,0.000000,0.000000,0.000000,0.000000,0.000000,0.000000,0.000000,0.000000,0.000000,0.000000,0.000000,0.000000,0.000000,0.000000,0.000000,0.000000,0.000000,0.000000,0.000000,0.000000,0.000000,0.000000,0.000000,0.000000,0.000000,0.000000,0.000000,0.000000,0.000000,0.000000,0.000000,0.000000,0.000000,0.000000,1.000000,0.000000,
1.500000,-0.000000,-0.000000,0.098772,-0.000000,0.000000,0.000000,0.000000,0.000000,45.000000,0.000000,1.020104,0.000000,0.000000,0.000000,0.000000,0.000000,0.000000,0.000000,0.000000,-2.060298,0.052148,-2.495256,-0.341344,0.000000,0.000000,0.000000,0.000000,0.000000,0.000000,0.000000,0.000000,0.000000,0.000000,0.000000,0.000000,0.000000,-0.000000,1.547738,0.887923,3.333333,3.333333,3.333333,0.333333,0.333333,0.333333,1.000000,0.000000,0.000000,1.000000,0.000000,
2.000000,-0.000000,-0.000000,0.098815,-0.000000,0.000000,-0.000001,0.000000,0.000000,45.000000,0.000019,1.020104,-0.000189,0.002324,-0.002294,0.001935,0.000000,0.000000,0.000000,0.000000,-0.765600,1.301257,-2.492641,-0.344550,-0.002789,0.010687,0.089466,-0.039084,0.015059,-0.012969,-0.081239,-2.492641,-0.344550,-45.002789,0.002324,-0.002294,0.001936,-0.000996,1.548629,0.890082,3.335059,3.335076,3.335051,0.339810,0.346881,0.336443,1.000000,0.000000,0.000000,1.000000,0.000000,
2.500000,-0.000000,-0.000000,0.098815,-0.000000,0.000000,-0.000000,0.000000,0.000000,45.000000,-0.000000,2.020104,-0.074770,0.003227,-0.002433,0.003625,1.000000,0.000000,0.000000,1.000000,-2.060298,0.052148,-2.488902,-0.349208,-0.006972,0.010687,0.089466,-0.039084,0.015077,-0.013022,-0.081239,-2.488902,-0.349208,-45.006972,0.003227,-0.002433,0.003626,0.073585,1.550116,0.893608,0.332939,0.333857,0.200798,0.098232,0.142096,0.065665,1.000000,0.000000,0.000000,1.000000,0.000000,
3.000000,-0.000000,-0.000000,0.098815,-0.000000,0.000000,-0.000000,0.000000,0.000000,45.000000,-0.000000,2.020104,-0.077331,0.007208,-0.004916,0.006917,1.000000,0.000000,0.000000,1.000000,-0.765600,1.301257,-2.485162,-0.353866,-0.010998,0.010687,0.089466,-0.039084,0.015077,-0.013022,-0.081239,-2.485162,-0.353866,-45.010998,0.007208,-0.004916,0.006918,0.076146,1.551715,0.897319,0.344268,0.358888,0.207301,0.171962,0.268575,0.087904,1.000000,0.000000,0.000000,1.000000,0.000000,
3.500000,-0.000000,-0.000000,0.098815,-0.000000,0.000000,-0.000000,0.000000,0.000000,45.000000,0.000000,3.020104,-0.080797,0.001526,0.000584,0.004327,2.000000,0.000000,0.000000,2.000000,-2.060298,0.052148,-2.481272,-0.358467,-0.073969,0.010687,0.089466,-0.039084,0.015644,-0.013523,-0.081228,-2.481272,-0.358467,-45.073969,0.001526,0.000584,0.004327,0.079612,1.553425,0.901210,0.237700,0.237817,0.144688,0.079884,0.083763,0.064578,1.000000,0.000000,0.000000,1.000000,0.000000,
4.000000,-0.000000,-0.000000,0.098815,-0.000000,0.000000,-0.000000,0.000000,0.000000,45.000000,0.000000,3.020104,-0.083663,0.003524,0.001205,0.007440,2.000000,0.000000,0.000000,2.000000,-0.765600,1.301257,-2.477531,-0.363124,-0.077995,0.010687,0.089466,-0.039084,0.015644,-0.013523,-0.081228,-2.477531,-0.363124,-45.077995,0.003524,0.001205,0.007440,0.082478,1.555250,0.905283,0.247759,0.248947,0.154241,0.121819,0.129655,0.086729,1.000000,0.000000,0.000000,1.000000,0.000000,
4.500000,-0.000000,-0.000000,0.098815,-0.000000,0.000000,-0.000000,0.000000,0.000000,45.000000,-0.000000,4.020104,-0.085468,0.001487,0.001183,0.004348,3.000000,0.000000,0.000000,3.000000,-2.060298,0.052148,-2.473794,-0.367734,-0.014575,0.010687,0.089466,-0.039084,0.015816,-0.013494,-0.081214,-2.473794,-0.367734,-45.014575,0.001487,0.001183,0.004349,0.084282,1.557187,0.909532,0.196497,0.196578,0.121706,0.072842,0.074493,0.064538,1.000000,0.000000,0.000000,1.000000,0.000000,
5.000000,-0.000000,-0.000000,0.098815,-0.000000,0.000000,-0.000000,0.000000,0.000000,45.000000,-0.000000,4.020104,-0.088327,0.003436,0.002297,0.007392,3.000000,0.000000,0.000000,3.000000,-0.765600,1.301257,-2.470053,-0.372390,-0.018602,0.010687,0.089466,-0.039084,0.015816,-0.013494,-0.081214,-2.470053,-0.372390,-45.018602,0.003436,0.002297,0.007393,0.087142,1.559236,0.913956,0.206646,0.207185,0.133352,0.105976,0.109096,0.086659,1.000000,0.000000,0.000000,1.000000,0.000000,
5.500000,-0.000000,-0.000000,0.098815,-0.000000,0.000000,-0.000000,0.000000,0.000000,45.000000,0.000000,5.020104,-0.044793,0.001779,0.001672,0.002283,4.000000,0.000000,0.000000,4.000000,-2.060298,0.052148,-2.466350,-0.377009,0.061669,0.010687,0.089466,-0.039084,0.015930,-0.013440,-0.081197,-2.466350,-0.377009,-44.938331,0.001779,0.001672,0.002284,0.043607,1.561395,0.918552,0.172920,0.173005,0.109497,0.069848,0.071019,0.064515,1.000000,0.000000,0.000000,1.000000,0.000000,
6.000000,-0.000000,-0.000000,0.098815,-0.000000,0.000000,-0.000000,0.000000,0.000000,45.000000,0.000000,5.020104,-0.046601,0.003963,0.003161,0.005254,4.000000,0.000000,0.000000,4.000000,-0.765600,1.301257,-2.462608,-0.381665,0.057642,0.010687,0.089466,-0.039084,0.015930,-0.013440,-0.081197,-2.462608,-0.381665,-44.942358,0.003963,0.003161,0.005254,0.045415,1.563666,0.923318,0.183514,0.183919,0.122540,0.099343,0.101412,0.086614,1.000000,0.000000,0.000000,1.000000,0.000000,
6.500000,-0.000000,-0.000000,0.098815,-0.000000,0.000000,-0.000000,0.000000,0.000000,45.000000,0.000000,6.040104,-0.016021,0.002191,0.002097,0.002169,5.000000,0.000000,0.000000,5.000000,-2.060298,0.052148,-2.458921,-0.386298,0.148872,0.010687,0.089466,-0.039084,0.016026,-0.013378,-0.081185,-2.458921,-0.386298,-44.851128,0.002191,0.002097,0.002169,0.014836,1.566046,0.928251,0.157690,0.157789,0.102305,0.068269,0.069264,0.064496,1.000000,0.000000,0.000000,1.000000,0.000000,
7.000000,-0.000000,-0.000000,0.098815,-0.000000,0.000000,-0.000000,0.000000,0.000000,45.000000,-0.000000,6.040104,-0.017759,0.004692,0.003920,0.005090,5.000000,0.000000,0.000000,5.000000,-0.765600,1.301257,-2.455179,-0.390953,0.144844,0.010687,0.089466,-0.039084,0.016026,-0.013378,-0.081185,-2.455179,-0.390953,-44.855156,0.004692,0.003920,0.005091,0.016574,1.568536,0.933349,0.168750,0.169119,0.116288,0.095813,0.097489,0.086578,1.000000,0.000000,0.000000,1.000000,0.000000,
7.500000,-0.000000,-0.000000,0.098815,-0.000000,0.000000,-0.000000,0.000000,0.000000,45.000000,0.000000,7.040104,-0.038295,0.002639,0.002508,0.005130,6.000000,0.000000,0.000000,6.000000,-2.060298,0.052148,-2.451527,-0.395554,0.242640,0.010687,0.089465,-0.039084,0.016117,-0.013313,-0.081177,-2.451527,-0.395554,-44.757360,0.002639,0.002508,0.005130,0.037110,1.571135,0.938608,0.147184,0.147301,0.097847,0.067304,0.068216,0.064482,2.000000,0.000000,0.000000,1.000000,0.000000,
8.000000,-0.000000,-0.000000,0.098815,-0.000000,0.000000,-0.000000,0.000000,0.000000,45.000000,-0.000000,7.040104,-0.041507,0.005487,0.004650,0.008025,6.000000,0.000000,0.000000,6.000000,-0.765600,1.301257,-2.447784,-0.400209,0.238612,0.010687,0.089465,-0.039084,0.016117,-0.013313,-0.081177,-2.447784,-0.400209,-44.761388,0.005487,0.004650,0.008025,0.040322,1.573843,0.944026,0.158656,0.159017,0.112462,0.093638,0.095124,0.086549,2.000000,0.000000,0.000000,1.000000,0.000000,
8.500000,-0.000000,-0.000000,0.098815,-0.000000,0.000000,-0.000000,0.000000,0.000000,45.000000,0.000000,8.040104,-0.030061,0.003104,0.002925,0.003513,7.000000,0.000000,0.000000,7.000000,-2.060298,0.052148,-2.444201,-0.404797,0.331646,0.010687,0.089465,-0.039084,0.016204,-0.013250,-0.081162,-2.444201,-0.404797,-44.668354,0.003104,0.002925,0.003514,0.028876,1.576659,0.949600,0.139642,0.139778,0.095006,0.066657,0.067522,0.064469,2.000000,0.000000,0.000000,1.000000,0.000000,
9.000000,-0.000000,-0.000000,0.098815,-0.000000,0.000000,-0.000000,0.000000,0.000000,45.000000,-0.000000,8.040104,-0.032449,0.006310,0.005389,0.006343,7.000000,0.000000,0.000000,7.000000,-0.765600,1.301257,-2.440457,-0.409451,0.327617,0.010687,0.089465,-0.039084,0.016204,-0.013250,-0.081162,-2.440457,-0.409451,-44.672383,0.006310,0.005389,0.006344,0.031263,1.579583,0.955328,0.151458,0.151822,0.110044,0.092167,0.093547,0.086522,2.000000,0.000000,0.000000,1.000000,0.000000,
9.500000,-0.000000,-0.000000,0.098815,-0.000000,0.000000,-0.000000,0.000000,0.000000,45.000000,0.000000,9.040104,0.008447,0.003584,0.003337,0.000989,8.000000,0.000000,0.000000,8.000000,-2.060298,0.052148,-2.436868,-0.414084,0.422404,0.010687,0.089465,-0.039084,0.016290,-0.013187,-0.081147,-2.436868,-0.414084,-44.577596,0.003584,0.003337,0.000990,-0.009632,1.582612,0.961207,0.134088,0.134242,0.093166,0.066194,0.067030,0.064458,2.000000,0.000000,0.000000,1.000000,0.000000,
10.000000,-0.000000,-0.000000,0.098815,-0.000000,0.000000,-0.000000,0.000000,0.000000,45.000000,-0.000000,9.040104,0.007338,0.007160,0.006123,0.003757,8.000000,0.000000,0.000000,8.000000,-0.765600,1.301257,-2.433123,-0.418737,0.418374,0.010687,0.089465,-0.039084,0.016290,-0.013187,-0.081147,-2.433123,-0.418737,-44.581626,0.007160,0.006123,0.003757,-0.008523,1.585749,0.967234,0.146180,0.146553,0.108486,0.091110,0.092424,0.086498,2.000000,0.000000,0.000000,1.000000,0.000000,
10.500000,-0.021905,0.014266,0.747712,-0.026394,0.134012,-1.509246,2.020042,0.376500,45.003340,-0.027272,10.040104,0.662551,-0.011056,0.069240,-1.507399,9.000000,0.000000,0.000000,9.000000,-2.080174,0.052651,-0.385100,-0.044609,0.508058,0.010687,0.089465,-0.039084,0.016373,-0.013121,-0.081139,-2.429592,-0.423771,-44.495139,0.099752,-0.005042,0.001979,-0.028045,1.588949,0.973405,0.130385,0.131346,0.091962,0.099857,0.082197,0.064475,2.000000,1.000000,0.000000,1.000000,1.000000,
11.000000,-0.103985,0.069332,1.501634,-0.045790,0.227199,-1.505191,0.219548,0.090843,44.993989,-0.049286,10.040104,1.415105,-0.028129,0.169940,-1.501266,9.000000,0.000000,0.000000,9.000000,-0.743393,1.307084,-2.179467,-0.332461,0.506579,0.010687,0.089465,-0.039084,0.016373,-0.013121,-0.081139,-2.423657,-0.425908,-44.487209,0.164497,0.041837,0.003820,-0.026640,1.592323,0.979719,0.158057,0.149442,0.107483,0.197828,0.109872,0.086601,2.000000,1.000000,0.000000,1.000000,1.000000,
11.500000,-0.220951,0.146792,2.256387,-0.070688,0.353632,-1.509562,2.228371,0.407222,44.996946,-0.065521,11.040104,2.156030,-0.049130,0.294787,-1.499484,10.000000,0.000000,0.000000,9.000000,-2.050098,0.052555,-0.199125,-0.026694,0.495900,0.010680,0.089464,-0.039084,0.016373,-0.013121,-0.081147,-2.419469,-0.431578,-44.500742,0.248165,0.096595,0.009940,-0.012850,1.595697,0.986173,0.244754,0.185005,0.124834,0.323496,0.138540,0.102633,1.000000,1.000000,0.000000,0.000000,0.000000,
12.000000,-0.411940,0.275248,3.012132,-0.106659,0.552186,-1.510732,2.400525,0.437880,44.994920,-0.056636,11.040104,2.906357,-0.081993,0.496106,-1.498709,10.000000,0.000000,0.000000,9.000000,-0.717120,1.305923,-0.015964,0.000063,0.488472,0.010680,0.089464,-0.039084,0.016373,-0.013121,-0.081147,-2.416913,-0.436582,-44.506174,0.380901,0.183081,0.012003,-0.007444,1.599252,0.992763,0.432190,0.241189,0.164072,0.527880,0.174266,0.118757,1.000000,1.000000,0.000000,0.000000,0.000000,
12.500000,-0.686640,0.461740,3.753172,-0.143293,0.754022,-1.472385,2.446189,0.446120,44.991806,-0.062289,12.040104,3.728110,-0.114572,0.698108,-1.497246,11.000000,0.000000,0.000000,9.000000,-2.022909,0.052532,-0.008906,0.001138,0.454417,0.010789,0.089482,-0.039084,0.016375,-0.013124,-0.081073,-2.455763,-0.443891,-44.537122,0.516876,0.268241,-0.024961,-0.087820,1.601871,0.999480,0.733329,0.318998,0.176788,0.737423,0.211360,0.122352,1.000000,1.000000,0.000000,0.000000,1.000000,
13.000000,-1.046356,0.707124,4.490691,-0.180472,0.957471,-1.475298,2.447469,0.451846,44.988396,-0.045453,12.040104,4.477749,-0.147505,0.901745,-1.498548,11.000000,0.000000,0.000000,9.000000,-0.690894,1.330339,-0.003575,0.001957,0.446771,0.010789,0.089482,-0.039084,0.016375,-0.013124,-0.081073,-2.452047,-0.448725,-44.541340,0.654070,0.354208,-0.023243,-0.099967,1.605631,1.006336,1.144646,0.418281,0.227991,0.947442,0.249299,0.136847,1.000000,1.000000,0.000000,0.000000,1.000000,
13.500000,-1.490459,1.010777,5.216174,-0.217548,1.158992,-1.443238,2.487856,0.459034,44.984682,-0.047756,13.040104,5.295127,-0.179321,1.099300,-1.497772,12.000000,0.000000,0.000000,9.000000,-1.970408,0.078801,-0.009402,0.001386,0.425788,0.010923,0.089502,-0.039084,0.016376,-0.013124,-0.081013,-2.497928,-0.456519,-44.558625,0.790883,0.435399,-0.054562,-0.191580,1.605018,1.013293,1.662780,0.538285,0.209385,1.154098,0.287106,0.127755,1.000000,1.000000,0.000000,0.000000,1.000000,
14.000000,-2.019403,1.372952,5.938806,-0.254962,1.361318,-1.445273,2.490152,0.464241,44.981491,-0.062452,13.040104,6.044751,-0.211314,1.298246,-1.498294,12.000000,0.000000,0.000000,9.000000,-0.639721,1.330353,-0.003095,0.001978,0.418230,0.010923,0.089502,-0.039084,0.016376,-0.013124,-0.081013,-2.494185,-0.461166,-44.563030,0.928367,0.517597,-0.053109,-0.218590,1.608979,1.020404,2.285525,0.678710,0.262477,1.359881,0.325019,0.141939,1.000000,1.000000,0.000000,0.000000,1.000000,
14.500000,-2.632964,1.793191,6.690806,-0.292458,1.558575,-1.521338,2.374061,0.461312,44.977836,-0.063787,14.040104,6.634962,-0.243824,1.505101,-1.500929,13.000000,0.000000,0.000000,9.000000,-1.921426,0.078948,0.014349,0.002499,0.419974,0.010557,0.089446,-0.039084,0.016375,-0.013128,-0.081137,-2.361526,-0.457730,-44.557572,1.061929,0.611198,0.020248,-0.057466,1.604883,1.027587,3.012632,0.839035,0.220087,1.567385,0.363022,0.128340,1.000000,1.000000,0.000000,0.000000,1.000000,
15.000000,-3.326375,2.267450,7.452168,-0.328810,1.743455,-1.522331,2.354195,0.465578,44.974594,-0.073737,14.040104,7.385574,-0.274557,1.698547,-1.499031,13.000000,0.000000,0.000000,9.000000,-0.563211,1.356551,-0.002036,0.002091,0.412467,0.010557,0.089446,-0.039084,0.016375,-0.013128,-0.081137,-2.357275,-0.462397,-44.561880,1.187597,0.699416,0.023088,-0.046723,1.609043,1.034943,3.842208,1.019054,0.272019,1.767683,0.400124,0.142490,1.000000,1.000000,0.000000,0.000000,1.000000,
15.500000,-4.097281,2.793629,8.222898,-0.365010,1.923505,-1.546852,2.312664,0.467653,44.970923,-0.048857,15.040104,8.087640,-0.304767,1.891796,-1.499787,14.000000,0.000000,0.000000,9.000000,-1.840828,0.105172,0.002757,0.002129,0.403107,0.010430,0.089426,-0.039084,0.016374,-0.013131,-0.081171,-2.311175,-0.464371,-44.567542,1.310283,0.790692,0.047022,0.021726,1.602778,1.042352,4.771712,1.217827,0.221985,1.965492,0.436834,0.128966,1.000000,1.000000,0.000000,0.000000,0.000000,
16.000000,-4.943103,3.369523,8.997420,-0.400636,2.096947,-1.549312,2.303652,0.471862,44.967444,-0.059275,15.040104,8.837854,-0.334108,2.078065,-1.498750,14.000000,0.000000,0.000000,9.000000,-0.486631,1.357174,-0.002432,0.001666,0.395282,0.010430,0.089426,-0.039084,0.016374,-0.013131,-0.081171,-2.307063,-0.469019,-44.571901,1.428709,0.879281,0.050459,0.046013,1.607133,1.049942,5.799195,1.435494,0.273231,2.158455,0.472846,0.143000,1.000000,1.000000,0.000000,0.000000,0.000000,
16.500000,-5.861786,3.993541,9.751594,-0.435816,2.268769,-1.495432,2.402891,0.483505,44.964034,-0.059813,16.040104,9.716233,-0.362937,2.250130,-1.497425,15.000000,0.000000,0.000000,9.000000,-1.761179,0.105128,-0.017532,0.000938,0.399434,0.010807,0.089483,-0.039084,0.016374,-0.013123,-0.081084,-2.420590,-0.481303,-44.564357,1.546057,0.954585,-0.002099,-0.077719,1.599823,1.057573,6.921383,1.670854,0.222116,2.343735,0.507876,0.129789,1.000000,1.000000,0.000000,0.000000,1.000000,
17.000000,-6.854838,4.666924,10.500867,-0.471446,2.443775,-1.498913,2.411961,0.489009,44.960916,-0.050267,16.040104,10.465858,-0.390764,2.428437,-1.497955,15.000000,0.000000,0.000000,9.000000,-0.409981,1.383404,-0.004017,0.002124,0.391953,0.010807,0.089483,-0.039084,0.016374,-0.013123,-0.081084,-2.416951,-0.485877,-44.568706,1.667079,1.034096,0.000939,-0.078101,1.604368,1.065388,8.136306,1.924313,0.273352,2.528502,0.542610,0.143649,1.000000,1.000000,0.000000,0.000000,1.000000,
17.500000,-7.921359,5.389027,11.238252,-0.506537,2.616074,-1.467475,2.472616,0.497980,44.957896,-0.051755,17.040104,11.293344,-0.418193,2.596503,-1.497802,16.000000,0.000000,0.000000,9.000000,-1.654576,0.131297,-0.011970,0.001649,0.394136,0.011052,0.089521,-0.039084,0.016374,-0.013117,-0.081034,-2.485064,-0.495193,-44.563490,1.786142,1.104938,-0.030393,-0.167925,1.597036,1.073235,9.442194,2.194738,0.222238,2.706978,0.576389,0.130307,1.000000,1.000000,0.000000,0.000000,1.000000,
18.000000,-9.061492,6.160014,11.973298,-0.541687,2.788196,-1.470601,2.476999,0.502855,44.954301,-0.065698,17.040104,12.042931,-0.444226,2.766396,-1.497987,16.000000,0.000000,0.000000,9.000000,-0.307213,1.407770,-0.003793,0.001761,0.386324,0.011052,0.089521,-0.039084,0.016374,-0.013117,-0.081034,-2.481584,-0.499908,-44.567725,1.906557,1.177677,-0.027501,-0.182490,1.601770,1.081265,10.836893,2.482493,0.273628,2.883059,0.609543,0.144002,1.000000,1.000000,0.000000,0.000000,1.000000,
18.500000,-10.274430,6.978985,12.750758,-0.576627,2.951712,-1.580411,2.295356,0.495952,44.950675,-0.044497,18.040104,12.564464,-0.467290,2.950223,-1.502081,17.000000,0.000000,0.000000,9.000000,-1.553849,0.157999,0.024012,0.003839,0.347397,0.010302,0.089408,-0.039084,0.016375,-0.013134,-0.081179,-2.273490,-0.491092,-44.603009,2.023922,1.270081,0.078292,0.072479,1.595251,1.089326,12.320566,2.786628,0.222392,3.061607,0.642261,0.130440,1.000000,1.000000,0.000000,0.000000,1.000000,
19.000000,-11.552684,7.839800,13.541898,-0.609428,3.096651,-1.582558,2.266936,0.499059,44.947313,-0.067023,18.040104,13.315342,-0.491208,3.111388,-1.499403,17.000000,0.000000,0.000000,9.000000,-0.204718,1.407152,-0.001267,0.002457,0.339827,0.010302,0.089408,-0.039084,0.016375,-0.013134,-0.081179,-2.269092,-0.495607,-44.607235,2.125607,1.351613,0.082982,0.112726,1.600170,1.097561,13.890608,3.107243,0.273834,3.228669,0.673509,0.144001,1.000000,1.000000,0.000000,0.000000,1.000000,
19.500000,-12.892473,8.739473,14.323622,-0.641582,3.237288,-1.557845,2.309155,0.506586,44.944011,-0.054876,19.040104,14.128538,-0.514753,3.262470,-1.498262,18.000000,0.000000,0.000000,9.000000,-1.472170,0.184000,-0.009117,0.001841,0.340816,0.010513,0.089439,-0.039084,0.016375,-0.013129,-0.081140,-2.318911,-0.503820,-44.602928,2.224080,1.425709,0.059465,0.081472,1.594896,1.105829,15.542408,3.442958,0.222419,3.388722,0.703676,0.130247,1.000000,1.000000,0.000000,0.000000,1.000000,
20.000000,-14.293270,9.677644,15.104218,-0.673553,3.376517,-1.562688,2.310437,0.511153,44.940441,-0.070114,19.040104,14.878284,-0.536652,3.413947,-1.498316,18.000000,0.000000,0.000000,9.000000,-0.102314,1.432094,-0.003648,0.001497,0.332979,0.010513,0.089439,-0.039084,0.016375,-0.013129,-0.081140,-2.315003,-0.508487,-44.607224,2.323106,1.501002,0.064188,0.112285,1.599997,1.114261,17.273584,3.794042,0.273753,3.545765,0.733113,0.143695,1.000000,1.000000,0.000000,0.000000,1.000000,
20.500000,-15.753784,10.653210,15.903631,-0.705133,3.509643,-1.610254,2.244409,0.511814,44.936986,-0.048839,20.040104,15.537694,-0.556446,3.567726,-1.500161,19.000000,0.000000,0.000000,9.000000,-1.368311,0.184178,0.006865,0.002430,0.313239,0.010211,0.089396,-0.039084,0.016375,-0.013135,-0.081195,-2.238876,-0.508335,-44.623464,2.419726,1.582556,0.110013,0.251876,1.596256,1.122730,19.082884,4.159446,0.222293,3.700633,0.761762,0.129970,1.000000,1.000000,0.000000,0.000000,1.000000,
21.000000,-17.270087,11.663009,16.710307,-0.735502,3.632973,-1.614491,2.231540,0.516186,44.933537,-0.068207,20.040104,16.288036,-0.576234,3.710437,-1.498750,19.000000,0.000000,0.000000,9.000000,0.000000,1.458309,-0.002070,0.002046,0.305491,0.010211,0.089396,-0.039084,0.016375,-0.013135,-0.081195,-2.234609,-0.513074,-44.627789,2.508497,1.659170,0.115524,0.308179,1.601536,1.131349,20.967911,4.539278,0.273461,3.848608,0.789298,0.143330,1.000000,1.000000,0.000000,0.000000,1.000000,
21.500000,-18.839367,12.704956,17.500278,-0.765097,3.752697,-1.569973,2.296287,0.526075,44.930286,-0.068488,21.040104,17.145946,-0.596399,3.841074,-1.497027,20.000000,0.000000,0.000000,9.000000,-1.261355,0.210208,-0.013118,0.001981,0.311483,0.010566,0.089446,-0.039084,0.016375,-0.013128,-0.081131,-2.309922,-0.522982,-44.618552,2.593708,1.725790,0.072726,0.240636,1.599320,1.140011,22.925085,4.932335,0.222087,3.989379,0.815751,0.129676,1.000000,1.000000,0.000000,0.000000,1.000000,
22.000000,-20.461923,13.779351,18.518500,-0.794783,3.873015,-1.576725,2.301360,0.530650,44.926870,-0.052106,21.040104,17.895512,-0.614181,3.974590,-1.498370,20.000000,0.000000,0.000000,9.000000,0.051203,1.484544,-0.003986,0.001977,0.303824,0.010566,0.089446,-0.039084,0.016375,-0.013128,-0.081131,-2.306269,-0.527587,-44.622766,2.681848,1.794849,0.078244,0.278279,1.604777,1.148809,24.952138,5.338783,0.273074,4.127841,0.841495,0.142957,1.000000,1.000000,0.000000,0.000000,1.000000,
22.500000,-22.135991,14.885082,20.114897,-0.823447,3.990451,-1.500722,2.403700,0.541890,44.923550,-0.071172,22.060104,18.825432,-0.633283,4.092411,-1.497004,21.000000,0.000000,0.000000,9.000000,-1.182543,0.236490,-0.019040,0.000487,0.317455,0.011142,0.089523,-0.039084,0.016374,-0.013117,-0.081026,-2.423031,-0.540258,-44.605843,2.765786,1.849628,0.003515,0.108395,1.603996,1.157656,27.046397,5.757523,0.221860,4.258230,0.866037,0.129415,1.000000,1.000000,0.000000,0.000000,1.000000,
23.000000,-23.863039,16.023463,21.730968,-0.852550,4.111452,-1.506894,2.414633,0.548018,44.920189,-0.057519,22.060104,19.574988,-0.648938,4.216977,-1.498127,21.000000,0.000000,0.000000,9.000000,0.153608,1.510123,-0.004165,0.001857,0.309669,0.011142,0.089523,-0.039084,0.016374,-0.013117,-0.081026,-2.419556,-0.544975,-44.610240,2.856105,1.908823,0.008635,0.111341,1.609627,1.166625,29.205651,6.188635,0.272682,4.387432,0.889896,0.142629,1.000000,1.000000,0.000000,0.000000,1.000000,
23.500000,-25.642031,17.193762,23.371715,-0.880953,4.227813,-1.501919,2.424442,0.553776,44.916894,-0.059668,23.060104,20.348180,-0.663898,4.335828,-1.498230,22.000000,0.000000,0.000000,9.000000,-1.051663,0.262899,-0.004951,0.002026,0.304576,0.011215,0.089533,-0.039084,0.016374,-0.013116,-0.081012,-2.430315,-0.550618,-44.612020,2.943340,1.965088,0.003514,0.089454,1.610138,1.175647,31.428326,6.631226,0.221650,4.511676,0.912818,0.129205,1.000000,1.000000,0.000000,0.000000,0.000000,
24.000000,-27.471373,18.394791,25.039267,-0.908791,4.340109,-1.507396,2.422610,0.557965,44.913464,-0.068073,23.060104,21.097997,-0.677371,4.451277,-1.498261,22.000000,0.000000,0.000000,9.000000,0.255897,1.535011,-0.003065,0.001509,0.296930,0.011215,0.089533,-0.039084,0.016374,-0.013116,-0.081012,-2.426701,-0.555375,-44.616281,3.028794,2.020399,0.008937,0.092480,1.615939,1.184780,33.712051,7.085234,0.272337,4.631447,0.934758,0.142358,1.000000,1.000000,0.000000,0.000000,0.000000,
24.500000,-29.348541,19.624842,26.704829,-0.935462,4.448232,-1.437712,2.502326,0.567403,44.910366,-0.052848,24.060104,22.017548,-0.692082,4.553027,-1.497750,23.000000,0.000000,0.000000,9.000000,-0.971912,0.288931,-0.014622,0.000354,0.307236,0.011723,0.089595,-0.039085,0.016374,-0.013106,-0.080915,-2.517422,-0.565930,-44.602840,3.109150,2.064235,-0.060176,-0.099471,1.617557,1.193969,36.053710,7.549656,0.221466,4.743565,0.955521,0.129016,1.000000,1.000000,0.000000,0.000000,1.000000,
25.000000,-31.274340,20.884671,28.484956,-0.962481,4.558543,-1.443032,2.509937,0.573852,44.906941,-0.054524,24.060104,22.767129,-0.703418,4.659024,-1.497944,23.000000,0.000000,0.000000,9.000000,0.358574,1.561962,-0.003333,0.002019,0.299399,0.011723,0.089595,-0.039085,0.016374,-0.013106,-0.080915,-2.514234,-0.570658,-44.607285,3.194737,2.110905,-0.055008,-0.128349,1.623526,1.203257,38.450970,8.024433,0.272033,4.853562,0.975611,0.142114,1.000000,1.000000,0.000000,0.000000,1.000000,
25.500000,-33.247718,22.173470,30.286596,-0.988921,4.663938,-1.460576,2.496295,0.578008,44.903266,-0.044638,25.060104,23.492038,-0.713255,4.761741,-1.499146,24.000000,0.000000,0.000000,9.000000,-0.867653,0.315495,-0.000790,0.002210,0.288900,0.011651,0.089587,-0.039085,0.016374,-0.013107,-0.080930,-2.498098,-0.574674,-44.614083,3.277951,2.157318,-0.038621,-0.125404,1.626116,1.212605,40.902233,8.508807,0.221307,4.959306,0.994744,0.128857,1.000000,1.000000,0.000000,0.000000,0.000000,
26.000000,-35.266232,23.489376,32.050981,-1.014500,4.763127,-1.465691,2.490977,0.582438,44.899423,-0.074251,25.060104,24.242061,-0.722280,4.858511,-1.498355,24.000000,0.000000,0.000000,9.000000,0.461020,1.587534,-0.002544,0.002009,0.280846,0.011651,0.089587,-0.039085,0.016374,-0.013107,-0.080930,-2.494608,-0.579395,-44.618340,3.356950,2.201564,-0.032876,-0.143352,1.632250,1.222043,43.405058,9.002562,0.271772,5.059765,1.012860,0.141908,1.000000,1.000000,0.000000,0.000000,0.000000,
26.500000,-37.327520,24.830657,33.763019,-1.039216,4.857403,-1.449711,2.507585,0.587624,44.895965,-0.057884,26.060104,25.040889,-0.730940,4.948455,-1.497863,25.000000,0.000000,0.000000,9.000000,-0.762147,0.341638,-0.005141,0.001083,0.277973,0.011785,0.089600,-0.039085,0.016374,-0.013105,-0.080902,-2.513463,-0.585391,-44.617723,3.432229,2.241889,-0.048295,-0.215529,1.635682,1.231541,45.956733,9.504865,0.221167,5.154774,1.029988,0.128712,1.000000,1.000000,0.000000,0.000000,1.000000,
27.000000,-39.430353,26.196432,35.424272,-1.063505,4.948812,-1.456020,2.506145,0.592647,44.892543,-0.074642,26.060104,25.790673,-0.737746,5.036177,-1.498128,25.000000,0.000000,0.000000,9.000000,0.563211,1.586800,-0.003120,0.001384,0.270250,0.011785,0.089600,-0.039085,0.016374,-0.013105,-0.080902,-2.510188,-0.590138,-44.622036,3.507045,2.281703,-0.042352,-0.238262,1.641978,1.241121,48.554971,10.015528,0.271542,5.245885,1.046250,0.141721,1.000000,1.000000,0.000000,0.000000,0.000000,
27.500000,-41.572970,27.585409,36.786508,-1.087119,5.035551,-1.457788,2.507194,0.598206,44.888838,-0.048366,27.060104,26.552004,-0.743613,5.119108,-1.498764,26.000000,0.000000,0.000000,9.000000,-0.657636,0.368263,-0.003473,0.001990,0.263313,0.011815,0.089603,-0.039085,0.016374,-0.013104,-0.080896,-2.511507,-0.595133,-44.625244,3.579010,2.319521,-0.041078,-0.271298,1.646158,1.250763,51.197616,10.533799,0.221044,5.332395,1.061573,0.128585,1.000000,1.000000,0.000000,0.000000,0.000000,
28.000000,-43.753678,28.996295,38.062558,-1.110179,5.118118,-1.463726,2.504458,0.602528,44.885541,-0.061164,27.060104,27.301878,-0.748345,5.198317,-1.498279,26.000000,0.000000,0.000000,9.000000,0.640007,1.612358,-0.002905,0.001577,0.255705,0.011815,0.089603,-0.039085,0.016374,-0.013104,-0.080896,-2.508241,-0.599835,-44.629579,3.648782,2.356210,-0.034730,-0.290329,1.652614,1.260479,53.882463,11.059482,0.271339,5.414714,1.076146,0.141558,1.000000,1.000000,0.000000,0.000000,0.000000,
28.500000,-45.971719,30.428273,39.388488,-1.133339,5.196951,-1.567430,2.433087,0.604784,44.882321,-0.044521,28.060104,27.833566,-0.748020,5.281564,-1.501726,27.000000,0.000000,0.000000,9.000000,-0.552675,0.394756,0.007895,0.001847,0.226152,0.011288,0.089566,-0.039084,0.016374,-0.013116,-0.081017,-2.426677,-0.601699,-44.655868,3.721135,2.399574,0.065651,-0.051484,1.657455,1.270257,56.608068,11.591960,0.220937,5.495101,1.089831,0.128479,1.000000,1.000000,0.000000,0.000000,1.000000,
29.000000,-48.222533,31.877796,40.736677,-1.154789,5.263813,-1.572604,2.419694,0.610377,44.878922,-0.070830,28.060104,28.584416,-0.750497,5.352556,-1.499360,27.000000,0.000000,0.000000,9.000000,0.742397,1.637901,-0.001960,0.002777,0.218391,0.011288,0.089566,-0.039084,0.016374,-0.013116,-0.081017,-2.422769,-0.606372,-44.660264,3.780924,2.438007,0.073015,-0.016868,1.664068,1.280103,59.372166,12.130898,0.271163,5.568938,1.102607,0.141422,1.000000,1.000000,0.000000,0.000000,1.000000,
29.500000,-50.503728,33.342976,42.098559,-1.175860,5.326775,-1.587277,2.410920,0.614393,44.874960,-0.065745,29.060104,29.317403,-0.751681,5.420521,-1.499036,28.000000,0.000000,0.000000,9.000000,-0.473508,0.394579,-0.001851,0.002253,0.208500,0.011249,0.089565,-0.039084,0.016374,-0.013117,-0.081026,-2.413799,-0.610970,-44.666216,3.838954,2.475863,0.088008,0.041624,1.669481,1.290010,62.172234,12.675670,0.220844,5.639183,1.114638,0.128383,1.000000,1.000000,0.000000,0.000000,0.000000,
30.000000,-52.813581,34.822515,43.472102,-1.196240,5.385537,-1.594878,2.406192,0.618548,44.871627,-0.052907,29.060104,30.067551,-0.752192,5.484486,-1.498873,28.000000,0.000000,0.000000,9.000000,0.818821,1.662707,-0.003112,0.001733,0.200816,0.011249,0.089565,-0.039084,0.016374,-0.013117,-0.081026,-2.410230,-0.615711,-44.670523,3.894227,2.512256,0.095828,0.087516,1.676247,1.299979,65.006489,13.226051,0.271011,5.705775,1.125915,0.141302,1.000000,1.000000,0.000000,0.000000,0.000000,
30.500000,-55.150348,36.315169,44.847554,-1.215915,5.440564,-1.580193,2.415270,0.623639,44.868215,-0.072847,30.060104,30.868868,-0.752872,5.543715,-1.497805,29.000000,0.000000,0.000000,9.000000,-0.420705,0.420694,-0.004245,0.002003,0.198371,0.011354,0.089567,-0.039084,0.016374,-0.013114,-0.080998,-2.420327,-0.620479,-44.669584,3.946162,2.546070,0.082090,0.077617,1.682163,1.310008,67.873108,13.781466,0.220763,5.768803,1.136558,0.128304,1.000000,1.000000,0.000000,0.000000,1.000000,
31.000000,-57.513225,37.820359,46.231100,-1.235392,5.493860,-1.588634,2.412941,0.628321,44.864786,-0.048001,30.060104,31.618702,-0.751638,5.601734,-1.498516,29.000000,0.000000,0.000000,9.000000,0.870767,1.689758,-0.002823,0.002066,0.190585,0.011354,0.089567,-0.039084,0.016374,-0.013114,-0.080998,-2.416770,-0.625222,-44.673914,3.998669,2.579735,0.090004,0.120564,1.689081,1.320096,70.770584,14.341750,0.270880,5.829269,1.146569,0.141203,1.000000,1.000000,0.000000,0.000000,0.000000,
31.500000,-59.900025,39.336702,47.589388,-1.253476,5.542489,-1.503236,2.453167,0.631756,44.861289,-0.047529,31.060104,32.592071,-0.754202,5.650622,-1.497783,30.000000,0.000000,0.000000,9.000000,-0.341511,0.446580,-0.009245,0.001929,0.205674,0.011762,0.089559,-0.039085,0.016374,-0.013102,-0.080877,-2.463062,-0.628793,-44.655337,4.043031,2.606640,0.005311,-0.090439,1.695428,1.330240,73.697183,14.906378,0.220695,5.885668,1.156036,0.128238,1.000000,1.000000,0.000000,0.000000,1.000000,
32.000000,-62.311518,40.864914,48.946357,-1.272016,5.594167,-1.511022,2.455916,0.636293,44.858172,-0.058268,31.060104,33.341654,-0.751406,5.703369,-1.497999,30.000000,0.000000,0.000000,9.000000,0.921568,1.688980,-0.002912,0.001678,0.198232,0.011762,0.089559,-0.039085,0.016374,-0.013102,-0.080877,-2.459768,-0.633539,-44.659681,4.095292,2.635546,0.012846,-0.085961,1.702493,1.340440,76.651645,15.475230,0.270770,5.940708,1.164978,0.141121,1.000000,1.000000,0.000000,0.000000,1.000000,
32.500000,-64.747486,42.404774,50.324851,-1.290462,5.643425,-1.548278,2.442155,0.642299,44.854828,-0.067297,32.060104,34.022773,-0.746225,5.755143,-1.499074,31.000000,0.000000,0.000000,9.000000,-0.289370,0.447197,-0.000622,0.001895,0.183527,0.011649,0.089566,-0.039085,0.016374,-0.013106,-0.080914,-2.443697,-0.639090,-44.671030,4.148167,2.665082,0.048970,0.002131,1.709203,1.350693,79.632998,16.047840,0.220639,5.993264,1.173273,0.128186,1.000000,1.000000,0.000000,0.000000,1.000000,
33.000000,-67.206112,43.954866,51.716199,-1.308241,5.687915,-1.556303,2.437615,0.647097,44.851437,-0.055988,32.060104,34.773003,-0.741731,5.802427,-1.499097,31.000000,0.000000,0.000000,9.000000,0.997460,1.712987,-0.001752,0.002137,0.175818,0.011649,0.089566,-0.039085,0.016374,-0.013106,-0.080914,-2.440417,-0.643795,-44.675317,4.196503,2.693042,0.057010,0.028557,1.716413,1.361001,82.639798,16.623996,0.270681,6.042686,1.181092,0.141054,1.000000,1.000000,0.000000,0.000000,0.000000,
33.500000,-69.686372,45.514328,53.127017,-1.325901,5.730116,-1.590716,2.425058,0.651986,44.847944,-0.052287,33.060104,35.460602,-0.734985,5.848554,-1.499754,32.000000,0.000000,0.000000,9.000000,-0.236649,0.473287,-0.001617,0.001281,0.161662,0.011558,0.089577,-0.039085,0.016374,-0.013109,-0.080948,-2.427612,-0.649588,-44.685988,4.245394,2.721360,0.090797,0.131449,1.723421,1.371356,85.670652,17.203271,0.220592,6.089654,1.188316,0.128141,1.000000,1.000000,0.000000,0.000000,1.000000,
34.000000,-72.186638,47.081919,54.549807,-1.342884,5.768039,-1.598053,2.420576,0.657338,44.844711,-0.054923,33.060104,36.210841,-0.728750,5.890804,-1.498713,32.000000,0.000000,0.000000,9.000000,1.050476,1.741618,-0.002778,0.001721,0.154029,0.011558,0.089577,-0.039085,0.016374,-0.013109,-0.080948,-2.424188,-0.654369,-44.690405,4.290275,2.748388,0.099203,0.178908,1.730772,1.381768,88.724248,17.785438,0.270606,6.133904,1.195037,0.140996,1.000000,1.000000,0.000000,0.000000,0.000000,
34.500000,-74.705284,48.656498,55.968498,-1.359165,5.802601,-1.573881,2.424586,0.660108,44.841264,-0.052020,34.060104,37.039697,-0.723600,5.929217,-1.498084,33.000000,0.000000,0.000000,9.000000,-0.183892,0.499123,-0.004268,0.001854,0.154329,0.011659,0.089558,-0.039085,0.016374,-0.013105,-0.080906,-2.429689,-0.657171,-44.686639,4.331174,2.773459,0.075630,0.139334,1.738030,1.392219,91.799267,18.370124,0.220553,6.175723,1.201413,0.128103,1.000000,1.000000,0.000000,0.000000,1.000000,
35.000000,-77.241883,50.237780,57.392289,-1.375420,5.836630,-1.582714,2.422914,0.664683,44.837911,-0.048041,34.060104,37.789444,-0.715990,5.967331,-1.498594,33.000000,0.000000,0.000000,9.000000,1.075130,1.740049,-0.002451,0.001795,0.146594,0.011659,0.089558,-0.039085,0.016374,-0.013105,-0.080906,-2.426268,-0.661834,-44.691042,4.374154,2.798585,0.084007,0.179194,1.745519,1.402729,94.894689,18.957191,0.270542,6.215731,1.207387,0.140947,1.000000,1.000000,0.000000,0.000000,1.000000,
35.500000,-79.795477,51.825081,58.817847,-1.391154,5.867900,-1.573499,2.422093,0.668326,44.834497,-0.065026,35.060104,38.581407,-0.708638,6.002765,-1.497854,34.000000,0.000000,0.000000,9.000000,-0.131412,0.499353,-0.003442,0.001886,0.143157,0.011706,0.089545,-0.039085,0.016374,-0.013103,-0.080883,-2.426368,-0.665172,-44.691095,4.414546,2.822617,0.075393,0.174516,1.752990,1.413272,98.009545,19.546305,0.220520,6.253745,1.213012,0.128070,1.000000,1.000000,0.000000,0.000000,0.000000,
36.000000,-82.365419,53.417941,60.249918,-1.406715,5.897906,-1.582834,2.419807,0.672746,44.831209,-0.050061,35.060104,39.331188,-0.699610,6.037176,-1.498779,34.000000,0.000000,0.000000,9.000000,1.125811,1.764804,-0.002298,0.001592,0.135575,0.011706,0.089545,-0.039085,0.016374,-0.013103,-0.080883,-2.423157,-0.669997,-44.695343,4.455613,2.846402,0.083899,0.214283,1.760614,1.423876,101.142903,20.137327,0.270488,6.289962,1.218265,0.140905,1.000000,1.000000,0.000000,0.000000,0.000000,
36.500000,-84.949979,55.015300,61.662565,-1.421025,5.923581,-1.519152,2.425664,0.672155,44.827510,-0.046968,36.060104,40.259508,-0.694156,6.066990,-1.497790,35.000000,0.000000,0.000000,9.000000,-0.105082,0.525393,-0.003358,0.003075,0.145334,0.011877,0.089476,-0.039086,0.016374,-0.013094,-0.080789,-2.429855,-0.667930,-44.681897,4.489127,2.867760,0.021214,0.053075,1.768266,1.434504,104.293823,20.729957,0.220491,6.324470,1.223387,0.128041,1.000000,1.000000,0.000000,0.000000,1.000000,
37.000000,-87.549290,56.617377,63.074669,-1.435607,5.950834,-1.527535,2.422779,0.675473,44.824091,-0.063100,36.060104,41.009165,-0.683946,6.098343,-1.497990,35.000000,0.000000,0.000000,9.000000,1.150876,1.764001,-0.002884,0.001760,0.137663,0.011877,0.089476,-0.039086,0.016374,-0.013094,-0.080789,-2.426581,-0.672613,-44.686162,4.528727,2.889734,0.029341,0.065670,1.776023,1.445198,107.461598,21.324130,0.270441,6.357564,1.228151,0.140868,1.000000,1.000000,0.000000,0.000000,1.000000,
37.500000,-90.163004,58.223899,64.497812,-1.450023,5.976434,-1.544379,2.419283,0.680946,44.820838,-0.062157,37.060104,41.739185,-0.672565,6.128374,-1.498667,36.000000,0.000000,0.000000,9.000000,-0.078811,0.525393,-0.002513,0.001773,0.128150,0.011861,0.089485,-0.039086,0.016374,-0.013095,-0.080800,-2.422660,-0.678085,-44.692429,4.568223,2.911451,0.045494,0.105269,1.783832,1.455907,110.645419,21.919520,0.220466,6.388993,1.232599,0.128015,1.000000,1.000000,0.000000,0.000000,0.000000,
38.000000,-92.790278,59.834201,65.929503,-1.464173,5.999868,-1.552932,2.416166,0.685960,44.817419,-0.049599,37.060104,42.489237,-0.661037,6.156637,-1.498897,36.000000,0.000000,0.000000,9.000000,1.176970,1.790332,-0.002286,0.001993,0.120352,0.011861,0.089485,-0.039086,0.016374,-0.013095,-0.080800,-2.419340,-0.682784,-44.696783,4.606141,2.932731,0.053876,0.130067,1.791717,1.466687,113.844489,22.516003,0.270400,6.418932,1.236842,0.140834,1.000000,1.000000,0.000000,0.000000,0.000000,
38.500000,-95.429500,61.447264,67.344302,-1.477150,6.019319,-1.498594,2.413808,0.683127,44.813879,-0.049478,38.080104,43.394425,-0.652754,6.181381,-1.497556,37.000000,0.000000,0.000000,9.000000,-0.052541,0.551661,-0.002944,0.002403,0.127799,0.011968,0.089403,-0.039087,0.016374,-0.013088,-0.080719,-2.417651,-0.679646,-44.685800,4.637162,2.952492,0.000904,-0.019599,1.799664,1.477472,117.058092,23.113378,0.220444,6.447624,1.241091,0.127991,1.000000,1.000000,0.000000,0.000000,1.000000,
39.000000,-98.080654,63.063197,68.759112,-1.490346,6.039943,-1.507118,2.410355,0.687409,44.810796,-0.055996,38.080104,44.144001,-0.640203,6.207241,-1.497994,37.000000,0.000000,0.000000,9.000000,1.203086,1.791114,-0.003190,0.002167,0.120409,0.011968,0.089403,-0.039087,0.016374,-0.013088,-0.080719,-2.414450,-0.684159,-44.690132,4.673458,2.972719,0.008961,-0.017171,1.807675,1.488334,120.285673,23.711599,0.270363,6.475120,1.245081,0.140803,1.000000,1.000000,0.000000,0.000000,1.000000,
39.500000,-100.742604,64.681314,69.974966,-1.502609,6.057037,-1.462845,2.406138,0.685271,44.806862,-0.057870,39.080104,45.023767,-0.630334,6.230295,-1.496796,38.000000,0.000000,0.000000,9.000000,-0.026258,0.551409,-0.002923,0.002727,0.124964,0.012042,0.089325,-0.039088,0.016374,-0.013082,-0.080652,-2.410084,-0.681466,-44.681647,4.703874,2.991915,-0.034126,-0.160474,1.815746,1.499190,123.526624,24.310464,0.220424,6.501641,1.249094,0.127969,1.000000,1.000000,0.000000,0.000000,1.000000,
40.000000,-103.415254,66.301643,70.709314,-1.515026,6.074941,-1.471790,2.403486,0.689299,44.803162,-0.063208,39.080104,45.773235,-0.616751,6.254041,-1.497868,38.000000,0.000000,0.000000,9.000000,1.229774,1.818291,-0.002545,0.001945,0.117142,0.012042,0.089325,-0.039088,0.016374,-0.013082,-0.080652,-2.406960,-0.686120,-44.685773,4.738693,3.011350,-0.026299,-0.175613,1.823879,1.510131,126.780463,24.909933,0.270329,6.526994,1.252884,0.140774,1.000000,1.000000,0.000000,0.000000,1.000000,
40.500000,-106.099289,67.924426,71.476048,-1.528342,6.094256,-1.553253,2.404480,0.703793,44.800819,-0.072978,40.080104,46.342264,-0.598026,6.278562,-1.500492,39.000000,0.000000,0.000000,9.000000,0.000000,0.579524,-0.003152,0.000735,0.092660,0.011958,0.089445,-0.039087,0.016374,-0.013090,-0.080745,-2.408510,-0.701932,-44.707897,4.780355,3.031304,0.052474,0.021441,1.832064,1.521054,130.046455,25.509700,0.220405,6.550608,1.256317,0.127948,1.000000,1.000000,0.000000,0.000000,1.000000,
41.000000,-108.793546,69.548558,72.255016,-1.541172,6.109151,-1.560441,2.401549,0.709684,44.797415,-0.059252,40.080104,47.092896,-0.583143,6.299605,-1.499268,39.000000,0.000000,0.000000,9.000000,1.253145,1.815030,-0.002770,0.001941,0.084850,0.011958,0.089445,-0.039087,0.016374,-0.013090,-0.080745,-2.405330,-0.706502,-44.712256,4.814662,3.050482,0.060964,0.049778,1.840316,1.532071,133.323872,26.109640,0.270297,6.573216,1.259805,0.140748,1.000000,1.000000,0.000000,0.000000,1.000000,
41.500000,-111.497197,71.173374,73.035614,-1.553794,6.122644,-1.562959,2.398510,0.713034,44.794178,-0.043083,41.080104,47.856949,-0.568089,6.319542,-1.498921,40.000000,0.000000,0.000000,9.000000,0.000000,0.578195,-0.002186,0.001760,0.078710,0.011963,0.089435,-0.039087,0.016374,-0.013090,-0.080738,-2.401529,-0.710245,-44.715189,4.848019,3.069416,0.063952,0.066365,1.848607,1.543057,136.612221,26.709620,0.220387,6.594892,1.263264,0.127929,1.000000,1.000000,0.000000,0.000000,0.000000,
42.000000,-114.209833,72.798560,73.819705,-1.566319,6.135177,-1.570956,2.394387,0.717164,44.790743,-0.060805,41.080104,48.606955,-0.552152,6.338804,-1.498308,40.000000,0.000000,0.000000,9.000000,1.279854,1.842201,-0.002696,0.001025,0.071027,0.011963,0.089435,-0.039087,0.016374,-0.013090,-0.080738,-2.398183,-0.714968,-44.719443,4.881491,3.088274,0.072424,0.100446,1.856976,1.554145,139.911095,27.309607,0.270268,6.615705,1.266682,0.140722,1.000000,1.000000,0.000000,0.000000,0.000000,
42.500000,-116.930916,74.423709,74.605534,-1.578694,6.146304,-1.573131,2.390148,0.721457,44.786919,-0.064620,42.080104,49.373096,-0.536178,6.357070,-1.498236,41.000000,0.000000,0.000000,9.000000,0.026307,0.605029,-0.002901,0.002048,0.064528,0.011967,0.089422,-0.039087,0.016374,-0.013089,-0.080730,-2.394065,-0.718354,-44.722154,4.913884,3.106985,0.074656,0.120184,1.865365,1.565190,143.220026,27.909439,0.220371,6.635725,1.270153,0.127910,1.000000,1.000000,0.000000,0.000000,0.000000,
43.000000,-119.660077,76.048507,75.394936,-1.590966,6.156634,-1.582109,2.386989,0.725857,44.783639,-0.049266,42.080104,50.123046,-0.519327,6.374716,-1.498767,41.000000,0.000000,0.000000,9.000000,1.306609,1.843828,-0.002981,0.001599,0.056896,0.011967,0.089422,-0.039087,0.016374,-0.013089,-0.080730,-2.390877,-0.723028,-44.726469,4.946555,3.125619,0.083204,0.159626,1.873847,1.576347,146.538638,28.509112,0.270240,6.654914,1.273654,0.140698,1.000000,1.000000,0.000000,0.000000,0.000000,
43.500000,-122.397144,77.672745,76.193837,-1.603411,6.166550,-1.604310,2.386222,0.733324,44.780216,-0.054650,43.080104,50.838960,-0.501058,6.391977,-1.499162,42.000000,0.000000,0.000000,9.000000,0.052589,0.604751,-0.002752,0.001800,0.045819,0.011961,0.089452,-0.039087,0.016374,-0.013091,-0.080746,-2.390029,-0.730450,-44.734096,4.980453,3.144271,0.104918,0.242491,1.882330,1.587447,149.866506,29.108456,0.220355,6.673292,1.277133,0.127892,1.000000,1.000000,0.000000,0.000000,0.000000,
44.000000,-125.141684,79.296014,76.998561,-1.615654,6.175037,-1.612328,2.383360,0.737427,44.776991,-0.054564,43.080104,51.589052,-0.483121,6.408207,-1.498527,42.000000,0.000000,0.000000,9.000000,1.306025,1.868584,-0.002320,0.001221,0.038339,0.011961,0.089452,-0.039087,0.016374,-0.013091,-0.080746,-2.386728,-0.735077,-44.738394,5.012892,3.162781,0.113647,0.297127,1.890922,1.598670,153.203273,29.707449,0.270213,6.691065,1.280689,0.140674,1.000000,1.000000,0.000000,0.000000,0.000000,
44.500000,-127.892728,80.917734,77.793232,-1.627162,6.181055,-1.584293,2.373700,0.735842,44.773228,-0.050081,44.080104,52.432621,-0.467250,6.423140,-1.497888,43.000000,0.000000,0.000000,9.000000,0.052565,0.630753,-0.001317,0.003063,0.039116,0.011971,0.089363,-0.039088,0.016374,-0.013086,-0.080700,-2.376041,-0.731636,-44.733838,5.040977,3.181178,0.086249,0.248549,1.899495,1.609821,156.548722,30.306015,0.220340,6.708681,1.284499,0.127874,1.000000,1.000000,0.000000,0.000000,1.000000,
45.000000,-130.650135,82.537879,78.588106,-1.638764,6.187504,-1.593128,2.368420,0.740185,44.769968,-0.068815,44.080104,53.182271,-0.448600,6.438466,-1.498145,43.000000,0.000000,0.000000,9.000000,1.330435,1.866898,-0.003371,0.002822,0.031586,0.011971,0.089363,-0.039088,0.016374,-0.013086,-0.080700,-2.372738,-0.736219,-44.738120,5.072230,3.199773,0.094719,0.293774,1.908194,1.621107,159.902678,30.904214,0.270187,6.725565,1.288382,0.140650,1.000000,1.000000,0.000000,0.000000,1.000000,
45.500000,-133.411670,84.155334,79.338211,-1.647607,6.187246,-1.469004,2.339036,0.714833,44.765805,-0.050069,45.080104,54.276906,-0.438798,6.450995,-1.497062,44.000000,0.000000,0.000000,9.000000,0.052541,0.630464,0.001407,0.005523,0.055474,0.011985,0.089014,-0.039091,0.016374,-0.013072,-0.080533,-2.338775,-0.708390,-44.710058,5.087948,3.218315,-0.028225,-0.049593,1.916855,1.632305,163.265167,31.502122,0.220325,6.743702,1.292958,0.127855,1.000000,1.000000,0.000000,0.000000,1.000000,
46.000000,-136.177367,85.770764,80.075424,-1.656770,6.190834,-1.477629,2.332186,0.715875,44.762053,-0.070011,45.080104,55.026342,-0.419672,6.466605,-1.497886,44.000000,0.000000,0.000000,9.000000,1.304859,1.866917,-0.002270,0.001983,0.047666,0.011985,0.089014,-0.039091,0.016374,-0.013072,-0.080533,-2.335459,-0.712799,-44.714129,5.115907,3.237462,-0.020550,-0.061810,1.925659,1.643652,166.636407,32.099861,0.270159,6.760914,1.297320,0.140624,1.000000,1.000000,0.000000,0.000000,1.000000,
46.500000,-138.946947,87.384140,80.807659,-1.665301,6.192666,-1.462009,2.323708,0.713723,44.758544,-0.050536,46.080104,55.836698,-0.401723,6.481428,-1.497922,45.000000,0.000000,0.000000,9.000000,0.052565,0.630753,-0.001849,0.001606,0.045559,0.011985,0.088949,-0.039092,0.016374,-0.013069,-0.080504,-2.326436,-0.711059,-44.712701,5.141026,3.256645,-0.036091,-0.139714,1.934411,1.654896,170.016061,32.697218,0.220309,6.778083,1.301924,0.127835,1.000000,1.000000,0.000000,0.000000,1.000000,
47.000000,-141.720238,88.995432,81.541200,-1.673890,6.194682,-1.469989,2.319500,0.717839,44.754920,-0.047436,46.080104,56.586415,-0.381807,6.496537,-1.498397,45.000000,0.000000,0.000000,9.000000,1.331030,1.867731,-0.002867,0.001253,0.037637,0.011985,0.088949,-0.039092,0.016374,-0.013069,-0.080504,-2.323172,-0.715484,-44.717014,5.168265,3.276010,-0.028541,-0.155876,1.943317,1.666301,173.404060,33.294259,0.270132,6.794820,1.306666,0.140598,1.000000,1.000000,0.000000,0.000000,0.000000,
47.500000,-144.498319,90.605037,82.308952,-1.684098,6.199689,-1.556078,2.334225,0.741616,44.752562,-0.055233,47.080104,57.137164,-0.356049,6.512753,-1.500611,46.000000,0.000000,0.000000,9.000000,0.078956,0.631622,-0.004894,-0.000521,0.012221,0.011990,0.089176,-0.039090,0.016374,-0.013078,-0.080599,-2.339910,-0.740970,-44.740096,5.204639,3.295617,0.055297,0.060459,1.952162,1.677589,176.799939,33.890769,0.220293,6.810220,1.311317,0.127817,1.000000,1.000000,0.000000,0.000000,1.000000,
48.000000,-147.280881,92.212193,83.089287,-1.694339,6.201736,-1.563141,2.332654,0.748421,44.749551,-0.043540,47.080104,57.887849,-0.335256,6.526825,-1.499631,46.000000,0.000000,0.000000,9.000000,1.331625,1.894143,-0.003039,0.001799,0.004756,0.011990,0.089176,-0.039090,0.016374,-0.013078,-0.080599,-2.336582,-0.745493,-44.744510,5.233980,3.315144,0.063392,0.090134,1.961166,1.689049,180.203425,34.486799,0.270105,6.825933,1.316476,0.140575,1.000000,1.000000,0.000000,0.000000,1.000000,
48.500000,-150.067003,93.816229,83.857228,-1.703850,6.201449,-1.529158,2.319877,0.743130,44.745590,-0.056028,48.080104,58.742976,-0.317139,6.540043,-1.497648,47.000000,0.000000,0.000000,9.000000,0.078884,0.657334,-0.001647,0.004001,0.006155,0.011985,0.089049,-0.039091,0.016374,-0.013073,-0.080550,-2.322554,-0.738130,-44.739140,5.258444,3.334875,0.031281,0.003334,1.970104,1.700375,183.614689,35.082499,0.220277,6.842059,1.322098,0.127798,1.000000,1.000000,0.000000,0.000000,1.000000,
49.000000,-152.856636,95.417272,84.624537,-1.713376,6.202087,-1.537794,2.316713,0.745437,44.742151,-0.030857,48.080104,59.492694,-0.295828,6.554109,-1.498606,47.000000,0.000000,0.000000,9.000000,1.331625,1.894143,-0.001787,0.001728,-0.001526,0.011985,0.089049,-0.039091,0.016374,-0.013073,-0.080550,-2.319406,-0.742499,-44.743399,5.286793,3.354851,0.039155,0.020939,1.979204,1.711889,187.033779,35.678013,0.270078,6.857805,1.327861,0.140550,1.000000,1.000000,0.000000,0.000000,1.000000,
49.500000,-155.649956,97.015400,85.402223,-1.723187,6.203045,-1.561714,2.316825,0.754018,44.739367,-0.056425,49.080104,60.200888,-0.272974,6.568331,-1.498669,48.000000,0.000000,0.000000,9.000000,0.078920,0.657636,-0.002654,0.000852,-0.012504,0.011988,0.089102,-0.039090,0.016374,-0.013075,-0.080569,-2.320522,-0.751837,-44.751604,5.317129,3.375024,0.062870,0.090315,1.988233,1.723252,190.460479,36.273191,0.220262,6.873219,1.333832,0.127780,1.000000,1.000000,0.000000,0.000000,0.000000,
50.000000,-158.446794,98.610335,86.185758,-1.733114,6.203032,-1.569584,2.313847,0.759029,44.735661,-0.070774,49.080104,60.951004,-0.250872,6.581970,-1.498400,48.000000,0.000000,0.000000,9.000000,1.332220,1.894989,-0.002490,0.001390,-0.020427,0.011988,0.089102,-0.039090,0.016374,-0.013075,-0.080569,-2.317301,-0.756334,-44.755836,5.346065,3.395295,0.070888,0.123758,1.997427,1.734816,193.894702,36.868126,0.270051,6.888566,1.340145,0.140526,1.000000,1.000000,0.000000,0.000000,0.000000,
50.500000,-161.286271,100.247041,86.682386,-1.724597,6.604357,-0.237298,16.738111,0.760392,44.734796,3.686572,50.080104,61.388612,-0.227195,7.022120,-0.168613,49.000000,0.000000,0.000000,9.000000,0.096403,0.803308,14.320006,-0.003531,-0.028167,0.011989,0.089131,-0.039090,0.016374,-0.013076,-0.080579,-2.320468,-0.762878,-44.762450,5.637180,3.553852,0.096422,0.194384,2.006547,1.746079,197.399176,37.462460,0.220232,7.334785,1.346533,0.128368,1.000000,1.000000,0.000000,0.000000,1.000000,
51.000000,-164.395786,102.163488,86.530591,-1.722548,7.816691,0.203288,18.665457,0.769111,44.734945,-2.137078,50.080104,61.183996,-0.198149,8.241882,0.327689,49.000000,0.000000,0.000000,9.000000,1.963532,1.742032,16.342498,0.001954,-0.033901,0.011989,0.089131,-0.039090,0.016374,-0.013076,-0.080579,-2.316826,-0.766064,-44.768122,6.507872,3.920761,0.113728,0.251371,2.015832,1.757304,201.319694,38.054880,0.270383,8.588644,1.351517,0.150767,1.000000,1.000000,0.000000,0.000000,1.000000,
51.500000,-167.996821,104.575659,86.458165,-1.718181,9.183767,0.025158,18.829331,0.765131,44.730604,-1.288955,51.080104,61.128035,-0.167070,9.603899,0.123834,50.000000,0.000000,0.000000,9.000000,1.803427,0.817363,16.482339,0.003675,-0.014065,0.012302,0.089036,-0.039091,0.016374,-0.013067,-0.080553,-2.347320,-0.760558,-44.744039,7.500603,4.305407,0.094858,0.233445,2.022410,1.768302,205.955971,38.641628,0.223927,9.995990,1.353404,0.160795,1.000000,1.000000,0.000000,0.000000,1.000000,
52.000000,-172.058057,107.459634,86.480013,-1.702362,10.419429,-0.086563,18.839994,0.767851,44.727955,-0.873582,51.080104,61.097928,-0.116735,10.839262,0.027223,50.000000,0.000000,0.000000,9.000000,4.430948,2.175127,16.496290,0.003289,-0.021951,0.012302,0.089036,-0.039091,0.016374,-0.013067,-0.080553,-2.344588,-0.763603,-44.749276,8.411291,4.649411,0.112854,0.284565,2.031769,1.779549,211.270741,39.221966,0.287968,11.272136,1.353912,0.198791,1.000000,1.000000,0.000000,0.000000,1.000000,
52.500000,-176.497410,110.742202,86.435421,-1.675397,11.460997,0.069152,19.044462,0.757627,44.721875,-1.148124,52.080104,61.122812,-0.109415,11.861820,0.114773,51.000000,0.000000,0.000000,9.000000,4.048932,1.005158,16.466336,0.003785,0.095184,0.014265,0.088874,-0.039095,0.016373,-0.013030,-0.080540,-2.577780,-0.753060,-44.626039,9.132252,4.911622,0.041806,0.216642,1.955293,1.790509,217.152210,39.773410,0.242422,12.341910,1.355249,0.193459,1.000000,1.000000,0.000000,0.000000,1.000000,
53.000000,-181.304575,114.416528,86.435087,-1.644136,12.487140,-0.042433,19.070882,0.758736,44.718933,-0.769275,52.080104,61.095712,-0.046258,12.867358,0.023797,51.000000,0.000000,0.000000,9.000000,6.750641,2.318578,16.495463,0.001718,0.087029,0.014265,0.088874,-0.039095,0.016373,-0.013030,-0.080540,-2.576148,-0.756099,-44.631280,9.897035,5.163558,0.065138,0.242619,1.964418,1.801812,223.579905,40.330880,0.325851,13.382677,1.357825,0.227457,1.000000,1.000000,0.000000,0.000000,1.000000,
53.500000,-186.407672,118.416861,86.352844,-1.604088,13.309507,0.161126,19.361123,0.749346,44.713392,-1.097710,53.080104,61.127361,-0.058618,13.643862,0.127752,52.000000,0.000000,0.000000,9.000000,6.266774,1.107905,16.454908,0.003431,0.251548,0.016967,0.088702,-0.039099,0.016373,-0.012980,-0.080546,-2.905254,-0.745154,-44.461249,10.434285,5.326350,-0.037692,0.130745,1.747512,1.812746,230.447078,40.832145,0.256802,14.202215,1.363104,0.191504,1.000000,1.000000,0.000000,0.000000,1.000000,
54.000000,-191.804939,122.742634,86.310791,-1.563457,14.150774,0.034542,19.398735,0.751736,44.710578,-0.669022,53.080104,61.097017,0.011741,14.434870,0.026336,52.000000,0.000000,0.000000,9.000000,8.934835,2.430009,16.494389,0.002708,0.243501,0.016967,0.088702,-0.039099,0.016373,-0.012980,-0.080546,-2.905056,-0.748071,-44.466424,11.069334,5.488395,-0.009457,0.118155,1.755940,1.824104,237.748160,41.361794,0.341624,15.021650,1.371472,0.217434,1.000000,1.000000,0.000000,0.000000,1.000000,
54.500000,-197.419865,127.322079,86.147470,-1.515095,14.754428,0.362388,19.786674,0.736114,44.703900,-1.333764,54.100104,61.150371,-0.044693,14.957861,0.209206,53.000000,0.000000,0.000000,9.000000,7.738119,1.108549,16.440644,0.004072,0.486056,0.020537,0.088458,-0.039102,0.016372,-0.012909,-0.080566,-3.344380,-0.731179,-44.217125,11.401314,5.547802,-0.160332,-0.095361,1.520398,1.835058,245.364910,41.830544,0.255374,15.585594,1.384031,0.170957,1.000000,1.000000,0.000000,0.000000,1.000000,
55.000000,-203.270166,132.172012,86.026728,-1.470162,15.464550,0.167670,19.839220,0.737604,44.701160,-0.642061,54.100104,61.101731,0.027942,15.575436,0.040672,53.000000,0.000000,0.000000,9.000000,10.867541,2.454749,16.493468,0.002491,0.478063,0.020537,0.088458,-0.039102,0.016372,-0.012909,-0.080566,-3.346318,-0.734048,-44.222404,11.943647,5.626010,-0.128737,-0.168911,1.528140,1.846469,253.313453,42.332024,0.330171,16.225602,1.399657,0.190783,1.000000,1.000000,0.000000,0.000000,1.000000,
55.500000,-209.344414,137.114031,86.165990,-1.476332,15.116005,-0.232219,-8.916464,15.220732,46.994154,-0.779271,55.100104,61.050398,-0.332750,15.232450,-0.140343,54.000000,0.000000,0.000000,9.000000,10.977546,0.953257,-11.721217,14.459832,1.717126,0.017070,0.088776,-0.039101,0.016373,-0.012994,-0.080544,-3.039379,-0.668690,-45.291565,11.739760,5.966506,0.104002,0.018387,1.408563,1.855895,261.453462,42.841458,0.246177,15.790175,1.490247,0.143252,1.000000,1.000000,0.000000,0.000000,1.000000,
56.000000,-215.220332,141.148981,86.262634,-2.864282,13.033678,-0.182310,-13.382232,17.045802,46.614188,-1.785111,55.100104,61.079844,-1.521772,13.085317,-0.019446,54.000000,0.000000,0.000000,9.000000,7.501863,2.828761,-16.432157,16.341800,1.217301,0.017070,0.088776,-0.039101,0.016373,-0.012994,-0.080544,-3.065994,-0.695798,-45.398572,9.928454,6.172186,0.162889,0.086396,1.427715,1.867969,268.806098,43.688807,0.299629,13.565585,2.080905,0.149572,1.000000,1.000000,0.000000,0.000000,1.000000,
56.500000,-220.800253,143.995263,86.370878,-4.190524,11.036413,-0.229049,-13.682641,17.192229,46.574281,-1.697792,56.100104,61.082958,-2.744620,10.999346,-0.011849,55.000000,0.000000,0.000000,9.000000,4.920932,2.204616,-16.731349,16.488965,1.150305,0.016945,0.088747,-0.039100,0.016374,-0.012999,-0.080544,-3.050584,-0.701665,-45.424052,8.160010,6.416997,0.216848,0.191376,1.361294,1.878066,275.038019,44.832751,0.226008,11.406674,2.919146,0.166498,1.000000,1.000000,0.000000,0.000000,1.000000,
57.000000,-226.132956,145.719471,86.492631,-5.460866,9.216786,-0.257661,-13.702355,17.208673,46.566211,-1.640774,56.100104,61.086137,-3.934018,9.089905,-0.001646,55.000000,0.000000,0.000000,9.000000,4.166039,3.827439,-16.751912,16.499981,1.138461,0.016945,0.088747,-0.039100,0.016374,-0.012999,-0.080544,-3.050564,-0.707434,-45.427768,6.520552,6.681787,0.255367,0.309929,1.368543,1.889450,280.249674,46.353165,0.283938,9.440060,3.825789,0.216231,1.000000,1.000000,0.000000,0.000000,1.000000,
57.500000,-231.254542,146.475922,86.405309,-6.536114,7.668787,0.337186,-13.771179,17.724913,46.432319,-3.195571,57.100104,61.219005,-5.087076,7.306546,0.446422,56.000000,0.000000,0.000000,9.000000,2.078002,2.919734,-16.760106,16.417582,1.819290,0.016358,0.095036,-0.039244,0.016271,-0.012813,-0.080431,-2.989893,-1.302319,-44.613804,4.979499,6.715755,0.095260,0.095212,1.377952,1.840479,284.571113,48.173305,0.244573,7.814024,4.710701,0.228887,1.000000,1.000000,0.000000,0.000000,1.000000,
58.000000,-236.210231,146.203842,86.355155,-7.879525,5.977527,-0.032852,-13.765498,17.807636,46.408242,-1.764086,57.100104,61.115873,-6.275297,5.497145,0.080382,56.000000,0.000000,0.000000,9.000000,2.306435,4.671121,-16.755077,16.493686,1.788262,0.016358,0.095036,-0.039244,0.016271,-0.012813,-0.080431,-2.990331,-1.312385,-44.619990,3.492262,7.047545,0.110776,0.145071,1.385753,1.851679,287.998557,50.377726,0.344388,5.976641,5.590120,0.283645,1.000000,1.000000,0.000000,0.000000,1.000000,
58.500000,-241.016880,144.946136,86.343933,-9.048328,4.456286,-0.014869,-13.829992,17.924643,46.374892,-1.687196,58.100104,61.110150,-7.304830,3.866580,0.066914,57.000000,0.000000,0.000000,9.000000,0.695187,4.115980,-16.746781,16.484741,1.861384,0.015781,0.096265,-0.039272,0.016251,-0.012796,-0.080408,-2.917906,-1.437920,-44.513705,2.168719,7.308472,0.079597,0.139881,1.314007,1.710311,290.559031,52.915709,0.275702,4.382728,6.430466,0.243850,1.000000,1.000000,0.000000,0.000000,1.000000,
59.000000,-245.678857,142.746806,86.368705,-10.171480,2.981988,-0.069050,-13.836602,17.949121,46.365081,-1.394878,58.100104,61.093733,-8.278435,2.307073,0.015844,57.000000,0.000000,0.000000,9.000000,1.183429,6.230153,-16.752903,16.500278,1.848614,0.015781,0.096265,-0.039272,0.016251,-0.012796,-0.080408,-2.917125,-1.447456,-44.516500,0.903912,7.580042,0.084438,0.180717,1.321140,1.720961,292.299702,55.829449,0.388658,2.911879,7.219407,0.285538,1.000000,1.000000,0.000000,0.000000,1.000000,
59.500000,-250.188524,139.710281,86.291761,-11.135005,1.627130,0.149580,-13.996046,18.143392,46.312173,-1.794730,59.100104,61.129456,-9.083387,0.873359,0.137899,58.000000,0.000000,0.000000,9.000000,-0.424405,5.570337,-16.736424,16.470486,1.934660,0.014392,0.098501,-0.039325,0.016216,-0.012783,-0.080365,-2.742050,-1.670184,-44.377843,-0.210293,7.770372,-0.015938,0.070091,1.213950,1.604737,293.297123,59.088900,0.277500,1.828192,7.934658,0.212710,1.000000,1.000000,0.000000,0.000000,1.000000,
60.000000,-254.545348,135.825899,86.250679,-12.113694,0.256824,0.047256,-14.013440,18.181651,46.299059,-1.265198,59.100104,61.097268,-9.897092,-0.563960,0.027205,58.000000,0.000000,0.000000,9.000000,0.000000,8.119823,-16.752873,16.499134,1.918237,0.014392,0.098501,-0.039325,0.016216,-0.012783,-0.080365,-2.740364,-1.681066,-44.380857,-1.336480,7.988927,-0.020668,0.060373,1.220758,1.615027,293.544215,62.681399,0.375434,1.575041,8.572080,0.243320,1.000000,1.000000,0.000000,0.000000,1.000000,
60.500000,-258.742025,131.139406,86.279750,-12.981230,-1.028019,-0.042809,-13.963960,18.142474,46.305996,-0.946857,60.100104,61.079192,-10.610920,-1.915305,-0.032963,59.000000,0.000000,0.000000,9.000000,-1.883878,8.312468,-16.759503,16.509647,1.899105,0.014852,0.097886,-0.039309,0.016227,-0.012781,-0.080377,-2.796188,-1.631891,-44.406830,-2.380696,8.156602,0.010979,0.106796,1.147397,1.563620,293.065555,66.579530,0.266322,2.401611,9.121686,0.183455,1.000000,1.000000,0.000000,0.000000,1.000000,
61.000000,-262.767705,125.755321,86.291057,-13.701944,-2.198516,-0.010137,-13.959639,18.144045,46.301930,-0.965224,60.100104,61.086290,-11.183048,-3.140125,-0.003723,59.000000,0.000000,0.000000,9.000000,-1.508759,10.394254,-16.753660,16.501252,1.893771,0.014852,0.097886,-0.039309,0.016227,-0.012781,-0.080377,-2.794877,-1.641477,-44.408184,-3.300313,8.262822,0.006503,0.111352,1.153968,1.573649,291.935571,70.752099,0.348308,3.488554,9.581806,0.205847,1.000000,1.000000,0.000000,0.000000,1.000000,
