Time ,gndAlt,velLL X  ,velLL Y  ,velLL Z  ,r,Roll ,Pitch,Yaw  ,gps_velN,gps_velE,Baro Altitude,Baro Altitude RMS,Nav Alt,Nav velLL X,Nav velLL Y,Nav velLL Z,Baro Update Count,GPS Update Count,Baro Chi2,GPS Chi2,Ground Align Chi2,Roll Error,Pitch Error,Yaw Error,Vel N Error,Vel E Error,Vel D Error,velLL X Error,velLL Y Error,N Error (m),E Error (m),Alt Error (m),Acc Bias X Error,Acc Bias Y Error,Acc Bias Z Error,Gyro Bias X Error,Gyro Bias Y Error,Gyro Bias Z Error,Roll Stdev,Pitch Stdev,Yaw Stdev,VN Stdev,VE Stdev,VD Stdev,N Stdev,E Stdev,Alt Stdev,GPSResidual[GPS_N],GPSResidual[GPS_E],GPSResidual[GPS_ALT],GPSResidual[GPS_VN],GPSResidual[GPS_VE],GPSResidual[GPS_VD],
0.500000,0.101886,-0.001489,0.009473,0.002397,-0.010555,14.027753,2.250979,81.065854,0.634223,-0.189866,0.000000,0.250000,0.000000,0.000000,0.000000,0.000000,0.000000,0.000000,0.000000,0.000000,0.000000,0.000000,0.000000,0.000000,0.000000,0.000000,0.000000,0.000000,0.000000,0.000000,0.000000,0.000000,0.000000,0.000000,0.000000,0.000000,0.000000,0.000000,0.000000,0.000000,0.000000,0.000000,0.000000,0.000000,0.000000,0.000000,0.000000,0.000000,0.000000,0.000000,0.000000,0.000000,0.000000,
1.000000,0.101886,-0.001422,0.009057,0.002292,0.047650,14.028408,2.248111,81.077484,0.033274,-0.084797,0.000000,0.250000,0.000000,0.000000,0.000000,0.000000,0.000000,0.000000,0.000000,0.000000,0.000000,0.000000,0.000000,0.000000,0.000000,0.000000,0.000000,0.000000,0.000000,0.000000,0.000000,0.000000,0.000000,0.000000,0.000000,0.000000,0.000000,0.000000,0.000000,0.000000,0.000000,0.000000,0.000000,0.000000,0.000000,0.000000,0.000000,0.000000,0.000000,0.000000,0.000000,0.000000,0.000000,
1.500000,0.101886,-0.001430,0.009121,0.002308,0.053929,14.029014,2.244386,81.092417,0.008850,-0.013172,0.000000,0.250000,0.000000,0.000000,0.000000,0.000000,0.000000,0.000000,0.000000,0.000000,0.000000,0.000000,0.000000,0.000000,0.000000,0.000000,0.000000,0.001430,-0.009121,0.000000,0.000000,-0.000000,0.000000,0.000000,0.000000,0.000000,0.000000,0.000000,8.554585,2.726392,0.000000,0.000000,0.000000,0.000000,0.000000,0.000000,0.000000,0.000000,0.000000,0.000000,0.000000,0.000000,0.000000,
2.000000,0.101929,-0.001403,0.008965,0.002268,0.006621,14.029256,2.241677,81.103140,0.040626,0.045569,0.000000,0.250000,0.000021,0.002053,-0.008820,0.001263,0.000000,0.000000,0.000000,0.000000,0.000000,-3.615658,-0.539215,-81.106686,0.011433,-0.008820,-0.001081,0.003457,-0.017785,0.019149,-0.001738,-0.002764,0.008556,0.061474,-0.013431,-0.008397,-0.009618,-0.039084,8.554631,2.726544,0.028770,0.212318,0.651904,0.121421,0.032977,0.101088,0.018858,0.000000,0.000000,0.000000,0.000000,0.000000,0.000000,
2.500000,0.101928,-0.001491,0.009534,0.002412,0.000375,14.029648,2.239196,81.113080,0.285608,-0.181803,-0.152396,0.250000,-0.001035,-0.002283,0.015961,0.005296,1.000000,0.000000,0.371973,0.000000,0.020650,-3.503347,-0.519740,-81.119070,0.006863,0.015961,0.003010,-0.000792,0.006427,0.023315,0.002343,-0.002890,0.008857,0.062036,-0.013696,-0.008397,-0.009589,-0.038927,4.920218,1.957710,0.035713,0.091586,0.092719,0.081991,0.034807,0.035221,0.032497,0.000000,0.000000,0.000000,0.000000,0.000000,0.000000,
3.000000,0.101928,-0.001454,0.009307,0.002355,-0.014378,14.030025,2.236595,81.123483,-0.000944,-0.183224,-0.152396,0.250000,-0.003970,-0.004009,0.028646,0.008954,1.000000,0.000000,0.371973,0.000000,0.020650,-3.502009,-0.518848,-81.135772,0.005283,0.028647,0.006632,-0.002556,0.019339,0.026990,0.011316,-0.001135,0.008857,0.062036,-0.013696,-0.008397,-0.009589,-0.038927,4.920358,1.958050,0.051243,0.151204,0.153169,0.133160,0.094169,0.095367,0.085649,0.000000,0.000000,0.000000,0.000000,0.000000,0.000000,
3.500000,0.101928,-0.001472,0.009440,0.002389,0.014404,14.030451,2.233935,81.134142,-0.251727,-0.186609,0.000704,0.250000,0.001471,0.000024,-0.000734,0.000293,2.000000,0.000000,0.000006,0.000000,0.110859,-3.531370,-0.525873,-81.138400,0.009063,-0.000734,-0.001966,0.001497,-0.010174,0.034240,-0.006459,-0.007757,0.008695,0.060498,-0.014052,-0.008383,-0.009498,-0.038424,4.803758,1.930997,0.036067,0.054285,0.054334,0.047512,0.042443,0.042472,0.040485,0.000000,0.000000,0.000000,0.000000,0.000000,0.000000,
4.000000,0.101928,-0.001493,0.009583,0.002425,0.040425,14.030891,2.231341,81.144548,-0.084017,-0.013851,0.000704,0.250000,0.001459,-0.000796,0.004191,0.001192,2.000000,0.000000,0.000006,0.000000,0.110859,-3.530352,-0.524832,-81.154918,0.008834,0.004191,-0.001215,0.000697,-0.005392,0.039070,-0.006352,-0.008926,0.008695,0.060498,-0.014052,-0.008383,-0.009498,-0.038424,4.803909,1.931362,0.051473,0.075890,0.075971,0.063175,0.070880,0.070943,0.066476,0.000000,0.000000,0.000000,0.000000,0.000000,0.000000,
4.500000,0.101928,-0.001456,0.009359,0.002368,0.018000,14.031258,2.228817,81.154642,0.163409,0.282278,-0.013400,0.250000,0.001329,-0.000307,0.000606,0.000484,3.000000,0.000000,0.003655,0.000000,0.018460,-3.533967,-0.524071,-81.165623,0.009099,0.000606,-0.001867,0.001150,-0.008753,0.043852,-0.006335,-0.009976,0.008690,0.060527,-0.014066,-0.008377,-0.009458,-0.038205,4.790178,1.929242,0.042354,0.047224,0.047236,0.039025,0.051700,0.051707,0.048727,0.000000,0.000000,0.000000,0.000000,0.000000,0.000000,
5.000000,0.101928,-0.001478,0.009511,0.002406,0.039331,14.031752,2.226171,81.165294,0.038438,-0.005695,-0.013400,0.250000,0.001020,-0.001277,0.005947,0.001408,3.000000,0.000000,0.003655,0.000000,0.018460,-3.532900,-0.522958,-81.181931,0.008272,0.005948,-0.000979,0.000201,-0.003564,0.048326,-0.004402,-0.010848,0.008690,0.060527,-0.014066,-0.008377,-0.009458,-0.038205,4.790335,1.929628,0.056192,0.063436,0.063457,0.049103,0.072497,0.072514,0.067761,0.000000,0.000000,0.000000,0.000000,0.000000,0.000000,
5.500000,0.101928,-0.001443,0.009293,0.002351,0.012105,14.032114,2.223682,81.175244,-0.064034,0.187731,0.223153,0.250000,0.010179,-0.001002,0.003575,-0.002700,4.000000,0.000000,0.757863,0.000000,0.053616,-3.527835,-0.521788,-81.186653,0.008688,0.003575,-0.005122,0.000440,-0.005718,0.053284,-0.005113,-0.021189,0.008664,0.060355,-0.014153,-0.008347,-0.009391,-0.037810,4.785575,1.928951,0.041732,0.044600,0.044605,0.035157,0.059048,0.059051,0.055089,0.000000,0.000000,0.000000,0.000000,0.000000,0.000000,
6.000000,0.101929,-0.001463,0.009436,0.002387,0.028539,14.032491,2.221072,81.185677,-0.012072,-0.011611,0.223153,0.250000,0.011583,-0.001630,0.005605,-0.002929,4.000000,0.000000,0.757863,0.000000,0.053616,-3.526385,-0.520751,-81.202919,0.007408,0.005606,-0.005188,-0.000167,-0.003831,0.057338,-0.001601,-0.023773,0.008664,0.060355,-0.014153,-0.008347,-0.009391,-0.037810,4.785738,1.929355,0.055682,0.058980,0.058987,0.043252,0.075921,0.075928,0.070437,0.000000,0.000000,0.000000,0.000000,0.000000,0.000000,
6.500000,0.101928,-0.001485,0.009585,0.002425,0.042420,14.032886,2.218500,81.195970,0.019808,0.154038,0.357121,0.250000,0.026341,-0.002229,0.010806,-0.004831,5.000000,0.000000,1.852846,0.000000,0.015761,-3.535343,-0.519344,-81.215770,0.007404,0.010806,-0.007238,-0.000744,0.001221,0.062415,-0.001721,-0.039712,0.008624,0.060417,-0.014231,-0.008289,-0.009388,-0.037710,4.782956,1.928986,0.050050,0.043433,0.043434,0.033099,0.064522,0.064524,0.059728,0.000000,0.000000,0.000000,0.000000,0.000000,0.000000,
7.000000,0.101928,-0.001449,0.009369,0.002370,0.007544,14.033208,2.215948,81.206140,-0.028572,-0.023173,0.357121,0.250000,0.029001,-0.003271,0.015184,-0.004924,5.000000,0.000000,1.852846,0.000000,0.015761,-3.534172,-0.518388,-81.232050,0.006149,0.015186,-0.007278,-0.001822,0.005816,0.065943,0.004802,-0.043554,0.008624,0.060417,-0.014231,-0.008289,-0.009388,-0.037710,4.783123,1.929406,0.062343,0.056994,0.056995,0.040214,0.079100,0.079103,0.072763,0.000000,0.000000,0.000000,0.000000,0.000000,0.000000,
7.500000,0.101928,-0.001473,0.009530,0.002411,0.016517,14.033686,2.213300,81.216790,-0.097595,1.212354,0.264761,0.250000,0.037712,-0.001606,0.005815,-0.004755,6.000000,0.000000,0.885884,0.000000,0.103232,-3.554810,-0.517056,-81.238627,0.007535,0.005816,-0.007040,-0.000134,-0.003715,0.072421,-0.004100,-0.053446,0.008562,0.060522,-0.014240,-0.008086,-0.009374,-0.037409,4.782405,1.929155,0.047236,0.042864,0.042863,0.031914,0.068420,0.068421,0.062927,0.000000,0.000000,0.000000,0.000000,0.000000,0.000000,
8.000000,0.101929,-0.001438,0.009319,0.002357,-0.023450,14.034057,2.210659,81.227338,-0.079003,-0.214137,0.264761,0.250000,0.040736,-0.002489,0.008873,-0.004829,6.000000,0.000000,0.885884,0.000000,0.103232,-3.553627,-0.515991,-81.254491,0.006810,0.008874,-0.007153,-0.001051,-0.000447,0.076649,-0.002627,-0.057651,0.008562,0.060522,-0.014240,-0.008086,-0.009374,-0.037409,4.782575,1.929591,0.060006,0.056019,0.056017,0.038459,0.081609,0.081611,0.074447,0.000000,0.000000,0.000000,0.000000,0.000000,0.000000,
8.500000,0.101928,-0.001396,0.009054,0.002290,0.020746,14.034470,2.208149,81.237397,0.077167,0.521086,-0.050451,0.250000,0.032208,-0.001481,0.004282,-0.000544,7.000000,0.000000,0.113314,0.000000,0.037926,-3.569752,-0.515478,-81.269821,0.007978,0.004283,-0.002908,-0.000085,-0.004772,0.082447,-0.007114,-0.050304,0.008533,0.060666,-0.014198,-0.007931,-0.009411,-0.037386,4.781906,1.929331,0.056678,0.042573,0.042572,0.031166,0.071104,0.071104,0.065014,0.000000,0.000000,0.000000,0.000000,0.000000,0.000000,
9.000000,0.101929,-0.001421,0.009230,0.002335,0.022148,14.034941,2.205588,81.247702,-0.500101,-0.070887,-0.050451,0.250000,0.033194,-0.002059,0.005084,-0.000568,7.000000,0.000000,0.113314,0.000000,0.037926,-3.568636,-0.514428,-81.285848,0.007577,0.005085,-0.002976,-0.000638,-0.004147,0.086874,-0.007364,-0.052470,0.008533,0.060666,-0.014198,-0.007931,-0.009411,-0.037386,4.782080,1.929778,0.067894,0.055519,0.055515,0.037336,0.083446,0.083447,0.075525,0.000000,0.000000,0.000000,0.000000,0.000000,0.000000,
9.500000,0.101929,-0.001445,0.009399,0.002378,0.021160,14.035354,2.203061,81.257836,-0.107467,-0.116766,0.099134,0.250000,0.037170,-0.000928,-0.000157,-0.001277,8.000000,0.000000,0.066661,0.000000,0.022966,-3.573411,-0.513940,-81.295748,0.008499,-0.000156,-0.003633,0.000517,-0.009556,0.092505,-0.010092,-0.057627,0.008508,0.060671,-0.014204,-0.007819,-0.009414,-0.037196,4.781474,1.929514,0.053594,0.042425,0.042422,0.030656,0.072912,0.072913,0.066309,0.000000,0.000000,0.000000,0.000000,0.000000,0.000000,
10.000000,0.101929,-0.001468,0.009560,0.002418,0.017707,14.035618,2.200383,81.268461,-0.685919,0.977910,0.099134,0.250000,0.037712,-0.001757,0.001946,-0.001049,8.000000,0.000000,0.066661,0.000000,0.022966,-3.572710,-0.512958,-81.311648,0.007411,0.001947,-0.003340,-0.000288,-0.007614,0.096527,-0.008225,-0.059349,0.008508,0.060671,-0.014204,-0.007819,-0.009414,-0.037196,4.781652,1.929970,0.065235,0.055264,0.055258,0.036557,0.084738,0.084738,0.076141,0.000000,0.000000,0.000000,0.000000,0.000000,0.000000,
10.500000,0.805934,-0.100126,0.797373,-1.414144,0.046821,-4.487984,-0.581930,80.909335,-0.781915,-0.209777,0.230612,0.250000,0.682734,-0.088181,0.715029,-1.511637,9.000000,0.000000,0.448204,0.000000,0.005885,-3.595774,-0.532104,-81.151536,0.724114,0.688131,-0.095718,0.011945,-0.082345,0.389267,0.268572,-0.096603,0.008491,0.060732,-0.014229,-0.007775,-0.009433,-0.037120,4.780052,1.929411,0.240176,0.067111,0.119342,0.122887,0.077157,0.089680,0.073685,0.000000,0.000000,0.000000,0.000000,0.000000,0.000000,
11.000000,1.562804,-0.047742,0.340808,-1.330843,0.047917,-3.896009,-0.416792,80.904936,-1.068579,0.033203,0.230612,0.250000,1.436712,-0.033468,0.243254,-1.503104,9.000000,0.000000,0.448204,0.000000,0.005885,-3.556797,-0.534059,-81.175824,0.317954,0.236363,-0.171177,0.014273,-0.097554,0.647182,0.496204,-0.163573,0.008491,0.060732,-0.014229,-0.007775,-0.009433,-0.037120,4.780038,1.929848,0.232040,0.076367,0.099816,0.227896,0.097969,0.131106,0.138918,0.000000,0.000000,0.000000,0.000000,0.000000,0.000000,
11.500000,2.287859,-0.027681,0.095064,-1.406004,0.049730,-1.885785,-0.083721,80.898005,-0.067378,0.053154,1.286945,0.250000,2.103925,-0.014971,0.006486,-1.502543,10.000000,0.000000,0.929992,0.000000,0.005885,-1.431298,-0.495772,-81.298149,0.086335,0.018554,-0.096036,0.012710,-0.088578,0.741260,0.605892,-0.132557,0.007883,0.021524,-0.006918,-0.007789,-0.009452,-0.037089,4.238744,1.929713,0.189167,0.088739,0.090762,0.280342,0.128886,0.161219,0.227143,0.000000,0.000000,0.000000,0.000000,0.000000,0.000000,
12.000000,2.989230,-0.026208,0.032545,-1.370133,0.044786,0.133272,0.024308,80.906555,0.165836,0.052423,1.286945,0.250000,2.855419,-0.011664,-0.077995,-1.499372,10.000000,0.000000,0.929992,0.000000,0.005885,-1.435421,-0.500440,-81.316842,0.023933,-0.057181,-0.128791,0.014545,-0.110540,0.761981,0.589239,-0.188965,0.007883,0.021524,-0.006918,-0.007789,-0.009452,-0.037089,4.238891,1.930188,0.186028,0.099005,0.090095,0.359086,0.167587,0.197569,0.382054,0.000000,0.000000,0.000000,0.000000,0.000000,0.000000,
12.500000,3.657098,-0.028953,0.080993,-1.290334,0.046803,0.755703,0.040691,80.917558,-0.487487,-0.698574,3.048667,0.250000,3.649486,-0.011200,-0.047807,-1.497188,11.000000,0.000000,0.014460,0.000000,0.005885,-1.859459,-0.513229,-81.317104,0.071879,-0.031797,-0.206424,0.017753,-0.128800,0.785393,0.549345,-0.321395,0.008014,0.029274,-0.008356,-0.007788,-0.009448,-0.037095,2.389320,1.928975,0.133245,0.108226,0.095386,0.237836,0.211570,0.192419,0.300093,0.000000,0.000000,0.000000,0.000000,0.000000,0.000000,
13.000000,4.306718,-0.031084,0.127457,-1.249403,0.048176,0.341912,0.020674,80.927849,-0.041726,0.019079,3.048667,0.250000,4.399387,-0.011106,-0.014790,-1.497596,11.000000,0.000000,0.014460,0.000000,0.005885,-1.856177,-0.515679,-81.332448,0.119033,-0.004054,-0.247643,0.019978,-0.142247,0.834828,0.541515,-0.435164,0.008014,0.029274,-0.008356,-0.007788,-0.009448,-0.037095,2.389736,1.929471,0.139566,0.119513,0.107856,0.282860,0.261804,0.232152,0.426963,0.000000,0.000000,0.000000,0.000000,0.000000,0.000000,
13.500000,5.014801,-0.027928,0.101387,-1.418329,0.045313,-0.678215,-0.067346,80.938747,-0.188043,-0.408060,4.156698,0.250000,4.855856,-0.011664,-0.063976,-1.502835,12.000000,0.000000,0.533891,0.000000,0.005885,-0.409951,-0.479131,-81.403657,0.093403,-0.052324,-0.084248,0.016263,-0.165363,0.880087,0.584301,-0.200960,0.007480,0.002748,-0.003453,-0.007786,-0.009461,-0.037075,1.349984,1.929265,0.124355,0.133863,0.121247,0.165569,0.318695,0.269703,0.279558,0.000000,0.000000,0.000000,0.000000,0.000000,0.000000,
14.000000,5.730972,-0.024405,0.076802,-1.400611,0.048806,0.136633,-0.003595,80.948543,0.048228,0.153137,4.156698,0.250000,5.607459,-0.005971,-0.111355,-1.499649,12.000000,0.000000,0.533891,0.000000,0.005885,-0.409512,-0.482555,-81.419708,0.072656,-0.099243,-0.098963,0.018435,-0.188157,0.918956,0.543357,-0.246984,0.007480,0.002748,-0.003453,-0.007786,-0.009461,-0.037075,1.350745,1.929774,0.130174,0.145848,0.134777,0.186861,0.382356,0.325950,0.364326,0.000000,0.000000,0.000000,0.000000,0.000000,0.000000,
14.500000,6.493393,-0.022043,0.082613,-1.532306,0.046950,0.009284,-0.037636,80.958667,-0.060133,-0.210556,5.352694,0.250000,6.082638,-0.006009,-0.135977,-1.502633,13.000000,0.000000,0.732479,0.000000,0.005885,0.427636,-0.454391,-81.468658,0.077862,-0.127068,0.029690,0.016034,-0.218589,0.944756,0.513864,0.028495,0.007028,-0.012648,-0.000622,-0.007782,-0.009469,-0.037063,0.933495,1.929968,0.131099,0.160259,0.148575,0.121565,0.452651,0.388410,0.253070,0.000000,0.000000,0.000000,0.000000,0.000000,0.000000,
15.000000,7.270314,-0.020559,0.100858,-1.527561,0.052341,0.415062,0.011540,80.969131,-0.057127,-0.082478,5.352694,0.250000,6.834019,-0.002323,-0.143332,-1.499285,13.000000,0.000000,0.732479,0.000000,0.005885,0.427087,-0.457481,-81.484127,0.098637,-0.138746,0.028138,0.018236,-0.244190,0.987743,0.445739,0.042711,0.007028,-0.012648,-0.000622,-0.007782,-0.009469,-0.037063,0.934651,1.930507,0.137268,0.173136,0.162707,0.133988,0.529638,0.459571,0.313229,0.000000,0.000000,0.000000,0.000000,0.000000,0.000000,
15.500000,8.027973,-0.024144,0.149863,-1.466198,0.045985,0.669884,0.068336,80.980928,-0.179728,-0.132820,7.183645,0.250000,7.720669,-0.001274,-0.114024,-1.497027,14.000000,0.000000,0.274057,0.000000,0.005885,0.137797,-0.479561,-81.488813,0.148508,-0.113593,-0.030902,0.022870,-0.263887,1.056659,0.375921,-0.101367,0.007330,-0.007337,-0.001595,-0.007785,-0.009467,-0.037067,0.756387,1.930725,0.141732,0.185747,0.176805,0.097095,0.612348,0.537790,0.232345,0.000000,0.000000,0.000000,0.000000,0.000000,0.000000,
16.000000,8.782782,-0.028678,0.198593,-1.460861,0.051809,0.486170,0.044384,80.990660,-0.478795,0.045640,7.183645,0.250000,8.470555,-0.003125,-0.088020,-1.497700,14.000000,0.000000,0.274057,0.000000,0.005885,0.141059,-0.481755,-81.504600,0.195995,-0.090710,-0.036989,0.025553,-0.286613,1.143632,0.325314,-0.118604,0.007330,-0.007337,-0.001595,-0.007785,-0.009467,-0.037067,0.757905,1.931282,0.147967,0.199723,0.191671,0.106423,0.701704,0.623439,0.278942,0.000000,0.000000,0.000000,0.000000,0.000000,0.000000,
16.500000,9.561182,-0.029111,0.229148,-1.512171,0.051335,0.300648,-0.011702,81.000800,-0.488105,-0.932787,8.340754,0.250000,9.068470,-0.003330,-0.086775,-1.499239,15.000000,0.000000,0.482059,0.000000,0.005885,0.387994,-0.452355,-81.530209,0.226335,-0.093738,0.012726,0.025781,-0.315923,1.238469,0.278692,0.034236,0.006814,-0.011820,-0.000774,-0.007783,-0.009469,-0.037064,0.673737,1.931337,0.153533,0.214789,0.206842,0.083216,0.798051,0.716606,0.217197,0.000000,0.000000,0.000000,0.000000,0.000000,0.000000,
17.000000,10.347624,-0.029220,0.256932,-1.508732,0.045770,0.393073,0.026716,81.011576,-0.251339,-0.001821,8.340754,0.250000,9.818903,-0.000408,-0.083107,-1.498085,15.000000,0.000000,0.482059,0.000000,0.005885,0.388149,-0.455305,-81.546125,0.256605,-0.094322,0.010532,0.028812,-0.340039,1.359208,0.231039,0.039788,0.006814,-0.011820,-0.000774,-0.007783,-0.009469,-0.037064,0.675491,1.931923,0.159427,0.229674,0.222475,0.090582,0.901747,0.817406,0.255803,0.000000,0.000000,0.000000,0.000000,0.000000,0.000000,
17.500000,11.131423,-0.032926,0.291477,-1.492569,0.049701,0.441089,0.062946,81.021392,-0.239449,0.026200,10.030701,0.250000,10.609719,-0.000071,-0.070660,-1.497550,16.000000,0.000000,0.044809,0.000000,0.005885,0.337061,-0.470074,-81.559510,0.291673,-0.083609,-0.005091,0.032854,-0.362137,1.500634,0.188002,-0.001497,0.007012,-0.010869,-0.000949,-0.007783,-0.009468,-0.037064,0.631937,1.931737,0.164969,0.244863,0.238308,0.074742,1.012437,0.925917,0.205987,0.000000,0.000000,0.000000,0.000000,0.000000,0.000000,
18.000000,11.916613,-0.037416,0.325711,-1.489501,0.048728,0.405899,0.052498,81.032003,-1.257748,0.012708,10.030701,0.250000,11.359656,-0.001126,-0.059836,-1.497398,16.000000,0.000000,0.044809,0.000000,0.005885,0.339117,-0.472565,-81.575608,0.325289,-0.073617,-0.008073,0.036290,-0.385548,1.655201,0.148648,-0.005043,0.007012,-0.010869,-0.000949,-0.007783,-0.009468,-0.037064,0.633894,1.932344,0.170775,0.260710,0.254749,0.081097,1.130843,1.042431,0.239601,0.000000,0.000000,0.000000,0.000000,0.000000,0.000000,
18.500000,12.717643,-0.038418,0.355672,-1.521829,0.051446,0.358024,-0.004354,81.041740,-0.295467,-0.015692,11.269472,0.250000,11.998194,-0.000940,-0.058368,-1.498706,17.000000,0.000000,0.411861,0.000000,0.005885,0.457175,-0.432175,-81.596318,0.355326,-0.075695,0.022918,0.037478,-0.414040,1.810169,0.102040,0.114286,0.006288,-0.013001,-0.000552,-0.007785,-0.009468,-0.037063,0.609857,1.931842,0.176423,0.277348,0.271584,0.069408,1.256975,1.167035,0.197675,0.000000,0.000000,0.000000,0.000000,0.000000,0.000000,
19.000000,13.525248,-0.039335,0.384679,-1.519527,0.045801,0.382882,0.040062,81.052929,-0.375385,0.011687,11.269472,0.250000,12.748473,0.001999,-0.053167,-1.497670,17.000000,0.000000,0.411861,0.000000,0.005885,0.458286,-0.435043,-81.612258,0.387068,-0.074118,0.021680,0.041333,-0.437846,1.996040,0.064136,0.125193,0.006288,-0.013001,-0.000552,-0.007785,-0.009468,-0.037063,0.611944,1.932478,0.182009,0.294099,0.288849,0.075032,1.391415,1.300096,0.228043,0.000000,0.000000,0.000000,0.000000,0.000000,0.000000,
19.500000,14.314325,-0.048694,0.415755,-1.462001,0.049388,0.403781,0.163959,81.063755,-0.608098,0.347276,13.288500,0.250000,13.688692,0.001327,-0.036454,-1.496428,18.000000,0.000000,1.400235,0.000000,0.005885,0.294657,-0.527077,-81.620933,0.418654,-0.053092,-0.034613,0.050021,-0.452209,2.232009,0.054282,-0.075661,0.007819,-0.009962,-0.001131,-0.007777,-0.009469,-0.037065,0.598068,1.931677,0.187369,0.310759,0.306246,0.065915,1.533505,1.441490,0.191475,0.000000,0.000000,0.000000,0.000000,0.000000,0.000000,
20.000000,15.099589,-0.058836,0.445214,-1.458663,0.048516,0.357415,0.083307,81.073834,-0.729431,-0.383637,13.288500,0.250000,14.438278,-0.004676,-0.029543,-1.497057,18.000000,0.000000,1.400235,0.000000,0.005885,0.297017,-0.528737,-81.637370,0.443485,-0.040494,-0.038606,0.054159,-0.474757,2.447689,0.031138,-0.094212,0.007819,-0.009962,-0.001131,-0.007777,-0.009469,-0.037065,0.600317,1.932326,0.192976,0.328455,0.324351,0.071154,1.684268,1.591740,0.219696,0.000000,0.000000,0.000000,0.000000,0.000000,0.000000,
20.500000,15.920131,-0.086412,1.140603,-1.469119,0.054147,14.315910,0.456883,81.117334,-1.136995,0.092472,14.380897,0.250000,15.099836,-0.029543,0.608410,-1.491594,19.000000,0.000000,0.326368,0.000000,0.005885,0.372368,-0.482916,-81.653603,1.095139,0.520568,-0.022790,0.056868,-0.532193,2.754174,0.084936,-0.019796,0.006999,-0.011132,-0.000901,-0.007782,-0.009468,-0.037064,0.591534,1.931438,0.198012,0.346694,0.342832,0.063508,1.843522,1.750802,0.186871,0.000000,0.000000,0.000000,0.000000,0.000000,0.000000,
21.000000,16.878167,-0.125407,2.483774,-1.462593,0.054309,16.005528,0.484668,81.135745,-2.491197,0.196095,14.380897,0.250000,15.847173,-0.064497,1.927135,-1.494198,19.000000,0.000000,0.326368,0.000000,0.005885,0.360228,-0.481904,-81.669584,2.402953,1.671861,-0.031740,0.060910,-0.556639,3.623919,0.628423,-0.033731,0.006999,-0.011132,-0.000901,-0.007782,-0.009468,-0.037064,0.593694,1.932162,0.203314,0.365312,0.361770,0.068603,2.012054,1.919204,0.213545,0.000000,0.000000,0.000000,0.000000,0.000000,0.000000,
21.500000,17.990475,-0.165255,3.844692,-1.424841,0.053980,16.188114,0.542379,81.163021,-3.778378,0.463916,16.231636,0.250000,16.704708,-0.097844,3.269523,-1.494777,20.000000,0.000000,0.565797,0.000000,0.005885,0.288763,-0.547174,-6.069850,0.616183,0.322134,-0.070050,0.067411,-0.575170,3.313024,0.058775,-0.172242,0.008147,-0.009874,-0.001156,-0.007724,-0.009472,-0.037065,0.588328,1.930947,0.208529,0.384141,0.381022,0.062816,2.189269,2.096956,0.183370,0.000000,0.000000,0.000000,0.000000,0.000000,0.000000,
22.000000,19.262643,-0.206939,5.172882,-1.416249,0.052250,16.203868,0.550004,81.176178,-4.913989,0.513198,16.231636,0.250000,17.453713,-0.136494,4.579057,-1.496454,20.000000,0.000000,0.565797,0.000000,0.005885,0.289830,-0.545486,-6.085759,0.660755,0.460079,-0.080240,0.070444,-0.593824,3.632515,0.254758,-0.210116,0.008147,-0.009874,-0.001156,-0.007724,-0.009472,-0.037065,0.590686,1.931660,0.213760,0.403752,0.400828,0.068372,2.376221,2.284312,0.209152,0.000000,0.000000,0.000000,0.000000,0.000000,0.000000,
22.500000,20.717411,-0.245714,6.442820,-1.472636,0.054718,15.929421,0.457643,81.160056,-6.779179,0.466847,17.194407,0.250000,18.028263,-0.279182,6.228453,-1.499091,21.000000,1.000000,1.334261,3.303536,0.005885,0.600959,-0.439030,-0.445325,0.191178,-0.015104,-0.026503,-0.033468,-0.214367,1.423483,-0.355475,-0.053822,0.007324,-0.011733,-0.000816,-0.012019,-0.008312,-0.037106,0.535622,1.784212,0.218963,0.202077,0.160402,0.061147,0.883148,0.672893,0.179917,-2.503024,-0.369838,5.909824,-0.656121,-0.577607,0.347900,
23.000000,22.326454,-0.274338,7.606641,-1.466868,0.054049,15.892415,0.442797,81.166182,-7.545355,0.869353,17.194407,0.250000,18.778559,-0.310849,7.393275,-1.498166,21.000000,1.000000,1.334261,3.303536,0.005885,0.605369,-0.436547,-0.461104,0.192587,-0.007062,-0.031333,-0.036511,-0.213367,1.519627,-0.360806,-0.068560,0.007324,-0.011733,-0.000816,-0.012019,-0.008312,-0.037106,0.537616,1.784283,0.224135,0.217397,0.173891,0.065810,0.965748,0.732745,0.204648,-2.503024,-0.369838,5.909824,-0.656121,-0.577607,0.347900,
23.500000,24.036264,-0.174195,7.363675,-1.467571,0.055398,-19.051169,-3.071510,80.500156,-7.135498,0.889274,18.775535,0.250000,19.468164,-0.172372,7.379977,-1.491415,22.000000,2.000000,0.158208,5.031770,0.005885,0.713361,-0.581288,-1.209499,0.041350,0.156505,-0.017784,0.001824,0.016302,0.833837,0.429741,-0.015412,0.009768,-0.012755,-0.000702,-0.013713,-0.008632,-0.037008,0.545464,1.770417,0.233911,0.220818,0.152634,0.059277,0.902791,0.528541,0.177347,-1.314086,1.313961,5.276027,-0.130860,-0.139652,0.244793,
24.000000,25.537486,-0.056023,5.022148,-1.458668,0.058658,-25.284888,-1.406769,79.791158,-5.100228,0.699287,18.775535,0.250000,20.212379,-0.049237,5.063287,-1.488175,22.000000,2.000000,0.158208,5.031770,0.005885,0.768392,-0.581170,-1.201234,0.022304,0.112035,-0.029404,0.006785,0.041139,0.849935,0.497463,-0.027556,0.009768,-0.012755,-0.000702,-0.013713,-0.008632,-0.037008,0.561216,1.765948,0.236147,0.236351,0.166477,0.062177,0.996719,0.581107,0.200878,-1.314086,1.313961,5.276027,-0.130860,-0.139652,0.244793,
24.500000,26.731780,-0.010999,2.580411,-1.449657,0.062417,-25.758070,-0.451608,79.345404,-2.949278,0.709453,20.434667,0.250000,20.992000,-0.006353,2.660504,-1.495176,23.000000,3.000000,0.082008,1.266510,0.005885,0.792680,-0.633011,-0.566052,-0.031261,0.037856,-0.045534,0.004647,0.080094,0.687421,0.347498,-0.080244,0.010672,-0.012617,-0.000753,-0.014050,-0.008512,-0.037030,0.565806,1.753931,0.239890,0.251763,0.155053,0.057859,1.097407,0.474425,0.174568,-0.310394,-0.269109,4.509715,-0.117580,-0.130834,0.229680,
25.000000,27.656561,0.002791,0.880698,-1.471103,0.051225,-8.554798,-0.036045,79.203881,-1.056583,0.341518,20.434667,0.250000,21.746628,0.008043,0.930801,-1.517451,23.000000,3.000000,0.082008,1.266510,0.005885,0.844846,-0.640256,-0.573041,-0.032012,0.021001,-0.047257,0.005253,0.050102,0.670970,0.361804,-0.103938,0.010672,-0.012617,-0.000753,-0.014050,-0.008512,-0.037030,0.570716,1.753049,0.244496,0.268656,0.169535,0.063001,1.210182,0.528877,0.197168,-0.310394,-0.269109,4.509715,-0.117580,-0.130834,0.229680,
25.500000,28.479984,0.060470,0.723397,-1.462646,0.045526,2.136726,-1.060152,79.259059,-0.827155,0.215327,21.774026,0.250000,22.478732,-0.053966,0.681896,-1.506124,24.000000,4.000000,0.187452,4.424714,0.005885,0.813551,-0.741086,-0.771965,0.017941,-0.108869,-0.043496,-0.114436,-0.041501,0.817589,-0.058756,-0.101083,0.013801,-0.013577,-0.000676,-0.012915,-0.006811,-0.037175,0.564643,1.736771,0.250472,0.256499,0.158785,0.058747,1.235748,0.453676,0.172927,0.233824,-0.816318,7.022432,0.387958,-0.483489,-0.312332,
26.000000,29.308252,0.121991,0.900525,-1.454696,0.048263,1.467484,-0.344371,79.295801,-0.813044,0.392472,21.774026,0.250000,23.231377,0.002524,0.863796,-1.500333,24.000000,4.000000,0.187452,4.424714,0.005885,0.807046,-0.742775,-0.777944,0.014109,-0.111738,-0.045723,-0.119466,-0.036729,0.826022,-0.113735,-0.123648,0.013801,-0.013577,-0.000676,-0.012915,-0.006811,-0.037175,0.565428,1.737275,0.254784,0.272643,0.173191,0.062649,1.351299,0.512249,0.195861,0.233824,-0.816318,7.022432,0.387958,-0.483489,-0.312332,
26.500000,30.148693,0.076425,0.943730,-1.454093,0.048314,-0.006833,1.036065,79.324296,-0.847384,0.313190,23.382304,0.250000,23.980401,0.067034,0.937400,-1.499077,25.000000,5.000000,0.008167,1.018787,0.005885,0.786219,-0.629946,-0.132308,0.004848,-0.009879,-0.045157,-0.009391,-0.006330,0.812069,0.064959,-0.144271,0.010496,-0.012840,-0.000703,-0.013281,-0.008283,-0.037054,0.557612,1.716528,0.258921,0.247324,0.160511,0.057798,1.322426,0.448618,0.172407,-0.016818,0.328974,0.519847,-0.089145,0.429229,0.281374,
27.000000,30.989775,0.016615,0.928915,-1.450914,0.047874,-0.040625,0.307028,79.335601,-0.902287,0.402602,23.382304,0.250000,24.730793,0.005114,0.928303,-1.498034,25.000000,5.000000,0.008167,1.018787,0.005885,0.792295,-0.630429,-0.158132,-0.000923,-0.009439,-0.047296,-0.011501,-0.000612,0.813276,0.060327,-0.167625,0.010496,-0.012840,-0.000703,-0.013281,-0.008283,-0.037054,0.559530,1.716837,0.264253,0.262266,0.174760,0.061591,1.432653,0.510630,0.195247,-0.016818,0.328974,0.519847,-0.089145,0.429229,0.281374,
27.500000,31.842780,-0.004691,0.884807,-1.488670,0.047308,-0.625108,0.223545,79.346252,-0.316776,-0.040680,24.451949,0.250000,25.324482,0.024967,0.961935,-1.498750,26.000000,6.000000,1.738307,7.478593,0.005885,0.834501,-0.402234,0.124970,-0.069738,0.040819,-0.010307,0.029659,0.077128,0.599719,0.160325,-0.020606,0.006067,-0.012749,-0.000540,-0.014411,-0.008798,-0.037053,0.552077,1.695642,0.269233,0.230005,0.160018,0.056687,1.363616,0.448459,0.171873,-0.337372,0.082056,11.952598,-0.459697,0.263770,0.418872,
28.000000,32.693602,-0.016565,0.846079,-1.487084,0.047316,-0.107252,0.076170,79.357431,-0.817899,-0.087787,24.451949,0.250000,26.074934,0.014678,0.931889,-1.498471,26.000000,6.000000,1.738307,7.478593,0.005885,0.837763,-0.402576,0.106903,-0.078622,0.044685,-0.011481,0.031243,0.085811,0.562880,0.181879,-0.026327,0.006067,-0.012749,-0.000540,-0.014411,-0.008798,-0.037053,0.553815,1.696112,0.274286,0.243677,0.174006,0.060285,1.463544,0.512315,0.194305,-0.337372,0.082056,11.952598,-0.459697,0.263770,0.418872,
28.500000,33.536735,-0.024287,0.768720,-1.481014,0.051140,-1.265566,0.109893,79.366756,-0.893896,0.248188,26.242205,0.250000,26.841821,0.007284,0.994858,-1.497849,27.000000,7.000000,0.006281,6.048263,0.005885,0.955783,-0.539725,0.169666,-0.215001,0.069333,-0.017038,0.031570,0.226138,0.107246,0.270375,-0.051075,0.008471,-0.013131,-0.000532,-0.016200,-0.008816,-0.037110,0.546640,1.678135,0.279167,0.211111,0.157837,0.055720,1.380188,0.449447,0.171065,-0.710041,0.121224,9.121431,-0.627584,0.085447,0.459307,
29.000000,34.367096,-0.030734,0.691206,-1.479361,0.047194,-0.378877,0.053065,79.378430,-0.698788,-0.040554,26.242205,0.250000,27.591836,0.002732,0.933706,-1.497634,27.000000,7.000000,0.006281,6.048263,0.005885,0.960540,-0.541380,0.152528,-0.231941,0.074948,-0.018443,0.033466,0.242500,-0.004245,0.306632,-0.060206,0.008471,-0.013131,-0.000532,-0.016200,-0.008816,-0.037110,0.548314,1.678695,0.284128,0.223762,0.171529,0.059386,1.468337,0.513688,0.193067,-0.710041,0.121224,9.121431,-0.627584,0.085447,0.459307,
29.500000,35.196640,-0.056280,0.734760,-1.484529,0.048000,1.112855,0.453922,79.391727,-0.593315,-0.065814,27.699444,0.250000,28.324145,0.032195,0.886539,-1.497758,28.000000,8.000000,0.002435,1.417255,0.005885,0.858877,-0.391311,0.267178,-0.135498,0.110496,-0.013488,0.088475,0.151779,0.291564,0.469643,-0.049914,0.005289,-0.012585,-0.000541,-0.014843,-0.009319,-0.037022,0.541675,1.664839,0.288816,0.194572,0.155047,0.055013,1.393051,0.449997,0.170192,0.875728,0.318407,-0.781426,0.284899,-0.082055,0.038532,
30.000000,36.035704,-0.083256,0.791392,-1.483773,0.047750,0.298081,0.182785,79.398141,-0.329234,0.469002,27.699444,0.250000,29.074237,0.009385,0.958077,-1.497971,28.000000,8.000000,0.002435,1.417255,0.005885,0.864670,-0.391331,0.247373,-0.148027,0.117474,-0.014328,0.092641,0.166684,0.220952,0.526800,-0.057109,0.005289,-0.012585,-0.000541,-0.014843,-0.009319,-0.037022,0.543480,1.665407,0.293834,0.206563,0.168489,0.058551,1.470312,0.513746,0.191786,0.875728,0.318407,-0.781426,0.284899,-0.082055,0.038532,
30.500000,36.884596,-0.039790,0.868356,-1.494397,0.048968,1.404696,-0.890673,79.393511,-0.897008,0.212621,29.067675,0.250000,29.773844,-0.028909,0.902954,-1.498288,29.000000,9.000000,0.214931,4.185869,0.005885,0.769564,-0.217840,-0.283073,-0.033064,0.023213,-0.004057,0.010881,0.034598,0.626584,0.298934,-0.010116,0.003182,-0.012499,-0.000509,-0.013045,-0.008251,-0.036998,0.538526,1.655468,0.299377,0.179202,0.152363,0.054467,1.387222,0.449712,0.169317,1.029084,-0.276541,1.794152,0.334646,-0.751307,-0.311100,
31.000000,37.744444,0.009377,0.938302,-1.492906,0.048019,0.381978,-0.208133,79.414526,-0.702403,0.136258,29.067675,0.250000,30.523994,0.022506,0.981093,-1.497515,29.000000,9.000000,0.214931,4.185869,0.005885,0.775068,-0.220239,-0.289947,-0.039043,0.026083,-0.004765,0.013129,0.042791,0.608826,0.311430,-0.012577,0.003182,-0.012499,-0.000509,-0.013045,-0.008251,-0.036998,0.539656,1.656260,0.303778,0.190869,0.165632,0.057992,1.453375,0.512613,0.190574,1.029084,-0.276541,1.794152,0.334646,-0.751307,-0.311100,
31.500000,38.603138,0.013200,0.982163,-1.477957,0.046545,0.748241,0.046645,79.426990,-0.247857,-0.220115,30.825015,0.250000,31.335171,0.023182,0.955325,-1.497737,30.000000,10.000000,0.283531,1.151340,0.005885,0.719661,-0.217265,-0.301182,0.028264,0.009932,-0.019894,0.009982,-0.026839,0.904425,0.269068,-0.082067,0.003143,-0.012225,-0.000577,-0.012144,-0.008116,-0.036976,0.534539,1.650325,0.308487,0.166680,0.149976,0.054173,1.372730,0.448746,0.168555,0.811709,-0.063803,1.458405,-0.037861,-0.160629,0.018881,
32.000000,39.465478,0.008014,1.014686,-1.476907,0.049279,0.217139,0.061571,79.436614,-0.659458,0.343374,30.825015,0.250000,32.085065,0.018620,0.991949,-1.497776,30.000000,10.000000,0.283531,1.151340,0.005885,0.725290,-0.219548,-0.316517,0.025197,0.011579,-0.020967,0.010606,-0.022737,0.918049,0.274617,-0.092541,0.003143,-0.012225,-0.000577,-0.012144,-0.008116,-0.036976,0.536132,1.651015,0.313318,0.178324,0.163119,0.057714,1.428489,0.510667,0.189607,0.811709,-0.063803,1.458405,-0.037861,-0.160629,0.018881,
32.500000,40.324408,0.000053,0.979999,-1.467139,0.051049,-0.594901,0.113548,79.447058,-1.018153,0.170249,32.307593,0.250000,32.871900,0.014159,1.021570,-1.497510,31.000000,11.000000,0.066022,1.086095,0.005885,0.771040,-0.292271,-0.313013,-0.036163,0.026597,-0.030594,0.014107,0.041572,0.688526,0.341758,-0.143684,0.004353,-0.012265,-0.000603,-0.012794,-0.008157,-0.036985,0.531380,1.647646,0.318116,0.157908,0.148188,0.054042,1.362273,0.447407,0.167997,-0.587514,0.163565,3.712328,-0.018183,-0.025595,0.028926,
33.000000,41.175969,-0.006581,0.938549,-1.465566,0.047861,-0.155436,0.050410,79.458266,-0.200835,1.268358,32.307593,0.250000,33.621816,0.008356,0.985909,-1.497290,31.000000,11.000000,0.066022,1.086095,0.005885,0.773847,-0.293506,-0.329905,-0.042343,0.028779,-0.031977,0.014938,0.047360,0.669134,0.355764,-0.159577,0.004353,-0.012265,-0.000603,-0.012794,-0.008157,-0.036985,0.532954,1.648357,0.322959,0.169721,0.161261,0.057569,1.409283,0.508486,0.188952,-0.587514,0.163565,3.712328,-0.018183,-0.025595,0.028926,
33.500000,42.034397,0.005693,0.926658,-1.492031,0.047671,0.015493,-0.247657,79.468707,-1.157849,-0.083004,33.465145,0.250000,34.259831,-0.003732,0.982022,-1.498743,32.000000,12.000000,0.825662,0.425172,0.005885,0.805080,-0.254802,-0.417178,-0.054660,0.008245,-0.006830,-0.009425,0.055364,0.614834,0.276635,-0.053938,0.003923,-0.012789,-0.000486,-0.012840,-0.007915,-0.036988,0.528341,1.646513,0.327903,0.152921,0.147048,0.053950,1.369373,0.446051,0.167636,-0.106306,-0.214320,-2.878416,0.044444,-0.033822,0.028709,
34.000000,42.894011,0.019109,0.921224,-1.490682,0.050436,0.029603,-0.051366,79.478773,-0.901749,0.189407,33.465145,0.250000,35.010077,0.010190,0.983775,-1.498135,32.000000,12.000000,0.825662,0.425172,0.005885,0.808743,-0.257630,-0.430083,-0.061570,0.009977,-0.007571,-0.008919,0.062551,0.586028,0.281346,-0.057776,0.003923,-0.012789,-0.000486,-0.012840,-0.007915,-0.036988,0.529829,1.647257,0.332598,0.164965,0.160093,0.057450,1.410170,0.506523,0.188534,-0.106306,-0.214320,-2.878416,0.044444,-0.033822,0.028709,
34.500000,43.760575,0.067014,0.973366,-1.506618,0.048025,1.092632,-0.855537,79.480698,-0.813257,0.218063,34.942781,0.250000,35.685166,-0.025878,0.936207,-1.498507,33.000000,13.000000,0.414297,3.014203,0.005885,0.761967,-0.155967,-0.597351,0.019877,-0.086900,0.007974,-0.092892,-0.037159,0.914545,-0.134009,0.019175,0.002984,-0.013074,-0.000421,-0.011691,-0.007028,-0.036983,0.525549,1.646017,0.337821,0.149993,0.146313,0.053855,1.383242,0.444840,0.167397,0.854677,-1.028798,-2.970711,0.113606,-0.047879,-0.180853,
35.000000,44.635884,0.114258,1.027240,-1.505694,0.051029,0.341557,-0.234981,79.498616,-0.893566,0.362644,34.942781,0.250000,36.435378,0.019043,0.994135,-1.497977,33.000000,13.000000,0.414297,3.014203,0.005885,0.766917,-0.157899,-0.604907,0.017030,-0.088921,0.007534,-0.095215,-0.033105,0.924060,-0.177784,0.022812,0.002984,-0.013074,-0.000421,-0.011691,-0.007028,-0.036983,0.526704,1.646853,0.342232,0.162261,0.159348,0.057333,1.419358,0.504890,0.188247,0.854677,-1.028798,-2.970711,0.113606,-0.047879,-0.180853,
35.500000,45.518543,0.107282,0.999558,-1.521996,0.048859,-0.533871,0.244277,79.508300,-1.003556,0.159122,36.357135,0.250000,37.115365,0.028797,1.022187,-1.498503,34.000000,14.000000,0.522790,3.026015,0.005885,0.831588,-0.204174,-0.603576,-0.033345,-0.063077,0.023277,-0.078485,0.022630,0.748329,-0.101348,0.102488,0.003524,-0.013514,-0.000347,-0.012276,-0.007262,-0.036984,0.521797,1.645892,0.346773,0.148090,0.145872,0.053734,1.394045,0.443841,0.167220,-0.413124,0.303825,8.095974,-0.106192,0.006984,-0.070726,
36.000000,46.397944,0.092446,0.960571,-1.521419,0.052395,-0.139273,0.068116,79.520020,-1.019437,0.323987,36.357135,0.250000,37.865576,0.010997,0.988233,-1.498011,34.000000,14.000000,0.522790,3.026015,0.005885,0.834230,-0.204069,-0.622064,-0.039532,-0.064730,0.023128,-0.081449,0.027662,0.730338,-0.133133,0.113841,0.003524,-0.013514,-0.000347,-0.012276,-0.007262,-0.036984,0.523355,1.646622,0.351592,0.160545,0.158892,0.057168,1.426102,0.503616,0.188016,-0.413124,0.303825,8.095974,-0.106192,0.006984,-0.070726,
36.500000,47.271224,0.097229,0.968632,-1.510634,0.046400,0.383904,-0.138524,79.529826,-0.486905,0.502854,38.149470,0.250000,38.661233,0.003964,0.971051,-1.497647,35.000000,15.000000,0.272210,3.565691,0.005885,0.793457,-0.173893,-0.645750,-0.017626,-0.080248,0.012825,-0.093264,0.002419,0.765207,-0.206302,0.075659,0.003119,-0.013220,-0.000393,-0.011836,-0.007137,-0.036983,0.518535,1.645330,0.356414,0.147200,0.145585,0.053577,1.414881,0.443151,0.167060,-0.065484,-0.036810,-8.265216,0.435531,-0.139939,0.098550,
37.000000,48.145126,0.105696,0.983918,-1.510222,0.047173,0.150258,-0.062589,79.539415,-0.851251,-0.062195,38.149470,0.250000,39.411169,0.009562,0.991110,-1.497514,35.000000,15.000000,0.272210,3.565691,0.005885,0.798627,-0.175792,-0.660269,-0.022357,-0.081920,0.012474,-0.096135,0.007192,0.755476,-0.246673,0.081722,0.003119,-0.013220,-0.000393,-0.011836,-0.007137,-0.036983,0.520043,1.646073,0.361116,0.159781,0.158596,0.056989,1.444533,0.502758,0.187788,-0.065484,-0.036810,-8.265216,0.435531,-0.139939,0.098550,
37.500000,49.006425,0.112719,0.944125,-1.480056,0.051921,-0.662360,-0.103736,79.549854,-1.096654,0.138802,39.890081,0.250000,40.286670,0.006305,1.026789,-1.496926,36.000000,16.000000,1.215569,0.941501,0.005885,0.806053,-0.161652,-0.716465,-0.096946,-0.077116,-0.017027,-0.106414,0.082664,0.446489,-0.272831,-0.049146,0.002897,-0.012488,-0.000514,-0.012568,-0.007069,-0.036983,0.515194,1.644498,0.365850,0.146693,0.145381,0.053415,1.438498,0.442673,0.166893,-0.740150,-0.009381,-1.755782,-0.028792,0.098670,-0.001844,
38.000000,49.857307,0.118319,0.898446,-1.479632,0.047272,-0.193460,-0.042576,79.560205,-1.035359,0.231999,39.890081,0.250000,41.036396,0.009084,0.988752,-1.497408,36.000000,16.000000,1.215569,0.941501,0.005885,0.808615,-0.163893,-0.731722,-0.105664,-0.078705,-0.018001,-0.109235,0.090305,0.396073,-0.311644,-0.058165,0.002897,-0.012488,-0.000514,-0.012568,-0.007069,-0.036983,0.516696,1.645238,0.370543,0.159334,0.158378,0.056805,1.466592,0.502172,0.187547,-0.740150,-0.009381,-1.755782,-0.028792,0.098670,-0.001844,
38.500000,50.698952,0.095951,0.905773,-1.461920,0.047381,0.440095,0.505774,79.572299,-0.694640,0.218233,41.375424,0.250000,41.859031,0.037193,0.965986,-1.496799,37.000000,17.000000,0.420116,0.595335,0.005885,0.754939,-0.156717,-0.809320,-0.067439,-0.034249,-0.035111,-0.058758,0.060213,0.520202,-0.173455,-0.146663,0.002121,-0.011963,-0.000586,-0.012151,-0.007639,-0.036983,0.511711,1.643516,0.375063,0.146095,0.144694,0.053259,1.469186,0.440601,0.166711,0.377728,0.401534,0.215154,0.154895,0.099818,0.158731,
39.000000,51.541718,0.065268,0.924909,-1.461271,0.047619,0.147513,0.165451,79.581051,-0.541512,0.242818,41.375424,0.250000,42.608841,0.005914,0.992864,-1.497333,37.000000,17.000000,0.420116,0.595335,0.005885,0.759637,-0.156560,-0.829791,-0.074941,-0.032229,-0.036252,-0.059354,0.067954,0.484858,-0.189876,-0.164744,0.002121,-0.011963,-0.000586,-0.012151,-0.007639,-0.036983,0.513335,1.644210,0.379871,0.158726,0.157654,0.056637,1.496911,0.499670,0.187289,0.377728,0.401534,0.215154,0.154895,0.099818,0.158731,
39.500000,52.388203,0.070253,0.928539,-1.467424,0.047309,0.149342,-0.225646,79.590979,-0.962682,0.218499,42.617550,0.250000,43.318980,-0.008917,0.987491,-1.497737,38.000000,18.000000,0.160783,4.077305,0.005885,0.761533,-0.130291,-0.760142,-0.069984,-0.053974,-0.030512,-0.079170,0.058953,0.516031,-0.189088,-0.140867,0.002116,-0.012111,-0.000560,-0.011973,-0.007223,-0.036989,0.508817,1.642095,0.384710,0.145902,0.144371,0.053113,1.499983,0.439219,0.166526,0.234301,0.413001,-2.977677,-0.114998,-0.787726,-0.449346,
40.000000,53.234942,0.084838,0.928552,-1.466604,0.047664,0.034599,-0.096059,79.601143,-0.803677,0.243483,42.617550,0.250000,44.069023,0.004095,0.994711,-1.498087,38.000000,18.000000,0.160783,4.077305,0.005885,0.766699,-0.132300,-0.774351,-0.076974,-0.054140,-0.031592,-0.080743,0.066160,0.479553,-0.215956,-0.156652,0.002116,-0.012111,-0.000560,-0.011973,-0.007223,-0.036989,0.510294,1.642831,0.389349,0.158516,0.157307,0.056461,1.527612,0.498076,0.187027,0.234301,0.413001,-2.977677,-0.114998,-0.787726,-0.449346,
40.500000,54.084958,0.070724,0.960834,-1.473185,0.048859,0.848726,0.366571,79.614543,-0.816328,0.244151,44.053849,0.250000,44.776161,0.024421,0.951432,-1.498271,39.000000,19.000000,0.227730,2.498156,0.005885,0.729559,-0.158361,-0.842839,0.002646,-0.033897,-0.025288,-0.046303,-0.009403,0.812535,-0.163534,-0.127135,0.002126,-0.012282,-0.000533,-0.011154,-0.007602,-0.036985,0.505632,1.640473,0.393871,0.145931,0.144211,0.052957,1.532249,0.438380,0.166336,0.950900,0.191595,2.377875,0.004845,0.021645,-0.481352,
41.000000,54.941917,0.048209,1.003408,-1.471730,0.051161,0.290984,0.123341,79.622354,-1.193196,0.101882,44.053849,0.250000,45.526259,0.001681,0.998605,-1.497804,39.000000,19.000000,0.227730,2.498156,0.005885,0.733691,-0.158018,-0.861530,-0.001179,-0.032026,-0.026169,-0.046528,-0.004802,0.813158,-0.179805,-0.140247,0.002126,-0.012282,-0.000533,-0.011154,-0.007602,-0.036985,0.507244,1.641162,0.398621,0.158529,0.157125,0.056275,1.560108,0.497140,0.186753,0.950900,0.191595,2.377875,0.004845,0.021645,-0.481352,
41.500000,55.800894,0.037314,0.969612,-1.473611,0.050559,-0.736105,0.147229,79.631964,-0.961588,0.225203,45.594087,0.250000,46.260024,0.005012,1.040203,-1.497959,40.000000,20.000000,0.045555,2.172203,0.005885,0.786721,-0.182435,-0.848596,-0.071098,-0.004394,-0.024499,-0.032302,0.070591,0.522032,-0.063434,-0.136504,0.002417,-0.012376,-0.000521,-0.011817,-0.007717,-0.036990,0.502913,1.638381,0.403279,0.145897,0.144113,0.052790,1.562099,0.437941,0.166135,-0.766116,0.392693,4.470860,0.052639,-0.115495,-0.214035,
42.000000,56.652936,0.029241,0.916649,-1.472255,0.048465,-0.248985,0.041774,79.643543,-0.767261,0.138994,45.594087,0.250000,47.010058,-0.002256,0.993766,-1.497462,40.000000,20.000000,0.045555,2.172203,0.005885,0.789635,-0.182887,-0.866118,-0.078216,-0.002519,-0.025497,-0.031498,0.077117,0.484922,-0.065019,-0.149249,0.002417,-0.012376,-0.000521,-0.011817,-0.007717,-0.036990,0.504434,1.639093,0.407978,0.158470,0.157007,0.056077,1.589904,0.496661,0.186464,-0.766116,0.392693,4.470860,0.052639,-0.115495,-0.214035,
42.500000,57.509269,-0.040662,0.880865,-1.495002,0.048319,-0.432969,1.490939,79.645684,-0.531017,0.768838,46.871751,0.250000,47.660869,0.066511,1.006859,-1.498477,41.000000,21.000000,0.756208,3.903078,0.005885,0.858161,-0.351975,-1.018867,-0.099765,0.143076,-0.003672,0.107173,0.125994,0.377623,0.544910,-0.054556,0.003862,-0.013112,-0.000428,-0.012158,-0.009110,-0.036979,0.500122,1.636319,0.412355,0.146257,0.144084,0.052602,1.598615,0.437813,0.165920,-0.213232,1.563266,2.485000,0.081005,-0.010463,0.028430,
43.000000,58.365487,-0.129846,0.849183,-1.493968,0.049505,-0.130265,0.521807,79.659635,-0.850166,-0.003405,46.871751,0.250000,48.411187,-0.016612,0.984559,-1.498178,41.000000,21.000000,0.756208,3.903078,0.005885,0.859733,-0.353842,-1.048661,-0.109570,0.152572,-0.004355,0.113235,0.135376,0.325467,0.619004,-0.056812,0.003862,-0.013112,-0.000428,-0.012158,-0.009110,-0.036979,0.501741,1.636965,0.417149,0.158801,0.156961,0.055838,1.627315,0.496532,0.186148,-0.213232,1.563266,2.485000,0.081005,-0.010463,0.028430,
43.500000,59.224172,-0.118228,0.845407,-1.504153,0.051126,0.155224,-0.577345,79.669259,-0.730488,0.264029,48.335046,0.250000,49.097926,-0.056785,0.974096,-1.498359,42.000000,22.000000,0.451991,3.490575,0.005885,0.868004,-0.337599,-1.001263,-0.113309,0.101334,0.005591,0.061443,0.128688,0.290377,0.441603,0.008164,0.004257,-0.013400,-0.000390,-0.011998,-0.008540,-0.036988,0.498132,1.633918,0.422158,0.146717,0.144070,0.052392,1.637901,0.438217,0.165679,0.067400,-0.636120,-2.875256,-0.022145,-0.042049,-0.805904,
44.000000,60.083125,-0.081801,0.847279,-1.503054,0.048008,0.036286,-0.173158,79.680597,-0.909894,-0.063922,48.335046,0.250000,49.848064,-0.013966,0.985906,-1.497479,42.000000,22.000000,0.451991,3.490575,0.005885,0.872888,-0.339539,-1.011349,-0.121093,0.109017,0.005345,0.067836,0.138627,0.232056,0.494338,0.010630,0.004257,-0.013400,-0.000390,-0.011998,-0.008540,-0.036988,0.499472,1.634659,0.426647,0.159218,0.156923,0.055597,1.667762,0.496955,0.185797,0.067400,-0.636120,-2.875256,-0.022145,-0.042049,-0.805904,
44.500000,60.937999,-0.092369,0.855534,-1.493203,0.048299,0.309742,0.360966,79.692418,-0.838324,0.057482,50.073287,0.250000,50.633935,0.008477,0.971869,-1.497426,43.000000,23.000000,0.082784,1.462914,0.005885,0.841950,-0.355880,-1.038944,-0.093389,0.136871,-0.004385,0.100846,0.116335,0.282561,0.570705,-0.026478,0.004062,-0.013192,-0.000422,-0.011652,-0.008896,-0.036977,0.495588,1.631797,0.431120,0.147047,0.143946,0.052197,1.677888,0.438525,0.165420,0.149292,-0.159254,-1.801882,0.299378,0.445398,-0.210860,
45.000000,61.793769,-0.116788,0.865591,-1.493033,0.047818,0.076241,0.198178,79.701675,-0.935298,-0.052409,50.073287,0.250000,51.383856,-0.008432,0.990961,-1.497720,43.000000,23.000000,0.082784,1.462914,0.005885,0.846898,-0.356809,-1.057115,-0.100757,0.146730,-0.004902,0.108356,0.125370,0.234275,0.641800,-0.029046,0.004062,-0.013192,-0.000422,-0.011652,-0.008896,-0.036977,0.497172,1.632471,0.435796,0.159515,0.156776,0.055384,1.708625,0.497217,0.185433,0.149292,-0.159254,-1.801882,0.299378,0.445398,-0.210860,
45.500000,62.647130,-0.084058,0.873305,-1.485241,0.049930,0.272895,-0.825753,79.708409,-0.842296,0.186085,51.613371,0.250000,52.166255,-0.053833,0.978827,-1.497772,44.000000,24.000000,0.090976,1.231281,0.005885,0.818094,-0.275003,-1.013936,-0.096175,0.067095,-0.012681,0.030224,0.105522,0.216228,0.356857,-0.067128,0.003578,-0.012950,-0.000450,-0.011376,-0.008060,-0.036996,0.494196,1.629660,0.440788,0.147291,0.143809,0.052034,1.717127,0.438826,0.165162,0.041655,-0.856829,-1.869163,0.094572,-0.146109,0.019277,
46.000000,63.499692,-0.035304,0.880942,-1.484866,0.051259,0.065977,-0.226594,79.720815,-0.793736,0.239406,51.613371,0.250000,52.916226,-0.000174,0.994603,-1.497796,44.000000,24.000000,0.090976,1.231281,0.005885,0.823030,-0.277003,-1.021463,-0.102166,0.072665,-0.013156,0.035130,0.113661,0.166938,0.391950,-0.073831,0.003578,-0.012950,-0.000450,-0.011376,-0.008060,-0.036996,0.495443,1.630408,0.445180,0.159727,0.156616,0.055207,1.748441,0.497450,0.185085,0.041655,-0.856829,-1.869163,0.094572,-0.146109,0.019277,
46.500000,64.353823,-0.065259,0.925402,-1.485189,0.050487,1.086568,0.798325,79.740398,-0.382221,0.433627,52.995397,0.250000,53.652894,0.039746,0.939641,-1.497813,45.000000,25.000000,0.031676,3.403426,0.005885,0.768965,-0.355636,-0.999840,0.006726,0.120946,-0.012830,0.105005,0.014239,0.598054,0.636363,-0.067115,0.004242,-0.013112,-0.000441,-0.010357,-0.008611,-0.036993,0.491849,1.628069,0.449537,0.147490,0.143636,0.051890,1.755561,0.438665,0.164922,1.193294,0.618826,-0.850559,0.105146,-0.189579,-0.383215,
47.000000,65.217111,-0.115295,0.982218,-1.484286,0.047246,0.364899,0.327554,79.745185,-0.957642,-0.001283,52.995397,0.250000,54.402924,-0.004533,1.000708,-1.497545,45.000000,25.000000,0.031676,3.403426,0.005885,0.772421,-0.356262,-1.022146,0.004237,0.129421,-0.013449,0.110762,0.018490,0.601036,0.699191,-0.073943,0.004242,-0.013112,-0.000441,-0.010357,-0.008611,-0.036993,0.493582,1.628682,0.454246,0.159907,0.156421,0.055034,1.787274,0.497184,0.184759,1.193294,0.618826,-0.850559,0.105146,-0.189579,-0.383215,
47.500000,66.077741,-0.105997,1.008355,-1.465721,0.051692,0.500750,-0.399075,79.750778,-1.185106,0.316660,54.693088,0.250000,55.222623,-0.030662,0.983984,-1.497347,46.000000,26.000000,0.245742,2.352901,0.005885,0.722745,-0.292020,-1.047474,0.039700,0.088305,-0.031843,0.075336,-0.024371,0.755728,0.578170,-0.157581,0.003613,-0.012669,-0.000500,-0.009943,-0.008194,-0.036997,0.490872,1.626304,0.459070,0.147277,0.143482,0.051759,1.788504,0.438901,0.164695,0.374788,-0.412549,5.660838,0.037136,-0.148890,-0.385743,
48.000000,66.938800,-0.081693,1.028700,-1.464868,0.046290,0.173807,-0.092997,79.763196,-1.022585,0.097057,54.693088,0.250000,55.972437,-0.000961,1.005913,-1.497340,46.000000,26.000000,0.245742,2.352901,0.005885,0.727261,-0.294271,-1.059760,0.040137,0.093889,-0.032623,0.080732,-0.022787,0.775964,0.623886,-0.173950,0.003613,-0.012669,-0.000500,-0.009943,-0.008194,-0.036997,0.492260,1.627012,0.463579,0.159675,0.156247,0.054894,1.819822,0.497328,0.184458,0.374788,-0.412549,5.660838,0.037136,-0.148890,-0.385743,
48.500000,67.811102,-0.057275,1.033363,-1.492197,0.047065,0.175917,-0.460158,79.772611,-1.106384,-0.016212,55.792017,0.250000,56.605902,-0.027219,0.997241,-1.498263,47.000000,27.000000,1.015282,0.755333,0.005885,0.754221,-0.313339,-1.065540,0.043869,0.042213,-0.006315,0.030056,-0.036123,0.784757,0.450337,-0.063766,0.004532,-0.013294,-0.000414,-0.009752,-0.007704,-0.036997,0.489598,1.624989,0.468296,0.147195,0.143407,0.051641,1.820775,0.438868,0.164490,-0.120423,-0.493018,1.371488,0.197002,-0.169346,0.155736,
49.000000,68.686088,-0.031292,1.036401,-1.491259,0.045641,0.106665,-0.105450,79.783881,-0.483480,0.409991,55.792017,0.250000,57.356127,0.001661,1.000828,-1.497854,47.000000,27.000000,1.015282,0.755333,0.005885,0.757940,-0.315801,-1.076935,0.044423,0.044797,-0.006747,0.032954,-0.035573,0.807096,0.472254,-0.067288,0.004532,-0.013294,-0.000414,-0.009752,-0.007704,-0.036997,0.490985,1.625690,0.472782,0.159582,0.156157,0.054747,1.851747,0.497221,0.184182,-0.120423,-0.493018,1.371488,0.197002,-0.169346,0.155736,
49.500000,69.560671,-0.021553,1.020300,-1.492832,0.048061,-0.236880,-0.139312,79.793822,-0.969594,-0.772165,57.473255,0.250000,58.097968,-0.004961,1.015511,-1.498040,48.000000,28.000000,0.003245,0.693853,0.005885,0.780802,-0.301936,-1.116993,0.011805,0.035085,-0.005422,0.016592,-0.004789,0.694207,0.412865,-0.062068,0.004395,-0.013295,-0.000410,-0.010028,-0.007587,-0.036995,0.488346,1.623866,0.477383,0.147147,0.143273,0.051523,1.854738,0.438534,0.164296,-0.333683,-0.311041,-2.158398,-0.029625,0.209893,-0.009459,
50.000000,70.432071,-0.014669,0.999128,-1.492240,0.051828,-0.030828,-0.007868,79.803548,-0.777395,0.208752,57.473255,0.250000,58.848030,0.003947,0.996436,-1.497799,48.000000,28.000000,0.003245,0.693853,0.005885,0.782066,-0.304714,-1.130938,0.009910,0.037149,-0.005828,0.018616,-0.002692,0.699877,0.431074,-0.065121,0.004395,-0.013295,-0.000410,-0.010028,-0.007587,-0.036995,0.489836,1.624537,0.481939,0.159519,0.156006,0.054614,1.885561,0.496793,0.183920,-0.333683,-0.311041,-2.158398,-0.029625,0.209893,-0.009459,
50.500000,71.301178,-0.020300,0.975843,-1.491899,0.048671,-0.309204,0.126603,79.814159,-1.007096,0.148392,58.951948,0.250000,59.591154,0.008700,1.012280,-1.497687,49.000000,29.000000,0.009860,0.580171,0.005885,0.809134,-0.305651,-1.158245,-0.026161,0.054772,-0.005990,0.028999,0.036437,0.592161,0.497504,-0.061348,0.004253,-0.013276,-0.000410,-0.010391,-0.007676,-0.036996,0.487277,1.622993,0.486491,0.147294,0.143157,0.051420,1.892161,0.438139,0.164115,-0.183304,0.060270,-0.963538,-0.225846,0.129854,-0.261191,
51.000000,72.166658,-0.028609,0.950777,-1.491644,0.047267,-0.065080,0.072091,79.824249,-2.174771,-0.423552,58.951948,0.250000,60.341166,0.002887,0.991746,-1.497916,49.000000,29.000000,0.009860,0.580171,0.005885,0.810592,-0.306849,-1.174767,-0.030668,0.058062,-0.006463,0.031496,0.040968,0.578185,0.525869,-0.064709,0.004253,-0.013276,-0.000410,-0.010391,-0.007676,-0.036996,0.488818,1.623646,0.491091,0.159649,0.155875,0.054498,1.923227,0.496323,0.183679,-0.183304,0.060270,-0.963538,-0.225846,0.129854,-0.261191,
51.500000,73.026526,-0.018733,0.978638,-1.478456,0.048653,0.806107,-0.252666,79.832573,-1.004344,0.032476,60.599162,0.250000,61.140617,-0.012831,0.952503,-1.497183,50.000000,30.000000,0.155150,1.176750,0.005885,0.753407,-0.291201,-1.168851,0.029141,0.020919,-0.018979,0.005902,-0.026135,0.790139,0.369266,-0.122449,0.004250,-0.013082,-0.000443,-0.009730,-0.007454,-0.036993,0.486542,1.622277,0.495759,0.147535,0.143038,0.051329,1.932220,0.437883,0.163950,0.436817,-0.509268,1.379644,0.319870,0.062593,-0.178680,
52.000000,73.890194,-0.004065,1.019927,-1.478406,0.047466,0.305586,-0.057988,79.844478,-1.013069,0.138608,60.599162,0.250000,61.890545,0.003790,0.996368,-1.497875,50.000000,30.000000,0.155150,1.176750,0.005885,0.756795,-0.293519,-1.182284,0.028164,0.023937,-0.019615,0.007855,-0.023558,0.804744,0.380675,-0.132351,0.004250,-0.013082,-0.000443,-0.009730,-0.007454,-0.036993,0.487974,1.622955,0.500284,0.159872,0.155740,0.054395,1.963744,0.496001,0.183460,0.436817,-0.509268,1.379644,0.319870,0.062593,-0.178680,
52.500000,74.760020,0.020727,0.998932,-1.491127,0.048745,-0.475856,-0.498236,79.855180,-1.334033,0.463048,61.872663,0.250000,62.581585,-0.021359,1.026294,-1.498082,51.000000,31.000000,0.239355,1.943902,0.005885,0.807160,-0.260204,-1.191755,-0.029815,-0.014949,-0.007199,-0.042086,0.027362,0.636010,0.236412,-0.078641,0.004239,-0.013269,-0.000409,-0.010208,-0.006994,-0.037015,0.485795,1.621697,0.504985,0.147600,0.142984,0.051247,1.968896,0.437588,0.163800,-0.273429,-0.343525,-5.110124,-0.421040,-0.132005,-0.040917,
53.000000,75.625677,0.049583,0.961789,-1.490673,0.052318,-0.142155,-0.147283,79.863656,-1.009289,0.353173,61.872663,0.250000,63.331724,0.007277,0.993393,-1.498078,51.000000,31.000000,0.239355,1.943902,0.005885,0.809114,-0.262382,-1.202758,-0.034097,-0.015443,-0.007607,-0.042306,0.031604,0.620281,0.228938,-0.082588,0.004239,-0.013269,-0.000409,-0.010208,-0.006994,-0.037015,0.487229,1.622365,0.509455,0.159912,0.155674,0.054299,2.000385,0.495669,0.183262,-0.273429,-0.343525,-5.110124,-0.421040,-0.132005,-0.040917,
53.500000,76.484064,0.014714,0.989742,-1.475499,0.048138,0.866317,0.845305,79.880314,-1.198107,0.252889,63.608331,0.250000,64.139141,0.050370,0.948403,-1.497061,52.000000,32.000000,0.205902,4.109707,0.005885,0.755759,-0.316655,-1.198465,0.050312,0.046084,-0.021804,0.035657,-0.041338,1.010116,0.520335,-0.149496,0.004398,-0.013108,-0.000443,-0.009593,-0.007560,-0.036996,0.484617,1.621375,0.513826,0.147756,0.142884,0.051169,2.008637,0.437234,0.163664,1.121083,0.894180,2.997484,-0.151136,-0.264153,-0.187144,
54.000000,77.348084,-0.036713,1.035040,-1.475527,0.046845,0.332054,0.298097,79.884389,-0.659399,0.254897,63.608331,0.250000,64.889052,0.000349,0.996410,-1.497787,52.000000,32.000000,0.205902,4.109707,0.005885,0.758849,-0.316617,-1.221491,0.048035,0.050170,-0.022412,0.037062,-0.038630,1.034931,0.544636,-0.160811,0.004398,-0.013108,-0.000443,-0.009593,-0.007560,-0.036996,0.486372,1.621947,0.518481,0.160055,0.155559,0.054209,2.040395,0.495274,0.183080,1.121083,0.894180,2.997484,-0.151136,-0.264153,-0.187144,
54.500000,78.217142,0.017369,1.011525,-1.483643,0.050743,-0.543605,-1.369516,79.898026,-0.891740,0.082837,64.913801,0.250000,65.602277,-0.074276,1.031047,-1.498202,53.000000,33.000000,0.124625,3.777069,0.005885,0.800585,-0.222644,-1.266293,-0.031339,-0.062224,-0.014732,-0.091645,0.019522,0.722554,0.084992,-0.132474,0.004146,-0.013160,-0.000425,-0.010047,-0.006515,-0.037038,0.484670,1.620815,0.523562,0.147626,0.142829,0.051099,2.043112,0.437365,0.163537,-0.857493,-1.222728,3.800856,-0.018893,-0.063398,0.032712,
55.000000,79.079615,0.100757,0.970201,-1.482532,0.045367,-0.164579,-0.472655,79.903201,-0.891102,0.338220,64.913801,0.250000,66.352394,0.007456,0.993834,-1.497672,53.000000,33.000000,0.124625,3.777069,0.005885,0.802482,-0.223082,-1.269978,-0.034805,-0.065407,-0.015308,-0.093301,0.023633,0.706308,0.053189,-0.140227,0.004146,-0.013160,-0.000425,-0.010047,-0.006515,-0.037038,0.485902,1.621499,0.527802,0.159901,0.155491,0.054129,2.074476,0.495374,0.182912,-0.857493,-1.222728,3.800856,-0.018893,-0.063398,0.032712,
55.500000,79.677037,0.542502,0.265102,-0.421887,0.041142,-20.454074,-10.288689,81.118891,-0.155313,0.574302,66.200590,0.250000,66.762948,0.464308,0.313810,-0.449643,54.000000,34.000000,0.821706,1.104692,0.005885,0.833720,-0.288187,-1.435892,-0.026740,-0.057708,0.006620,-0.078194,0.048708,0.714931,0.168062,-0.032589,0.004548,-0.013572,-0.000362,-0.010034,-0.006866,-0.037021,0.471106,1.626895,0.541023,0.147756,0.141141,0.051191,2.082024,0.436807,0.163423,0.039891,0.352337,-4.744815,0.061366,0.088888,0.022986,
56.000000,79.445242,1.075102,-0.851778,0.589795,0.083263,-11.252091,-5.239620,79.643246,1.049709,0.563022,66.200590,0.250000,66.588103,0.993086,-0.816695,0.617083,54.000000,34.000000,0.821706,1.104692,0.005885,0.875240,-0.259652,-1.380206,-0.007171,-0.092180,0.006484,-0.082016,0.035083,0.707721,0.129691,-0.028629,0.004548,-0.013572,-0.000362,-0.010034,-0.006866,-0.037021,0.493051,1.619874,0.539763,0.165510,0.152182,0.054838,2.110697,0.493757,0.182833,0.039891,0.352337,-4.744815,0.061366,0.088888,0.022986,
56.500000,79.180423,1.282540,-1.273381,0.044129,0.048429,0.728086,0.147934,79.139128,1.495525,1.786725,66.385402,0.250000,66.435405,1.185490,-1.315253,0.064372,55.000000,35.000000,0.249232,2.731137,0.005885,0.829176,-0.270377,-1.281043,0.041660,-0.137476,0.018889,-0.097050,-0.041872,0.916623,-0.116379,0.027150,0.004873,-0.013789,-0.000335,-0.009577,-0.006644,-0.036992,0.497540,1.614611,0.540759,0.147706,0.140843,0.051742,2.063075,0.436911,0.163468,0.534792,-0.564909,6.573463,0.028697,0.107441,-0.108508,
57.000000,78.995246,1.220218,-1.128203,0.000862,0.048153,1.399773,0.594166,79.159349,1.647757,1.258307,66.385402,0.250000,66.417873,1.122147,-1.167642,0.020764,55.000000,35.000000,0.249232,2.731137,0.005885,0.815305,-0.278350,-1.290125,0.037361,-0.135165,0.019223,-0.098071,-0.039439,0.936830,-0.184353,0.036412,0.004873,-0.013789,-0.000335,-0.009577,-0.006644,-0.036992,0.498670,1.615383,0.545227,0.159218,0.153407,0.054693,2.087879,0.494132,0.182973,0.534792,-0.564909,6.573463,0.028697,0.107441,-0.108508,
57.500000,78.798544,1.166761,-1.125368,0.044015,0.050728,-1.256158,0.441480,79.169473,1.290116,0.912052,66.565187,0.250000,66.426784,1.101822,-1.016480,0.054674,56.000000,36.000000,0.227612,3.471047,0.005885,0.886583,-0.226259,-0.955273,-0.102885,-0.064710,0.008970,-0.064939,0.108887,0.436530,0.012722,-0.005236,0.003672,-0.013380,-0.000366,-0.010765,-0.006853,-0.037020,0.497112,1.615228,0.549495,0.144397,0.141414,0.051472,2.008593,0.439432,0.163552,-1.135072,0.611481,0.094602,-0.406975,0.105614,0.439418,
58.000000,78.619235,1.136444,-1.207332,0.004558,0.046288,-0.636006,0.074077,79.187130,1.515970,1.359955,66.565187,0.250000,66.413737,1.070140,-1.087406,0.013702,56.000000,36.000000,0.227612,3.471047,0.005885,0.891974,-0.224986,-0.977146,-0.115234,-0.064820,0.008822,-0.066305,0.119926,0.382143,-0.019488,-0.001043,0.003672,-0.013380,-0.000366,-0.010765,-0.006853,-0.037020,0.498556,1.615921,0.554095,0.156467,0.154071,0.054476,2.026489,0.496884,0.183044,-1.135072,0.611481,0.094602,-0.406975,0.105614,0.439418,
