Time ,gndAlt,velLL X  ,velLL Y  ,velLL Z  ,r,Roll ,Pitch,Yaw  ,gps_velN,gps_velE,Baro Altitude,Baro Altitude RMS,Nav Alt,Nav velLL X,Nav velLL Y,Nav velLL Z,Baro Update Count,GPS Update Count,Baro Chi2,GPS Chi2,GPS2D Chi2,Ground Align Chi2,Roll Error,Pitch Error,Yaw Error,Vel N Error,Vel E Error,Vel D Error,velLL X Error,velLL Y Error,N Error (m),E Error (m),Alt Error (m),Acc Bias X Error,Acc Bias Y Error,Acc Bias Z Error,Gyro Bias X Error,Gyro Bias Y Error,Gyro Bias Z Error,Roll Stdev,Pitch Stdev,Yaw Stdev,VN Stdev,VE Stdev,VD Stdev,N Stdev,E Stdev,Alt Stdev,GPSResidual[GPS_N],GPSResidual[GPS_E],GPSResidual[GPS_ALT],GPSResidual[GPS_VN],GPSResidual[GPS_VE],GPSResidual[GPS_VD],
0.500000,0.101886,-0.001489,0.009473,0.002397,-0.010555,14.027753,2.250979,81.065854,0.181692,0.002284,0.000000,0.250000,0.000000,0.000000,0.000000,0.000000,0.000000,0.000000,0.000000,0.000000,0.000000,0.000000,0.000000,0.000000,0.000000,0.000000,0.000000,0.000000,0.000000,0.000000,0.000000,0.000000,0.000000,0.000000,0.000000,0.000000,0.000000,0.000000,0.000000,0.000000,0.000000,0.000000,0.000000,0.000000,0.000000,0.000000,0.000000,0.000000,0.000000,0.000000,0.000000,0.000000,0.000000,0.000000,
1.000000,0.101886,-0.001422,0.009057,0.002292,0.047650,14.028408,2.248111,81.077484,-0.477404,-0.404629,0.000000,0.250000,0.000000,0.000000,0.000000,0.000000,0.000000,0.000000,0.000000,0.000000,0.000000,0.000000,0.000000,0.000000,0.000000,0.000000,0.000000,0.000000,0.000000,0.000000,0.000000,0.000000,0.000000,0.000000,0.000000,0.000000,0.000000,0.000000,0.000000,0.000000,0.000000,0.000000,0.000000,0.000000,0.000000,0.000000,0.000000,0.000000,0.000000,0.000000,0.000000,0.000000,0.000000,0.000000,
1.500000,0.101886,-0.001430,0.009121,0.002308,0.053929,14.029014,2.244386,81.092417,-0.127704,0.245828,0.000000,0.250000,0.000000,0.000000,0.000000,0.000000,0.000000,0.000000,0.000000,0.000000,0.000000,0.000000,0.000000,0.000000,0.000000,0.000000,0.000000,0.000000,0.001430,-0.009121,0.000000,0.000000,-0.000000,0.000000,0.000000,0.000000,0.000000,0.000000,0.000000,8.554585,2.726392,0.000000,0.000000,0.000000,0.000000,0.000000,0.000000,0.000000,0.000000,0.000000,0.000000,0.000000,0.000000,0.000000,
2.000000,0.101929,-0.001403,0.008965,0.002268,0.006621,14.029256,2.241677,81.103140,0.487130,-0.048204,0.000000,0.250000,0.000021,0.002053,-0.008820,0.001263,0.000000,0.000000,0.000000,0.000000,0.000000,0.000000,-3.615658,-0.539215,-81.106686,0.011433,-0.008820,-0.001081,0.003457,-0.017785,0.019149,-0.001738,-0.002764,0.008556,0.061474,-0.013431,-0.008397,-0.009618,-0.039084,8.554631,2.726544,0.028770,0.212318,0.651904,0.121421,0.032977,0.101088,0.018858,0.000000,0.000000,0.000000,0.000000,0.000000,0.000000,
2.500000,0.101928,-0.001491,0.009534,0.002412,0.000375,14.029648,2.239196,81.113080,0.104772,-0.475115,-0.069613,0.250000,-0.000695,-0.002282,0.016054,0.004472,1.000000,0.000000,0.077805,0.000000,0.000000,0.020650,-3.492425,-0.519641,-81.119070,0.006863,0.016055,0.002186,-0.000791,0.006521,0.023315,0.002361,-0.003229,0.008852,0.061854,-0.013766,-0.008397,-0.009589,-0.038926,4.920218,1.957710,0.035713,0.091589,0.092721,0.082000,0.034807,0.035221,0.032499,0.000000,0.000000,0.000000,0.000000,0.000000,0.000000,
3.000000,0.101928,-0.001454,0.009307,0.002355,-0.014378,14.030025,2.236595,81.123483,-0.032975,0.124563,-0.069613,0.250000,-0.003093,-0.004009,0.028859,0.007631,1.000000,0.000000,0.077805,0.000000,0.000000,0.020650,-3.491088,-0.518747,-81.135772,0.005283,0.028860,0.005309,-0.002555,0.019552,0.026991,0.011411,-0.002012,0.008852,0.061854,-0.013766,-0.008397,-0.009589,-0.038926,4.920358,1.958050,0.051243,0.151209,0.153174,0.133181,0.094171,0.095369,0.085659,0.000000,0.000000,0.000000,0.000000,0.000000,0.000000,
3.500000,0.101928,-0.001472,0.009440,0.002389,0.014404,14.030451,2.233935,81.134142,0.009066,-0.126361,-0.152192,0.250000,-0.000847,0.000025,-0.000914,0.002670,2.000000,0.000000,0.373584,0.000000,0.000000,0.110282,-3.551578,-0.526167,-81.138400,0.009063,-0.000914,0.000411,0.001497,-0.010354,0.034240,-0.006527,-0.005439,0.008704,0.060826,-0.013977,-0.008383,-0.009498,-0.038425,4.802432,1.930932,0.036067,0.054284,0.054332,0.047503,0.042443,0.042471,0.040482,0.000000,0.000000,0.000000,0.000000,0.000000,0.000000,
4.000000,0.101928,-0.001493,0.009583,0.002425,0.040425,14.030891,2.231341,81.144548,-0.040754,-0.242140,-0.152192,0.250000,-0.002211,-0.000795,0.003794,0.004222,2.000000,0.000000,0.373584,0.000000,0.000000,0.110282,-3.550560,-0.525128,-81.154917,0.008835,0.003794,0.001814,0.000698,-0.005789,0.039071,-0.006564,-0.005256,0.008704,0.060826,-0.013977,-0.008383,-0.009498,-0.038425,4.802583,1.931298,0.051473,0.075887,0.075967,0.063156,0.070878,0.070941,0.066466,0.000000,0.000000,0.000000,0.000000,0.000000,0.000000,
4.500000,0.101928,-0.001456,0.009359,0.002368,0.018000,14.031258,2.228817,81.154642,-0.071116,-0.021754,-0.118433,0.250000,-0.003299,-0.000306,0.000466,0.003074,3.000000,0.000000,0.221388,0.000000,0.000000,0.020737,-3.550926,-0.524578,-81.165622,0.009100,0.000466,0.000723,0.001150,-0.008894,0.043852,-0.006321,-0.005349,0.008702,0.060818,-0.014025,-0.008378,-0.009458,-0.038205,4.790817,1.929248,0.042354,0.047223,0.047235,0.039018,0.051700,0.051708,0.048728,0.000000,0.000000,0.000000,0.000000,0.000000,0.000000,
5.000000,0.101928,-0.001478,0.009511,0.002406,0.039331,14.031752,2.226171,81.165294,-0.278563,-0.082685,-0.118433,0.250000,-0.005017,-0.001275,0.005723,0.004456,3.000000,0.000000,0.221388,0.000000,0.000000,0.020737,-3.549859,-0.523467,-81.181929,0.008273,0.005724,0.002069,0.000203,-0.003788,0.048327,-0.004478,-0.004812,0.008702,0.060818,-0.014025,-0.008378,-0.009458,-0.038205,4.790974,1.929634,0.056192,0.063435,0.063455,0.049093,0.072497,0.072514,0.067758,0.000000,0.000000,0.000000,0.000000,0.000000,0.000000,
5.500000,0.101928,-0.001443,0.009293,0.002351,0.012105,14.032114,2.223682,81.175244,0.000356,-0.025187,0.175204,0.250000,0.004603,-0.001002,0.003514,-0.000956,4.000000,0.000000,0.483607,0.000000,0.000000,0.057660,-3.536178,-0.522464,-81.186652,0.008688,0.003515,-0.003378,0.000441,-0.005778,0.053284,-0.005057,-0.015612,0.008677,0.060504,-0.014133,-0.008350,-0.009391,-0.037810,4.787310,1.928992,0.041732,0.044600,0.044604,0.035154,0.059048,0.059051,0.055090,0.000000,0.000000,0.000000,0.000000,0.000000,0.000000,
6.000000,0.101929,-0.001463,0.009436,0.002387,0.028539,14.032491,2.221072,81.185677,0.053911,-0.053161,0.175204,0.250000,0.005079,-0.001629,0.005527,-0.000966,4.000000,0.000000,0.483607,0.000000,0.000000,0.057660,-3.534727,-0.521428,-81.202917,0.007409,0.005528,-0.003224,-0.000165,-0.003909,0.057338,-0.001580,-0.017270,0.008677,0.060504,-0.014133,-0.008350,-0.009391,-0.037810,4.787474,1.929396,0.055682,0.058979,0.058986,0.043247,0.075921,0.075929,0.070437,0.000000,0.000000,0.000000,0.000000,0.000000,0.000000,
6.500000,0.101928,-0.001485,0.009585,0.002425,0.042420,14.032886,2.218500,81.195970,-1.431732,-0.600240,0.194613,0.250000,0.013302,-0.002228,0.010729,-0.001609,5.000000,0.000000,0.554887,0.000000,0.000000,0.012729,-3.539842,-0.520575,-81.215768,0.007404,0.010729,-0.004016,-0.000744,0.001144,0.062415,-0.001670,-0.026673,0.008648,0.060493,-0.014175,-0.008292,-0.009388,-0.037710,4.785118,1.929038,0.050050,0.043432,0.043433,0.033099,0.064522,0.064524,0.059729,0.000000,0.000000,0.000000,0.000000,0.000000,0.000000,
7.000000,0.101928,-0.001449,0.009369,0.002370,0.007544,14.033208,2.215948,81.206140,0.035375,-0.791069,0.194613,0.250000,0.014269,-0.003271,0.015035,-0.001375,5.000000,0.000000,0.554887,0.000000,0.000000,0.012729,-3.538669,-0.519619,-81.232049,0.006150,0.015036,-0.003729,-0.001821,0.005666,0.065943,0.004796,-0.028822,0.008648,0.060493,-0.014175,-0.008292,-0.009388,-0.037710,4.785286,1.929458,0.062343,0.056994,0.056994,0.040214,0.079100,0.079103,0.072764,0.000000,0.000000,0.000000,0.000000,0.000000,0.000000,
7.500000,0.101928,-0.001473,0.009530,0.002411,0.016517,14.033686,2.213300,81.216790,1.338088,0.089039,0.081853,0.250000,0.016396,-0.001606,0.005732,-0.001003,6.000000,0.000000,0.073938,0.000000,0.000000,0.088082,-3.558942,-0.519095,-81.238626,0.007535,0.005733,-0.003288,-0.000133,-0.003798,0.072421,-0.004037,-0.032129,0.008600,0.060594,-0.014187,-0.008091,-0.009375,-0.037409,4.784596,1.929216,0.047236,0.042864,0.042863,0.031914,0.068420,0.068421,0.062928,0.000000,0.000000,0.000000,0.000000,0.000000,0.000000,
8.000000,0.101929,-0.001438,0.009319,0.002357,-0.023450,14.034057,2.210659,81.227338,-0.226026,0.033793,0.081853,0.250000,0.017464,-0.002488,0.008735,-0.000761,6.000000,0.000000,0.073938,0.000000,0.000000,0.088082,-3.557757,-0.518031,-81.254489,0.006811,0.008736,-0.003085,-0.001050,-0.000585,0.076650,-0.002619,-0.034379,0.008600,0.060594,-0.014187,-0.008091,-0.009375,-0.037409,4.784768,1.929652,0.060006,0.056019,0.056016,0.038460,0.081609,0.081611,0.074448,0.000000,0.000000,0.000000,0.000000,0.000000,0.000000,
8.500000,0.101928,-0.001396,0.009054,0.002290,0.020746,14.034470,2.208149,81.237397,0.088320,-0.026878,-0.085435,0.250000,0.010977,-0.001480,0.004258,0.001373,7.000000,0.000000,0.157100,0.000000,0.000000,0.026182,-3.571822,-0.517942,-81.269819,0.007979,0.004259,-0.000991,-0.000085,-0.004796,0.082447,-0.007049,-0.029073,0.008577,0.060709,-0.014177,-0.007939,-0.009411,-0.037386,4.784071,1.929400,0.056678,0.042573,0.042571,0.031166,0.071104,0.071105,0.065015,0.000000,0.000000,0.000000,0.000000,0.000000,0.000000,
9.000000,0.101929,-0.001421,0.009230,0.002335,0.022148,14.034941,2.205588,81.247702,-1.133904,0.206909,-0.085435,0.250000,0.010970,-0.002058,0.005075,0.001488,7.000000,0.000000,0.157100,0.000000,0.000000,0.026182,-3.570702,-0.516893,-81.285846,0.007578,0.005076,-0.000920,-0.000637,-0.004155,0.086874,-0.007307,-0.030246,0.008577,0.060709,-0.014177,-0.007939,-0.009411,-0.037386,4.784247,1.929847,0.067894,0.055519,0.055515,0.037336,0.083446,0.083447,0.075527,0.000000,0.000000,0.000000,0.000000,0.000000,0.000000,
9.500000,0.101929,-0.001445,0.009399,0.002378,0.021160,14.035354,2.203061,81.257836,-0.008969,-0.000210,-0.099917,0.250000,0.004689,-0.000927,-0.000116,0.001873,8.000000,0.000000,0.188089,0.000000,0.000000,0.023638,-3.584097,-0.517250,-81.295746,0.008500,-0.000115,-0.000484,0.000519,-0.009515,0.092505,-0.010018,-0.025146,0.008567,0.060871,-0.014200,-0.007826,-0.009414,-0.037196,4.783559,1.929577,0.053594,0.042425,0.042422,0.030657,0.072912,0.072913,0.066310,0.000000,0.000000,0.000000,0.000000,0.000000,0.000000,
10.000000,0.101929,-0.001468,0.009560,0.002418,0.017707,14.035618,2.200383,81.268461,0.660511,-0.270904,-0.099917,0.250000,0.003605,-0.001754,0.002033,0.002304,8.000000,0.000000,0.188089,0.000000,0.000000,0.023638,-3.583392,-0.516269,-81.311645,0.007414,0.002034,0.000013,-0.000286,-0.007527,0.096528,-0.008118,-0.025242,0.008567,0.060871,-0.014200,-0.007826,-0.009414,-0.037196,4.783738,1.930034,0.065235,0.055264,0.055258,0.036557,0.084738,0.084738,0.076141,0.000000,0.000000,0.000000,0.000000,0.000000,0.000000,
10.500000,0.807647,-0.100448,0.798472,-1.417990,0.045208,-4.488205,-0.578362,80.910529,-0.809243,0.056518,-0.140776,0.250000,0.631075,-0.088345,0.715717,-1.510499,9.000000,0.000000,0.425225,0.000000,0.000000,0.007870,-3.604506,-0.536552,-81.151386,0.725066,0.688974,-0.090656,0.012103,-0.082755,0.389657,0.268870,-0.043370,0.008570,0.060891,-0.014197,-0.007781,-0.009433,-0.037119,4.782172,1.929471,0.239982,0.067221,0.119724,0.123015,0.077174,0.089785,0.073680,0.000000,0.000000,0.000000,0.000000,0.000000,0.000000,
11.000000,1.566969,-0.048173,0.341718,-1.335310,0.046279,-3.896468,-0.416419,80.907114,-0.362115,0.103790,-0.140776,0.250000,1.384815,-0.033771,0.243776,-1.502399,9.000000,0.000000,0.425225,0.000000,0.000000,0.007870,-3.565660,-0.538386,-81.175814,0.318610,0.237180,-0.165946,0.014402,-0.097943,0.647955,0.496903,-0.107781,0.008570,0.060891,-0.014197,-0.007781,-0.009433,-0.037119,4.782163,1.929909,0.232095,0.076480,0.100219,0.228069,0.098040,0.131431,0.138971,0.000000,0.000000,0.000000,0.000000,0.000000,0.000000,
11.500000,2.297279,-0.027916,0.091003,-1.419549,0.050063,-1.976781,-0.086598,80.900325,-0.306664,-0.382349,1.219972,0.250000,2.047447,-0.015332,0.004019,-1.502741,10.000000,0.000000,1.030297,0.000000,0.000000,0.007870,-1.325961,-0.497764,-81.302755,0.082127,0.016950,-0.082788,0.012584,-0.086984,0.741427,0.609834,-0.066923,0.007928,0.019591,-0.006500,-0.007797,-0.009453,-0.037088,4.240110,1.929775,0.189406,0.089003,0.091423,0.279855,0.129071,0.161820,0.227120,0.000000,0.000000,0.000000,0.000000,0.000000,0.000000,
12.000000,3.005062,-0.026136,0.023926,-1.386085,0.051465,0.120170,0.021544,80.908866,1.344239,-0.379754,1.219972,0.250000,2.798998,-0.011773,-0.085653,-1.499649,10.000000,0.000000,1.030297,0.000000,0.000000,0.007870,-1.330127,-0.502304,-81.321288,0.015266,-0.063545,-0.113249,0.014362,-0.109579,0.758631,0.590937,-0.116142,0.007928,0.019591,-0.006500,-0.007797,-0.009453,-0.037088,4.240256,1.930250,0.186244,0.099250,0.090562,0.357868,0.167912,0.198545,0.381619,0.000000,0.000000,0.000000,0.000000,0.000000,0.000000,
12.500000,3.689996,-0.028181,0.064217,-1.336619,0.047703,0.605763,0.027411,80.919272,-0.773807,-0.877590,2.956528,0.250000,3.566333,-0.011493,-0.063857,-1.498306,11.000000,0.000000,0.002156,0.000000,0.000000,0.007870,-1.495620,-0.509071,-81.331055,0.055002,-0.045968,-0.161224,0.016689,-0.128073,0.775267,0.555784,-0.203650,0.007979,0.022582,-0.007055,-0.007796,-0.009451,-0.037090,2.392437,1.929033,0.133703,0.108885,0.095620,0.236170,0.212215,0.193175,0.299584,0.000000,0.000000,0.000000,0.000000,0.000000,0.000000,
13.000000,4.361651,-0.029563,0.104635,-1.302306,0.049578,0.347620,0.015521,80.929143,-0.425592,0.152801,2.956528,0.250000,4.316423,-0.010808,-0.038995,-1.497958,11.000000,0.000000,0.002156,0.000000,0.000000,0.007870,-1.492202,-0.511557,-81.346465,0.096372,-0.026150,-0.195275,0.018756,-0.143630,0.814264,0.538375,-0.293019,0.007979,0.022582,-0.007055,-0.007796,-0.009451,-0.037090,2.392852,1.929528,0.139785,0.120110,0.107879,0.279846,0.262816,0.233190,0.425313,0.000000,0.000000,0.000000,0.000000,0.000000,0.000000,
13.500000,5.039949,-0.029354,0.115458,-1.323678,0.046498,0.009543,-0.005960,80.939289,-0.077673,0.154144,4.350664,0.250000,4.988362,-0.009927,-0.046683,-1.498983,12.000000,0.000000,0.038227,0.000000,0.000000,0.007870,-1.102789,-0.503600,-81.376976,0.108363,-0.035784,-0.174947,0.019426,-0.162141,0.863735,0.538502,-0.301398,0.007833,0.015487,-0.005744,-0.007796,-0.009455,-0.037084,1.356122,1.929293,0.123837,0.132203,0.121034,0.165530,0.318999,0.269891,0.279088,0.000000,0.000000,0.000000,0.000000,0.000000,0.000000,
14.000000,5.710905,-0.029386,0.124276,-1.296442,0.049534,0.222497,0.015906,80.949097,-0.125217,-0.006446,4.350664,0.250000,5.738780,-0.007529,-0.056023,-1.498372,12.000000,0.000000,0.038227,0.000000,0.000000,0.007870,-1.102749,-0.506770,-81.392982,0.119080,-0.046459,-0.201677,0.021857,-0.180299,0.920082,0.516950,-0.395794,0.007833,0.015487,-0.005744,-0.007796,-0.009455,-0.037084,1.356889,1.929803,0.130080,0.144342,0.134657,0.188275,0.381647,0.325815,0.364160,0.000000,0.000000,0.000000,0.000000,0.000000,0.000000,
14.500000,6.390319,-0.029710,0.139397,-1.323892,0.046525,0.158350,0.003303,80.959294,-0.103158,0.510799,5.731182,0.250000,6.388176,-0.006900,-0.063588,-1.499174,13.000000,0.000000,0.097991,0.000000,0.000000,0.007870,-0.793980,-0.498149,-81.420809,0.134708,-0.056055,-0.175080,0.022810,-0.202985,0.979381,0.500807,-0.382997,0.007666,0.009831,-0.004705,-0.007795,-0.009458,-0.037080,0.937761,1.929992,0.130964,0.157538,0.148190,0.123840,0.450376,0.387967,0.253663,0.000000,0.000000,0.000000,0.000000,0.000000,0.000000,
15.000000,7.066331,-0.030507,0.158155,-1.301833,0.050293,0.296884,0.024328,80.969451,-0.008451,-0.176951,5.731182,0.250000,7.138670,-0.004943,-0.064091,-1.498461,13.000000,0.000000,0.097991,0.000000,0.000000,0.007870,-0.794180,-0.500925,-81.436866,0.155094,-0.058705,-0.196410,0.025564,-0.222246,1.051604,0.471381,-0.476115,0.007666,0.009831,-0.004705,-0.007795,-0.009458,-0.037080,0.938926,1.930526,0.137260,0.170618,0.162394,0.137841,0.525702,0.458808,0.315256,0.000000,0.000000,0.000000,0.000000,0.000000,0.000000,
15.500000,7.808787,-0.027372,0.162648,-1.481904,0.050585,-0.088744,-0.070409,80.979693,1.868397,0.647622,6.563601,0.250000,7.436501,-0.005903,-0.099295,-1.503388,14.000000,0.000000,2.974134,0.000000,0.000000,0.007870,0.170613,-0.447219,-81.490402,0.158330,-0.097616,-0.021532,0.021469,-0.261943,1.107150,0.448390,-0.053984,0.006793,-0.007876,-0.001473,-0.007790,-0.009467,-0.037067,0.756701,1.930805,0.142105,0.186598,0.177001,0.099472,0.608532,0.537079,0.233760,0.000000,0.000000,0.000000,0.000000,0.000000,0.000000,
16.000000,8.568861,-0.024232,0.171914,-1.472572,0.045913,0.331546,0.008722,80.990581,-0.110676,0.108283,6.563601,0.250000,8.188238,0.000043,-0.114243,-1.499390,14.000000,0.000000,2.974134,0.000000,0.000000,0.007870,0.170531,-0.450487,-81.506259,0.172153,-0.117155,-0.026856,0.024276,-0.286157,1.188662,0.392855,-0.066324,0.006793,-0.007876,-0.001473,-0.007790,-0.009467,-0.037067,0.758190,1.931369,0.148067,0.200476,0.191865,0.108794,0.698534,0.622845,0.281498,0.000000,0.000000,0.000000,0.000000,0.000000,0.000000,
16.500000,9.341954,-0.025297,0.204565,-1.503029,0.047073,0.418058,0.019884,81.000779,-0.538062,0.461265,8.156175,0.250000,8.842049,0.000431,-0.109327,-1.499170,15.000000,0.000000,0.190065,0.000000,0.000000,0.007870,0.326133,-0.437631,-81.528216,0.204830,-0.116264,0.003643,0.025729,-0.313892,1.276374,0.333008,0.029004,0.006536,-0.010738,-0.000953,-0.007789,-0.009468,-0.037064,0.670821,1.931610,0.153459,0.215274,0.206990,0.084487,0.795386,0.716099,0.218464,0.000000,0.000000,0.000000,0.000000,0.000000,0.000000,
17.000000,10.121178,-0.027576,0.240688,-1.498773,0.045260,0.450745,0.041523,81.011442,-0.785391,0.164328,8.156175,0.250000,9.592551,0.001250,-0.097136,-1.498188,15.000000,0.000000,0.190065,0.000000,0.000000,0.007870,0.327105,-0.440408,-81.544157,0.241737,-0.107461,0.000509,0.028826,-0.337824,1.388191,0.276693,0.029786,0.006536,-0.010738,-0.000953,-0.007789,-0.009468,-0.037064,0.672586,1.932195,0.159387,0.230142,0.222627,0.091854,0.899487,0.816982,0.257705,0.000000,0.000000,0.000000,0.000000,0.000000,0.000000,
17.500000,10.888648,-0.032926,0.279339,-1.456805,0.045584,0.481695,0.084669,81.022229,-0.039589,0.953373,9.938949,0.250000,10.455427,0.001129,-0.076998,-1.496787,16.000000,0.000000,0.336525,0.000000,0.000000,0.007870,0.184361,-0.469134,-81.554490,0.280761,-0.088083,-0.040032,0.034055,-0.356336,1.529149,0.232871,-0.097888,0.006970,-0.008089,-0.001434,-0.007789,-0.009467,-0.037066,0.627162,1.932288,0.164915,0.245049,0.238391,0.075440,1.010470,0.925545,0.206924,0.000000,0.000000,0.000000,0.000000,0.000000,0.000000,
18.000000,11.654253,-0.038629,0.315442,-1.452543,0.050215,0.409520,0.058510,81.031769,-0.244205,0.151322,9.938949,0.250000,11.205176,-0.001041,-0.063613,-1.497726,16.000000,0.000000,0.336525,0.000000,0.000000,0.007870,0.187089,-0.471370,-81.570324,0.315378,-0.074605,-0.045336,0.037588,-0.379055,1.678603,0.192321,-0.119485,0.006970,-0.008089,-0.001434,-0.007789,-0.009467,-0.037066,0.629150,1.932890,0.170746,0.260903,0.254839,0.081824,1.129069,1.042109,0.240908,0.000000,0.000000,0.000000,0.000000,0.000000,0.000000,
18.500000,12.432404,-0.040640,0.345501,-1.476112,0.047254,0.356942,0.012359,81.041743,0.384824,-1.773732,11.157258,0.250000,11.864065,-0.001106,-0.060528,-1.498807,17.000000,0.000000,0.270231,0.000000,0.000000,0.007870,0.284814,-0.444844,-81.590107,0.345440,-0.074101,-0.022729,0.039534,-0.406030,1.833105,0.147470,-0.042079,0.006485,-0.009845,-0.001112,-0.007790,-0.009468,-0.037065,0.603987,1.932737,0.176376,0.277480,0.271656,0.069820,1.255410,1.166753,0.198345,0.000000,0.000000,0.000000,0.000000,0.000000,0.000000,
19.000000,13.215235,-0.042401,0.374259,-1.471351,0.047008,0.375911,0.043155,81.052376,-0.280315,-0.177103,11.157258,0.250000,12.614279,0.001075,-0.054785,-1.497771,17.000000,0.000000,0.270231,0.000000,0.000000,0.007870,0.286133,-0.447666,-81.605901,0.376324,-0.071088,-0.026531,0.043476,-0.429044,2.013793,0.110793,-0.054645,0.006485,-0.009845,-0.001112,-0.007790,-0.009468,-0.037065,0.606103,1.933370,0.181982,0.294228,0.288923,0.075471,1.389988,1.299857,0.228940,0.000000,0.000000,0.000000,0.000000,0.000000,0.000000,
19.500000,14.017066,-0.042576,0.403162,-1.513698,0.050565,0.362756,-0.015143,81.062244,-0.749622,0.174419,12.423147,0.250000,13.210599,0.001555,-0.056159,-1.499214,18.000000,0.000000,0.903915,0.000000,0.000000,0.007870,0.422521,-0.388347,-81.627412,0.405399,-0.076636,0.014282,0.044130,-0.459321,2.184962,0.055525,0.101625,0.005430,-0.012326,-0.000648,-0.007796,-0.009468,-0.037063,0.591586,1.932936,0.187544,0.311865,0.306663,0.066060,1.532811,1.441422,0.191935,0.000000,0.000000,0.000000,0.000000,0.000000,0.000000,
20.000000,14.826328,-0.043322,0.432160,-1.510712,0.046357,0.383916,0.047164,81.073329,-1.077418,-0.927381,12.423147,0.250000,13.961012,0.005171,-0.050616,-1.497884,18.000000,0.000000,0.903915,0.000000,0.000000,0.007870,0.423726,-0.391538,-81.643072,0.437791,-0.074899,0.012687,0.048494,-0.482776,2.396101,0.017139,0.108118,0.005430,-0.012326,-0.000648,-0.007796,-0.009468,-0.037063,0.593812,1.933597,0.192994,0.329509,0.324764,0.071175,1.684387,1.591890,0.220229,0.000000,0.000000,0.000000,0.000000,0.000000,0.000000,
20.500000,15.661052,-0.064726,1.125825,-1.496255,0.054519,14.269786,0.373289,81.113658,-0.984154,0.121760,14.114903,0.250000,14.718040,-0.011217,0.589754,-1.491651,19.000000,0.000000,0.003199,0.000000,0.000000,0.007870,0.429343,-0.397631,-81.656230,1.095499,0.482636,0.004316,0.053509,-0.536071,2.722255,0.067761,0.103500,0.005501,-0.012208,-0.000671,-0.007795,-0.009468,-0.037064,0.584640,1.933128,0.198066,0.347476,0.343157,0.063369,1.844336,1.751137,0.187079,0.000000,0.000000,0.000000,0.000000,0.000000,0.000000,
21.000000,16.630261,-0.096748,2.464436,-1.490217,0.052442,15.948878,0.398512,81.131054,-2.540091,0.305495,14.114903,0.250000,15.465287,-0.039116,1.903431,-1.493487,19.000000,0.000000,0.003199,0.000000,0.000000,0.007870,0.417269,-0.396645,-81.671972,2.404876,1.622499,-0.003494,0.057632,-0.561005,3.592617,0.589460,0.103408,0.005501,-0.012208,-0.000671,-0.007795,-0.009468,-0.037064,0.586840,1.933848,0.203365,0.366067,0.362100,0.068385,2.013422,1.919712,0.213697,0.000000,0.000000,0.000000,0.000000,0.000000,0.000000,
21.500000,17.772415,-0.127834,3.829757,-1.501217,0.056302,16.035004,0.372449,81.133966,-3.777357,0.494595,15.464262,0.250000,16.154722,-0.068172,3.247787,-1.496702,20.000000,0.000000,0.166658,0.000000,0.000000,0.007870,0.455905,-0.363525,2.017133,0.547642,-0.141182,0.004460,0.059663,-0.581970,3.297623,-0.313456,0.164622,0.004964,-0.012901,-0.000533,-0.007826,-0.009467,-0.037063,0.581691,1.932996,0.208635,0.385302,0.381547,0.062543,2.191474,2.097704,0.183360,0.000000,0.000000,0.000000,0.000000,0.000000,0.000000,
22.000000,19.079403,-0.155477,5.144074,-1.493811,0.053056,16.037563,0.366935,81.142959,-4.734062,1.769441,15.464262,0.250000,16.904175,-0.092903,4.542639,-1.496708,20.000000,0.000000,0.166658,0.000000,0.000000,0.007870,0.457248,-0.361698,2.001207,0.563050,-0.185331,-0.002994,0.062574,-0.601436,3.575459,-0.394988,0.164706,0.004964,-0.012901,-0.000533,-0.007826,-0.009467,-0.037063,0.584166,1.933682,0.213872,0.404869,0.401361,0.067967,2.379219,2.285325,0.209004,0.000000,0.000000,0.000000,0.000000,0.000000,0.000000,
22.500000,20.540346,-0.180985,6.392533,-1.483261,0.057029,15.980537,0.373333,81.156084,-6.238407,0.786289,17.175568,0.250000,17.700421,-0.150826,5.943297,-1.497373,21.000000,1.000000,0.225154,1.549473,0.000000,0.007870,0.520415,-0.370747,2.640298,0.398459,-0.308780,-0.014204,0.030159,-0.449236,2.819702,-0.670709,0.113030,0.005460,-0.012435,-0.000636,-0.009603,-0.009109,-0.037092,0.560254,1.895311,0.219028,0.374177,0.340762,0.062235,2.234466,1.993232,0.180496,-2.838290,-0.526543,-4.172354,-0.432993,-0.038344,0.828139,
23.000000,22.147535,-0.205025,7.565942,-1.476720,0.056661,15.972868,0.373194,81.167194,-6.924238,0.860499,17.175568,0.250000,18.450102,-0.174501,7.107145,-1.497601,21.000000,1.000000,0.225154,1.549473,0.000000,0.007870,0.522890,-0.368816,2.624265,0.403662,-0.361305,-0.020852,0.030524,-0.458797,3.020408,-0.838193,0.103996,0.005460,-0.012435,-0.000636,-0.009603,-0.009109,-0.037092,0.562511,1.895868,0.224189,0.393026,0.358319,0.067342,2.414514,2.157557,0.205558,-2.838290,-0.526543,-4.172354,-0.432993,-0.038344,0.828139,
23.500000,23.892883,-0.226546,8.656569,-1.472537,0.057064,15.943202,0.309945,81.159930,-8.092147,1.278127,18.600819,0.250000,19.203733,-0.253968,8.281315,-1.497622,22.000000,2.000000,0.003900,0.909867,0.000000,0.007870,0.555198,-0.297008,1.715336,0.321491,-0.328728,-0.025117,-0.027422,-0.375254,2.605032,-1.125673,0.088756,0.004700,-0.012165,-0.000666,-0.010511,-0.008605,-0.037144,0.546963,1.873223,0.229343,0.384545,0.313364,0.061653,2.383135,1.924274,0.178481,-1.944238,-1.293877,-10.325332,-0.269903,0.190524,-0.221501,
24.000000,25.764551,-0.240886,9.658227,-1.465276,0.053835,15.936493,0.299772,81.167416,-9.988643,1.111447,18.600819,0.250000,19.953524,-0.271260,9.278133,-1.497450,22.000000,2.000000,0.003900,0.909867,0.000000,0.007870,0.558179,-0.294438,1.699414,0.324022,-0.359567,-0.032220,-0.030373,-0.380094,2.766551,-1.297669,0.074174,0.004700,-0.012165,-0.000666,-0.010511,-0.008605,-0.037144,0.549188,1.873696,0.234448,0.403573,0.329562,0.066361,2.567005,2.071959,0.203045,-1.944238,-1.293877,-10.325332,-0.269903,0.190524,-0.221501,
24.500000,27.751119,-0.252445,10.569185,-1.457628,0.054950,15.901764,0.309810,81.181049,-9.984746,1.448147,20.156184,0.250000,20.722478,-0.307627,10.284602,-1.497364,23.000000,3.000000,0.064036,0.644265,0.000000,0.007870,0.597068,-0.308055,0.540701,0.246131,-0.192343,-0.039821,-0.055182,-0.284583,2.272205,-1.043815,0.036891,0.005140,-0.011979,-0.000717,-0.011414,-0.008420,-0.037161,0.538441,1.856443,0.239505,0.399826,0.294065,0.060921,2.557425,1.873460,0.176862,-2.371544,0.507798,-4.579783,-0.268465,0.352134,0.308646,
25.000000,29.840808,-0.263254,11.390335,-1.449647,0.054132,15.894867,0.310742,81.191872,-11.298145,1.490190,20.156184,0.250000,21.472332,-0.323053,11.105466,-1.497751,23.000000,3.000000,0.064036,0.644265,0.000000,0.007870,0.600498,-0.305887,0.524881,0.246633,-0.201741,-0.048107,-0.059800,-0.284870,2.395548,-1.142172,0.014671,0.005140,-0.011979,-0.000717,-0.011414,-0.008420,-0.037161,0.540520,1.856900,0.244549,0.419185,0.309433,0.065553,2.747864,2.008480,0.200937,-2.371544,0.507798,-4.579783,-0.268465,0.352134,0.308646,
25.500000,32.028751,-0.272147,12.126584,-1.456041,0.055978,15.827026,0.354130,81.214704,-12.012280,1.919950,21.500555,0.250000,22.175195,-0.312001,11.956727,-1.498192,24.000000,4.000000,0.095898,0.730685,0.000000,0.007870,0.676634,-0.355542,0.233618,0.143716,-0.111963,-0.042104,-0.039854,-0.169857,1.786341,-0.750120,0.040971,0.005878,-0.012300,-0.000679,-0.012494,-0.008597,-0.037137,0.533655,1.842015,0.249542,0.420548,0.280416,0.060838,2.768978,1.833383,0.175551,-2.604812,1.921472,-3.188657,-0.296885,0.115549,-0.261083,
26.000000,34.299271,-0.283428,12.774007,-1.446528,0.057488,15.815438,0.356628,81.226448,-13.119252,1.872033,21.500555,0.250000,22.925230,-0.327916,12.608959,-1.497987,24.000000,4.000000,0.095898,0.730685,0.000000,0.007870,0.680532,-0.353600,0.217731,0.139739,-0.115134,-0.051440,-0.044488,-0.165049,1.857357,-0.806707,0.017372,0.005878,-0.012300,-0.000679,-0.012494,-0.008597,-0.037137,0.535669,1.842459,0.254539,0.440369,0.295294,0.065867,2.969117,1.958511,0.199398,-2.604812,1.921472,-3.188657,-0.296885,0.115549,-0.261083,
26.500000,36.646884,-0.296917,13.349844,-1.452339,0.054915,15.816590,0.157045,81.180361,-13.851040,1.577644,22.917861,0.250000,23.617933,-0.456335,13.216705,-1.497960,25.000000,5.000000,0.193566,1.348245,0.000000,0.007870,0.677991,-0.122399,-0.130238,0.101429,-0.146486,-0.045603,-0.159418,-0.133139,1.673791,-1.501595,0.052226,0.002580,-0.011874,-0.000641,-0.012899,-0.007887,-0.037217,0.533144,1.826023,0.259624,0.446860,0.271024,0.061972,3.028789,1.800552,0.174877,-0.836256,-4.403987,2.874365,-0.078394,0.317159,-0.221224,
27.000000,39.057624,-0.288552,13.851979,-1.441863,0.052827,15.812785,0.125864,81.182322,-12.844600,0.987204,22.917861,0.250000,24.368010,-0.456983,13.725443,-1.497696,25.000000,5.000000,0.193566,1.348245,0.000000,0.007870,0.682056,-0.119059,-0.146192,0.095330,-0.149484,-0.055850,-0.168431,-0.126536,1.723137,-1.575374,0.026675,0.002580,-0.011874,-0.000641,-0.012899,-0.007887,-0.037217,0.535348,1.826401,0.264596,0.467278,0.285665,0.067500,3.241836,1.917932,0.199028,-0.836256,-4.403987,2.874365,-0.078394,0.317159,-0.221224,
27.500000,41.513305,-0.273668,14.284228,-1.412336,0.058570,15.772194,0.267906,81.233620,-14.084861,2.311825,24.720978,0.250000,25.196861,-0.463609,14.233942,-1.497468,26.000000,6.000000,0.517311,0.906756,0.000000,0.007870,0.726773,-0.286903,-0.357277,0.024618,-0.105973,-0.085115,-0.189942,-0.050286,1.125899,-1.389795,-0.089899,0.005659,-0.012256,-0.000718,-0.013168,-0.007769,-0.037220,0.531461,1.805735,0.269446,0.478314,0.265082,0.064575,3.343428,1.773984,0.175289,-3.800137,0.902498,-1.355559,-0.025901,0.101440,0.289246,
28.000000,44.011066,-0.274520,14.662902,-1.400434,0.057106,15.764144,0.287043,81.249831,-13.502965,2.637378,24.720978,0.250000,25.946677,-0.474331,14.621524,-1.497733,26.000000,6.000000,0.517311,0.906756,0.000000,0.007870,0.731076,-0.284702,-0.372863,0.016086,-0.108255,-0.097254,-0.199811,-0.041378,1.136228,-1.443126,-0.135680,0.005659,-0.012256,-0.000718,-0.013168,-0.007769,-0.037220,0.533340,1.806222,0.274352,0.499430,0.279642,0.071170,3.572266,1.885441,0.200561,-3.800137,0.902498,-1.355559,-0.025901,0.101440,0.289246,
28.500000,46.549960,-0.277073,14.993128,-1.396420,0.055325,15.762438,0.278495,81.257841,-14.863446,2.009950,26.005155,0.250000,26.664951,-0.437765,14.970274,-1.498001,27.000000,7.000000,0.054012,1.066582,0.000000,0.007870,0.731818,-0.271650,-0.678588,0.015712,0.014523,-0.101524,-0.160692,-0.022855,1.211483,-0.645211,-0.152740,0.005179,-0.012084,-0.000703,-0.013302,-0.008070,-0.037182,0.528456,1.776232,0.279244,0.514887,0.262098,0.068513,3.721261,1.752337,0.177298,0.418485,4.265038,-4.958329,0.031271,0.023028,0.138921,
29.000000,49.121200,-0.278008,15.276110,-1.383168,0.055647,15.758678,0.273950,81.266781,-15.202353,1.462819,26.005155,0.250000,27.415006,-0.447879,15.263209,-1.497931,27.000000,7.000000,0.054012,1.066582,0.000000,0.007870,0.736130,-0.269209,-0.694343,0.006213,0.014479,-0.114661,-0.169871,-0.012900,1.217116,-0.637726,-0.206957,0.005179,-0.012084,-0.000703,-0.013302,-0.008070,-0.037182,0.530524,1.776703,0.284129,0.536780,0.276710,0.075813,3.968796,1.859486,0.204477,0.418485,4.265038,-4.958329,0.031271,0.023028,0.138921,
29.500000,51.740049,-0.287288,15.534748,-1.423439,0.056163,15.786520,-0.026851,81.192250,-15.769700,2.078340,27.167600,0.250000,27.994755,-0.431002,15.698786,-1.499297,28.000000,8.000000,1.234321,2.366048,0.000000,0.007870,0.702942,0.079615,-0.651747,-0.164527,0.061238,-0.075788,-0.143714,0.164039,0.040149,-0.234240,-0.077585,-0.001068,-0.009987,-0.000737,-0.014915,-0.008277,-0.037166,0.522490,1.734061,0.289122,0.555876,0.261598,0.072039,4.165811,1.734783,0.180724,-5.174809,2.713452,-4.638933,-0.302378,-0.163959,0.538920,
30.000000,53.738199,-0.261551,15.745744,-1.410879,0.053183,15.787081,-0.074140,81.189408,-15.808348,1.918284,27.167600,0.250000,28.745182,-0.414473,15.926944,-1.498140,28.000000,8.000000,1.234321,2.366048,0.000000,0.007870,0.707886,0.082996,-0.667923,-0.181093,0.061884,-0.087202,-0.152923,0.181200,-0.046103,-0.203242,-0.118488,-0.001068,-0.009987,-0.000737,-0.014915,-0.008277,-0.037166,0.524856,1.734504,0.293999,0.578594,0.276371,0.079226,4.434483,1.839049,0.209858,-5.174809,2.713452,-4.638933,-0.302378,-0.163959,0.538920,
30.500000,54.454837,-0.241984,15.940791,-1.434121,0.053121,15.890081,-0.373865,81.115034,-15.870483,2.209675,28.673360,0.250000,29.396236,-0.378062,16.129539,-1.498672,29.000000,9.000000,0.326372,2.502180,0.000000,0.007870,0.589867,0.424034,-0.541454,-0.189741,0.047146,-0.064558,-0.136078,0.188748,-0.179061,-0.202262,-0.052973,-0.007090,-0.007943,-0.000783,-0.014825,-0.008377,-0.037164,0.510205,1.681494,0.298947,0.600441,0.262849,0.073819,4.677797,1.720815,0.184386,-1.272002,0.984702,-2.595327,0.496142,-0.362519,1.119217,
31.000000,55.169992,-0.189969,16.104696,-1.423611,0.056330,15.899035,-0.419191,81.112963,-17.292193,1.641247,28.673360,0.250000,30.146555,-0.335174,16.310534,-1.498239,29.000000,9.000000,0.326372,2.502180,0.000000,0.007870,0.594681,0.427549,-0.557483,-0.206263,0.047037,-0.074635,-0.145205,0.205838,-0.277912,-0.178506,-0.087900,-0.007090,-0.007943,-0.000783,-0.014825,-0.008377,-0.037164,0.512611,1.682012,0.303794,0.623999,0.277831,0.080697,4.969458,1.823358,0.214803,-1.272002,0.984702,-2.595327,0.496142,-0.362519,1.119217,
31.500000,55.899599,-0.150600,16.265247,-1.465661,0.056464,16.040091,-0.822056,81.008307,-16.108970,2.378671,29.900955,0.250000,30.731955,-0.263512,16.478105,-1.499413,30.000000,10.000000,1.337697,1.954559,0.000000,0.007870,0.434452,0.890565,-0.994468,-0.187503,0.206384,-0.033709,-0.112911,0.212858,-0.152827,1.003749,0.056097,-0.015493,-0.005058,-0.000861,-0.014912,-0.008731,-0.037109,0.492569,1.625393,0.308753,0.647556,0.265350,0.073665,5.256913,1.709895,0.187082,0.711351,5.741012,-5.299980,0.286385,0.133212,-0.180324,
32.000000,56.630887,-0.068082,16.396889,-1.456954,0.054709,16.054307,-0.884062,81.000603,-15.687394,2.390849,29.900955,0.250000,31.482387,-0.188907,16.627120,-1.498386,30.000000,10.000000,1.337697,1.954559,0.000000,0.007870,0.439116,0.894022,-1.010383,-0.203066,0.208359,-0.041396,-0.120825,0.230230,-0.250313,1.107643,0.037198,-0.015493,-0.005058,-0.000861,-0.014912,-0.008731,-0.037109,0.495143,1.625962,0.313584,0.671908,0.280550,0.079975,5.572854,1.811656,0.217788,0.711351,5.741012,-5.299980,0.286385,0.133212,-0.180324,
32.500000,57.357160,0.014527,16.509545,-1.446301,0.053183,16.065163,-0.893934,81.008502,-15.442995,3.451666,31.653347,0.250000,32.244526,-0.123804,16.717605,-1.497750,31.000000,11.000000,0.016637,0.492410,0.000000,0.007870,0.428317,0.898767,-0.938644,-0.185737,0.168195,-0.051463,-0.138331,0.208060,-0.090446,0.934076,0.001606,-0.015401,-0.005094,-0.000854,-0.014578,-0.008577,-0.037138,0.469784,1.575019,0.318268,0.695537,0.268239,0.072524,5.896177,1.701317,0.188248,1.279189,-0.946959,-5.274110,0.103796,-0.208952,0.359489,
33.000000,58.079110,0.091668,16.606522,-1.438771,0.056587,16.060810,-0.896156,81.018648,-16.564406,2.593935,31.653347,0.250000,32.994533,-0.055130,16.831371,-1.498028,31.000000,11.000000,0.016637,0.492410,0.000000,0.007870,0.433492,0.900918,-0.954494,-0.201223,0.168525,-0.059328,-0.146798,0.224849,-0.187032,1.018466,-0.026193,-0.015401,-0.005094,-0.000854,-0.014578,-0.008577,-0.037138,0.472144,1.575763,0.323040,0.720581,0.283594,0.078843,6.236749,1.802894,0.218720,1.279189,-0.946959,-5.274110,0.103796,-0.208952,0.359489,
33.500000,58.800776,0.160708,16.692453,-1.440507,0.058215,16.084631,-0.961611,81.010555,-16.468342,2.955398,33.059890,0.250000,33.713770,-0.055224,16.924552,-1.498265,32.000000,12.000000,0.043949,1.025300,0.000000,0.007870,0.406333,0.976399,-0.740990,-0.229279,0.040700,-0.057816,-0.215931,0.232099,-0.375243,0.268949,-0.023574,-0.015977,-0.004623,-0.000871,-0.014492,-0.007823,-0.037286,0.446290,1.534516,0.327738,0.742548,0.271286,0.071237,6.583956,1.694791,0.188360,-0.392133,-2.588885,2.069352,-0.008829,-0.752241,0.139292,
34.000000,59.519734,0.231808,16.764076,-1.432860,0.055259,16.083004,-0.974007,81.018065,-16.762033,2.397695,33.059890,0.250000,34.463820,0.003625,17.013363,-1.497944,32.000000,12.000000,0.043949,1.025300,0.000000,0.007870,0.411388,0.979350,-0.756853,-0.246242,0.036810,-0.065116,-0.228182,0.249287,-0.493961,0.288528,-0.054383,-0.015977,-0.004623,-0.000871,-0.014492,-0.007823,-0.037286,0.448796,1.535319,0.332495,0.768122,0.286750,0.077374,6.948580,1.796632,0.218374,-0.392133,-2.588885,2.069352,-0.008829,-0.752241,0.139292,
34.500000,60.227990,0.301075,16.818908,-1.406622,0.057791,16.064836,-0.904987,81.049056,-16.559281,2.898838,34.767735,0.250000,35.281899,0.044726,17.019423,-1.497556,33.000000,13.000000,0.296318,1.820077,0.000000,0.007870,0.432765,0.897087,-0.766958,-0.201213,0.004034,-0.090897,-0.256348,0.200514,-0.148162,0.080243,-0.163748,-0.014384,-0.005457,-0.000824,-0.013910,-0.007714,-0.037301,0.423203,1.504213,0.337127,0.786479,0.274065,0.069906,7.304041,1.690067,0.187831,2.245099,-1.212204,-16.086293,0.207398,-0.032090,0.459032,
35.000000,60.929990,0.356559,16.868776,-1.398703,0.057434,16.057337,-0.895933,81.062551,-16.647231,2.928890,34.767735,0.250000,36.031752,0.087221,17.084678,-1.497785,33.000000,13.000000,0.296318,1.820077,0.000000,0.007870,0.437836,0.899406,-0.782761,-0.216775,-0.001213,-0.099036,-0.269338,0.215902,-0.252508,0.081155,-0.211291,-0.014384,-0.005457,-0.000824,-0.013910,-0.007714,-0.037301,0.425729,1.505103,0.341858,0.812376,0.289583,0.075910,7.691037,1.792418,0.217306,2.245099,-1.212204,-16.086293,0.207398,-0.032090,0.459032,
35.500000,61.636337,0.402175,16.920259,-1.412813,0.059174,16.129144,-1.024445,81.036510,-18.246925,1.768753,36.018611,0.250000,36.712715,0.153010,17.108374,-1.498535,34.000000,14.000000,0.181256,0.832919,0.000000,0.007870,0.355312,1.048034,-0.692798,-0.189999,-0.011722,-0.085788,-0.249165,0.188115,-0.149033,-0.128710,-0.185779,-0.017215,-0.004303,-0.000874,-0.013559,-0.008001,-0.037249,0.402501,1.481653,0.346562,0.824769,0.276652,0.068423,8.031334,1.686775,0.186940,0.319730,-1.799932,-9.842726,0.331833,0.211945,0.098901,
36.000000,62.341484,0.459048,16.961453,-1.405091,0.053308,16.133349,-1.044556,81.042080,-16.835566,3.314874,36.018611,0.250000,37.462864,0.197656,17.163769,-1.497870,34.000000,14.000000,0.181256,0.832919,0.000000,0.007870,0.359865,1.051037,-0.708742,-0.204315,-0.016340,-0.092803,-0.261392,0.202316,-0.247468,-0.135516,-0.230449,-0.017215,-0.004303,-0.000874,-0.013559,-0.008001,-0.037249,0.405231,1.482562,0.351286,0.850715,0.292199,0.074048,8.437713,1.789818,0.215715,0.319730,-1.799932,-9.842726,0.331833,0.211945,0.098901,
36.500000,63.066850,0.502404,17.022765,-1.461445,0.054872,16.314640,-1.352109,80.962973,-16.759229,3.160686,37.140491,0.250000,38.007302,0.283478,17.135947,-1.499666,35.000000,15.000000,1.822573,1.323110,0.000000,0.007870,0.154009,1.405844,-0.742707,-0.106882,0.021584,-0.038344,-0.218926,0.113182,0.500505,0.186515,-0.049738,-0.023770,-0.001308,-0.001013,-0.012953,-0.008360,-0.037195,0.384540,1.464534,0.356034,0.855632,0.278976,0.066575,8.742248,1.684520,0.185673,4.266949,1.832532,-5.688252,0.212735,0.004982,0.168882,
37.000000,63.796857,0.577712,17.067423,-1.456351,0.056625,16.335864,-1.400101,80.959168,-16.392332,2.987552,37.140491,0.250000,38.757805,0.347937,17.191778,-1.498505,35.000000,15.000000,1.822573,1.323110,0.000000,0.007870,0.157509,1.409156,-0.758371,-0.117676,0.017957,-0.042253,-0.229775,0.124355,0.444513,0.196617,-0.069900,-0.023770,-0.001308,-0.001013,-0.012953,-0.008360,-0.037195,0.387464,1.465449,0.360751,0.881337,0.294538,0.071718,9.164107,1.788354,0.213524,4.266949,1.832532,-5.688252,0.212735,0.004982,0.168882,
37.500000,64.518435,0.652859,17.103390,-1.435829,0.053496,16.379439,-1.374323,80.977071,-16.457826,3.024835,39.002981,0.250000,39.561789,0.577616,17.094851,-1.497251,36.000000,16.000000,0.090286,3.973432,0.000000,0.007870,0.110272,1.373849,-0.513333,0.025926,0.076150,-0.061498,-0.075243,-0.008540,1.198306,0.244619,-0.151827,-0.024410,-0.001780,-0.000970,-0.011582,-0.009626,-0.036942,0.367840,1.451914,0.365377,0.876561,0.280647,0.064758,9.408062,1.683093,0.184055,1.696053,-1.946852,0.440157,1.167043,0.769972,-0.890646,
38.000000,65.236251,0.719121,17.139899,-1.432619,0.056310,16.380295,-1.370534,80.989052,-16.828643,3.332120,39.002981,0.250000,40.311691,0.639360,17.136642,-1.498100,36.000000,16.000000,0.090286,3.973432,0.000000,0.007870,0.113954,1.375400,-0.529340,0.021650,0.077367,-0.065543,-0.079760,-0.003257,1.210339,0.283202,-0.183572,-0.024410,-0.001780,-0.000970,-0.011582,-0.009626,-0.036942,0.370660,1.452893,0.370062,0.901704,0.296177,0.069712,9.840214,1.787655,0.211011,1.696053,-1.946852,0.440157,1.167043,0.769972,-0.890646,
38.500000,65.967537,0.773297,17.186209,-1.469221,0.056194,16.469454,-1.541024,80.949598,-16.514434,4.760700,40.123454,0.250000,40.919753,0.585618,17.152817,-1.498883,37.000000,17.000000,0.956156,1.527547,0.000000,0.007870,0.012875,1.573189,-0.572742,0.036610,-0.020937,-0.029752,-0.187679,-0.033392,1.415943,-0.503568,-0.060343,-0.027126,-0.000110,-0.001058,-0.011476,-0.008929,-0.037059,0.353782,1.442246,0.374735,0.885747,0.281904,0.063115,9.994478,1.681068,0.182340,1.252093,-4.682534,-7.086283,-0.107342,-0.092534,0.213530,
39.000000,66.702082,0.842717,17.219157,-1.466518,0.054897,16.478447,-1.569238,80.951628,-16.889101,3.856951,40.123454,0.250000,41.670040,0.646714,17.190606,-1.498243,37.000000,17.000000,0.956156,1.527547,0.000000,0.007870,0.016045,1.575962,-0.588363,0.032196,-0.023503,-0.031916,-0.196003,-0.028551,1.433283,-0.514454,-0.075723,-0.027126,-0.000110,-0.001058,-0.011476,-0.008929,-0.037059,0.356776,1.443198,0.379415,0.909976,0.297379,0.067816,10.430821,1.786236,0.208447,1.252093,-4.682534,-7.086283,-0.107342,-0.092534,0.213530,
39.500000,67.440194,0.907515,17.253061,-1.476906,0.055291,16.529942,-1.623894,80.945903,-16.836947,3.578075,41.735696,0.250000,42.381705,0.723673,17.180041,-1.498130,38.000000,18.000000,0.044480,1.573037,0.000000,0.007870,-0.042513,1.636610,-0.555464,0.076755,-0.028432,-0.021346,-0.183843,-0.073021,1.578372,-0.617745,-0.049017,-0.028305,0.000450,-0.001088,-0.010978,-0.009073,-0.037029,0.341567,1.434994,0.384051,0.886967,0.282804,0.061680,10.525695,1.680794,0.180634,-0.999618,-0.802276,0.793925,0.603875,0.077891,0.823485,
40.000000,68.178945,0.973093,17.280868,-1.475326,0.054341,16.533494,-1.634264,80.952781,-16.941808,3.625374,41.735696,0.250000,43.131795,0.781518,17.210700,-1.497906,38.000000,18.000000,0.044480,1.573037,0.000000,0.007870,-0.039323,1.639019,-0.571100,0.074395,-0.030870,-0.022682,-0.191575,-0.070169,1.616296,-0.632346,-0.059979,-0.028305,0.000450,-0.001088,-0.010978,-0.009073,-0.037029,0.344569,1.435950,0.388713,0.910108,0.298211,0.066208,10.962098,1.786548,0.205991,-0.999618,-0.802276,0.793925,0.603875,0.077891,0.823485,
40.500000,68.920124,1.033722,17.306891,-1.481930,0.054308,16.541257,-1.655134,80.956415,-16.612245,3.637055,43.192471,0.250000,43.851685,0.843736,17.245319,-1.497669,39.000000,19.000000,0.051582,0.287294,0.000000,0.007870,-0.048024,1.662074,-0.557342,0.065955,-0.031820,-0.015953,-0.189986,-0.061572,1.630229,-0.682157,-0.038372,-0.028727,0.000735,-0.001105,-0.011053,-0.009120,-0.037019,0.331037,1.429290,0.393335,0.880972,0.283528,0.060485,10.996776,1.682136,0.179039,0.017663,-0.395585,7.756186,-0.068894,0.058381,0.003137,
41.000000,69.661702,1.091769,17.327007,-1.481201,0.055566,16.540153,-1.659956,80.965575,-16.931500,3.764544,43.192471,0.250000,44.601753,0.893997,17.269286,-1.497832,39.000000,19.000000,0.051582,0.287294,0.000000,0.007870,-0.044621,1.664068,-0.573196,0.062569,-0.034174,-0.016765,-0.197772,-0.057721,1.662490,-0.698429,-0.046470,-0.028727,0.000735,-0.001105,-0.011053,-0.009120,-0.037019,0.334070,1.430235,0.397983,0.902893,0.298861,0.064876,11.429496,1.788489,0.203756,0.017663,-0.395585,7.756186,-0.068894,0.058381,0.003137,
41.500000,70.410218,1.141174,17.352126,-1.500169,0.055123,16.591787,-1.772777,80.942969,-17.070139,3.895119,44.544779,0.250000,45.276705,0.681283,17.232220,-1.498578,40.000000,20.000000,0.347587,4.446386,0.000000,0.007870,-0.104070,1.795571,-0.809138,0.095289,-0.233370,0.001396,-0.459891,-0.119906,2.020253,-2.256516,0.027327,-0.029480,0.001422,-0.001140,-0.010708,-0.007748,-0.037258,0.322249,1.424492,0.402618,0.870033,0.284159,0.059487,11.421963,1.685235,0.177602,1.954705,-8.810230,1.380711,-0.022137,-0.068980,-0.378888,
42.000000,71.160819,1.199920,17.370316,-1.499957,0.059610,16.595342,-1.792326,80.948314,-17.707353,3.497852,44.544779,0.250000,46.026878,0.724490,17.252648,-1.498238,40.000000,20.000000,0.347587,4.446386,0.000000,0.007870,-0.100886,1.798704,-0.824739,0.092368,-0.243561,0.001557,-0.475430,-0.117668,2.067302,-2.375512,0.028169,-0.029480,0.001422,-0.001140,-0.010708,-0.007748,-0.037258,0.325365,1.425408,0.407258,0.890681,0.299421,0.063749,11.848433,1.792202,0.201771,1.954705,-8.810230,1.380711,-0.022137,-0.068980,-0.378888,
42.500000,71.907410,1.255819,17.382976,-1.489331,0.054693,16.608083,-1.789865,80.960518,-16.945601,3.956976,46.282667,0.250000,46.820727,0.755813,17.180438,-1.497234,41.000000,21.000000,0.138895,2.208105,0.000000,0.007870,-0.116263,1.794797,-0.773206,0.169342,-0.297434,-0.008101,-0.500006,-0.202538,2.782543,-3.060514,-0.018571,-0.029330,0.001144,-0.001115,-0.010158,-0.007713,-0.037262,0.314349,1.420351,0.411864,0.854491,0.284189,0.058692,11.801114,1.687797,0.176334,3.858657,-4.239940,-2.667499,0.057413,0.307808,0.433634,
43.000000,72.653069,1.306661,17.397216,-1.490233,0.057871,16.608003,-1.792225,80.970178,-17.027105,3.171398,46.282667,0.250000,47.570657,0.790664,17.194571,-1.497877,41.000000,21.000000,0.138895,2.208105,0.000000,0.007870,-0.113323,1.797473,-0.788943,0.168530,-0.308561,-0.007851,-0.515996,-0.202645,2.867138,-3.211776,-0.022414,-0.029330,0.001144,-0.001115,-0.010158,-0.007713,-0.037262,0.317463,1.421255,0.416489,0.873834,0.299368,0.062876,12.218942,1.795071,0.200055,3.858657,-4.239940,-2.667499,0.057413,0.307808,0.433634,
43.500000,73.398632,1.356110,17.405598,-1.490366,0.055424,16.544959,-1.736926,80.997288,-16.605807,2.236851,47.780369,0.250000,48.335236,0.998825,17.322852,-1.498128,42.000000,22.000000,0.053559,6.314389,0.000000,0.007870,-0.040536,1.731451,-0.580604,0.064164,-0.193314,-0.007881,-0.357285,-0.082746,2.505142,-2.554110,-0.040983,-0.029082,0.001052,-0.001114,-0.011162,-0.008547,-0.037099,0.307255,1.416383,0.421078,0.835049,0.284135,0.058080,12.133361,1.691106,0.175250,0.123315,3.722869,-0.955226,-0.979207,0.321060,1.728588,
44.000000,74.144543,1.394476,17.409362,-1.490747,0.056445,16.531480,-1.729653,81.010077,-16.980328,4.098268,47.780369,0.250000,49.085277,1.025587,17.332663,-1.498028,42.000000,22.000000,0.053559,6.314389,0.000000,0.007870,-0.036558,1.733658,-0.596348,0.057784,-0.199229,-0.007450,-0.368889,-0.076700,2.535759,-2.651995,-0.044655,-0.029082,0.001052,-0.001114,-0.011162,-0.008547,-0.037099,0.310377,1.417273,0.425693,0.853076,0.299229,0.062206,12.540499,1.798633,0.198612,0.123315,3.722869,-0.955226,-0.979207,0.321060,1.728588,
44.500000,74.886041,1.430720,17.407490,-1.478605,0.053978,16.515548,-1.683382,81.034888,-16.998396,4.154853,49.300280,0.250000,49.874742,1.146831,17.330535,-1.497367,43.000000,23.000000,0.061752,3.145168,0.000000,0.007870,-0.018872,1.679409,-0.536882,0.068471,-0.133160,-0.018923,-0.283890,-0.076955,2.650512,-2.112780,-0.092043,-0.028603,0.000695,-0.001092,-0.011048,-0.008990,-0.037024,0.300967,1.412283,0.430276,0.816330,0.284265,0.057640,12.470273,1.697337,0.174349,0.200777,4.079705,-12.617627,0.132139,-0.123433,-1.021138,
45.000000,75.626243,1.458453,17.408432,-1.479319,0.057912,16.509580,-1.677889,81.047587,-16.999087,4.458858,49.300280,0.250000,50.624649,1.165007,17.337635,-1.497837,43.000000,23.000000,0.061752,3.145168,0.000000,0.007870,-0.015334,1.681430,-0.552818,0.062234,-0.136946,-0.018676,-0.293446,-0.070797,2.683314,-2.180058,-0.101269,-0.028603,0.000695,-0.001092,-0.011048,-0.008990,-0.037024,0.304129,1.413152,0.434882,0.833152,0.299291,0.061723,12.867103,1.805253,0.197436,0.200777,4.079705,-12.617627,0.132139,-0.123433,-1.021138,
45.500000,76.378030,1.482193,17.420116,-1.509870,0.057071,16.566337,-1.723882,81.044731,-17.166915,4.281532,50.486806,0.250000,51.261714,1.355315,17.298081,-1.498745,44.000000,24.000000,0.720693,1.480865,0.000000,0.007870,-0.080318,1.735435,-0.292787,0.121578,-0.057490,0.010898,-0.126879,-0.122035,3.184569,-2.013953,0.013684,-0.030538,0.001525,-0.001140,-0.010746,-0.009839,-0.036813,0.295565,1.407715,0.439472,0.797003,0.284650,0.057259,12.793420,1.706415,0.173613,2.293812,-1.016445,-8.042596,0.155627,0.731045,0.314504,
46.000000,77.133690,1.508495,17.424718,-1.510249,0.053807,16.571541,-1.732142,81.052588,-17.019820,4.193305,50.486806,0.250000,52.011913,1.376878,17.307538,-1.497910,44.000000,24.000000,0.720693,1.480865,0.000000,0.007870,-0.077185,1.737425,-0.308428,0.117303,-0.056786,0.012136,-0.131616,-0.117180,3.244414,-2.042268,0.019651,-0.030538,0.001525,-0.001140,-0.010746,-0.009839,-0.036813,0.298797,1.408559,0.444071,0.812684,0.299618,0.061235,13.179598,1.814829,0.196458,2.293812,-1.016445,-8.042596,0.155627,0.731045,0.314504,
46.500000,77.879280,1.536042,17.418273,-1.483652,0.058021,16.520893,-1.662886,81.084474,-17.073546,4.933977,52.392011,0.250000,52.864829,1.303885,17.332620,-1.497381,45.000000,25.000000,0.584283,1.729548,0.000000,0.007870,-0.020111,1.656053,-0.418212,0.078145,-0.118696,-0.013855,-0.232157,-0.085653,3.068384,-2.586551,-0.086922,-0.028606,0.000774,-0.001095,-0.010878,-0.009448,-0.036887,0.290458,1.402528,0.448633,0.776541,0.285157,0.056959,13.097992,1.720086,0.172992,-0.969423,-3.054699,-8.658845,-0.115374,0.042637,-0.765125,
47.000000,78.622005,1.553339,17.417597,-1.484611,0.055485,16.511308,-1.653915,81.097878,-16.978974,4.244498,52.392011,0.250000,53.614652,1.313874,17.338433,-1.497725,45.000000,25.000000,0.584283,1.729548,0.000000,0.007870,-0.016358,1.657781,-0.434033,0.071808,-0.120282,-0.013368,-0.239464,-0.079164,3.105996,-2.646042,-0.093493,-0.028606,0.000774,-0.001095,-0.010878,-0.009448,-0.036887,0.293675,1.403364,0.453222,0.791140,0.300073,0.060942,13.472924,1.829119,0.195657,-0.969423,-3.054699,-8.658845,-0.115374,0.042637,-0.765125,
47.500000,79.374621,1.567237,17.424897,-1.510206,0.053665,16.532450,-1.693962,81.096412,-17.999340,4.843915,53.494479,0.250000,54.265245,1.505069,17.366705,-1.498339,46.000000,26.000000,0.634944,1.011436,0.000000,0.007870,-0.040900,1.703625,-0.232777,0.064959,-0.001246,0.011609,-0.062168,-0.058192,3.125010,-1.838121,0.008851,-0.030307,0.001394,-0.001133,-0.011008,-0.010201,-0.036731,0.286006,1.396713,0.457795,0.757614,0.285569,0.056703,13.416847,1.734185,0.172493,-0.054994,4.383401,-0.156952,-0.025021,0.176869,-0.113466,
48.000000,80.130649,1.584160,17.425428,-1.511301,0.057665,16.532495,-1.700494,81.105216,-16.949386,4.295240,53.494479,0.250000,55.015431,1.518778,17.374924,-1.498181,46.000000,26.000000,0.634944,1.011436,0.000000,0.007870,-0.037535,1.705355,-0.248629,0.058131,0.001482,0.012939,-0.065382,-0.050504,3.155906,-1.837807,0.015242,-0.030307,0.001394,-0.001133,-0.011008,-0.010201,-0.036731,0.289289,1.397528,0.462378,0.771231,0.300436,0.060586,13.781305,1.843675,0.194994,-0.054994,4.383401,-0.156952,-0.025021,0.176869,-0.113466,
48.500000,80.882901,1.602806,17.421381,-1.501120,0.057786,16.514448,-1.640449,81.133881,-17.538860,4.137597,55.268947,0.250000,55.811028,1.616136,17.383382,-1.497819,47.000000,27.000000,0.137450,0.188143,0.000000,0.007870,-0.018132,1.634667,-0.146080,0.050595,0.050850,0.003149,0.013330,-0.038000,3.098236,-1.614285,-0.027446,-0.029498,0.001103,-0.001116,-0.010974,-0.010563,-0.036642,0.281789,1.390125,0.466927,0.739471,0.286282,0.056443,13.741148,1.754553,0.172058,-0.844554,0.373915,-1.023229,0.145195,0.285530,0.082639,
49.000000,81.634382,1.612748,17.420238,-1.502298,0.055504,16.509202,-1.631641,81.147220,-17.399997,4.114106,55.268947,0.250000,56.560960,1.624949,17.390521,-1.497914,47.000000,27.000000,0.137450,0.188143,0.000000,0.007870,-0.014568,1.635710,-0.162055,0.043447,0.055682,0.004220,0.012201,-0.029717,3.121871,-1.587385,-0.025324,-0.029498,0.001103,-0.001116,-0.010974,-0.010563,-0.036642,0.285064,1.390936,0.471501,0.752191,0.301103,0.060302,14.095545,1.864690,0.194415,-0.844554,0.373915,-1.023229,0.145195,0.285530,0.082639,
49.500000,82.377727,1.623369,17.411783,-1.480165,0.054158,16.501627,-1.557686,81.179758,-16.917596,4.469966,56.931072,0.250000,57.401791,1.621635,17.323302,-1.496891,48.000000,28.000000,0.542248,0.977853,0.000000,0.007870,-0.006428,1.550393,-0.232041,0.104560,0.053239,-0.016915,-0.001735,-0.088481,3.765562,-1.575513,-0.122023,-0.027974,0.000573,-0.001082,-0.010578,-0.010557,-0.036613,0.277892,1.382884,0.476043,0.722363,0.287113,0.056260,14.075163,1.779641,0.171688,3.881880,0.142057,-6.089759,-0.046175,-0.062433,-0.057053,
50.000000,83.118908,1.624642,17.410694,-1.481267,0.053439,16.497812,-1.547974,81.193258,-16.953314,4.274016,56.931072,0.250000,58.151591,1.621582,17.328943,-1.497456,48.000000,28.000000,0.542248,0.977853,0.000000,0.007870,-0.003090,1.551377,-0.248016,0.098893,0.057635,-0.016358,-0.003061,-0.081751,3.816540,-1.547524,-0.130046,-0.027974,0.000573,-0.001082,-0.010578,-0.010557,-0.036613,0.281194,1.383686,0.480610,0.734270,0.301890,0.060117,14.420035,1.890452,0.193938,3.881880,0.142057,-6.089759,-0.046175,-0.062433,-0.057053,
50.500000,83.870733,1.622608,17.416617,-1.508987,0.057778,16.471678,-1.616625,81.183402,-17.819142,3.842991,57.990986,0.250000,58.790995,1.746149,17.498255,-1.498676,49.000000,29.000000,0.858064,4.606293,0.000000,0.007870,0.027770,1.630962,-0.083017,-0.055272,0.159482,0.010183,0.123541,0.081638,2.584478,-0.655446,-0.017250,-0.029799,0.001149,-0.001121,-0.011463,-0.010921,-0.036601,0.274596,1.374898,0.485161,0.705601,0.287886,0.056044,14.409092,1.806156,0.171378,-7.379766,5.346189,-0.210246,-0.081532,-0.149508,-0.386566,
51.000000,84.626038,1.628441,17.412670,-1.509727,0.056192,16.463112,-1.626795,81.191005,-16.983783,4.423544,57.990986,0.250000,59.541211,1.752536,17.506769,-1.498258,49.000000,29.000000,0.858064,4.606293,0.000000,0.007870,0.031695,1.632265,-0.098894,-0.066266,0.166711,0.011326,0.124095,0.094099,2.554210,-0.573625,-0.011537,-0.029799,0.001149,-0.001121,-0.011463,-0.010921,-0.036601,0.277962,1.375683,0.489723,0.716756,0.302621,0.059783,14.744576,1.917475,0.193499,-7.379766,5.346189,-0.210246,-0.081532,-0.149508,-0.386566,
51.500000,85.391879,1.628044,17.419346,-1.536873,0.054923,16.499005,-1.798454,81.150445,-16.004767,4.350007,59.391489,0.250000,60.183339,1.574458,17.520126,-1.498520,50.000000,30.000000,0.797763,2.957938,0.000000,0.007870,-0.009873,1.831244,-0.324618,-0.083439,0.059617,0.038178,-0.053587,0.100780,2.381294,-0.842747,0.112581,-0.032070,0.001759,-0.001158,-0.011379,-0.010022,-0.036909,0.271854,1.366258,0.494267,0.692037,0.289017,0.055674,14.783485,1.840449,0.171046,-1.681589,1.623193,-7.797355,0.275546,-1.244846,-0.354987,
52.000000,86.161366,1.648443,17.419130,-1.538465,0.055274,16.501091,-1.826156,81.153174,-17.037906,4.697526,59.391489,0.250000,60.933561,1.589266,17.531941,-1.498261,50.000000,30.000000,0.797763,2.957938,0.000000,0.007870,-0.006530,1.833509,-0.340334,-0.094874,0.060809,0.040034,-0.059177,0.112811,2.336830,-0.812364,0.132486,-0.032070,0.001759,-0.001158,-0.011379,-0.010022,-0.036909,0.275269,1.367030,0.498824,0.702558,0.303715,0.059283,15.111291,1.952447,0.192977,-1.681589,1.623193,-7.797355,0.275546,-1.244846,-0.354987,
52.500000,86.920354,1.674222,17.407039,-1.510053,0.053900,16.447071,-1.711513,81.197931,-17.779104,3.373753,61.370522,0.250000,61.802131,1.570516,17.600712,-1.496890,51.000000,31.000000,0.899521,1.889311,0.000000,0.007870,0.055083,1.696941,-0.372689,-0.179179,0.039040,0.013028,-0.103706,0.193673,1.578605,-0.935577,0.023819,-0.029416,0.001110,-0.001121,-0.011615,-0.009853,-0.036976,0.268766,1.357531,0.503344,0.679657,0.289351,0.055318,15.176936,1.871572,0.170643,-4.600160,-0.592162,12.329338,0.155878,-0.113683,-0.041112,
53.000000,87.676667,1.684697,17.402430,-1.512183,0.056803,16.435507,-1.695076,81.213789,-16.766211,3.837973,61.370522,0.250000,62.551921,1.574214,17.610707,-1.497789,51.000000,31.000000,0.899521,1.889311,0.000000,0.007870,0.059124,1.698425,-0.388643,-0.193431,0.039254,0.014221,-0.110483,0.208277,1.485568,-0.915716,0.031001,-0.029416,0.001110,-0.001121,-0.011615,-0.009853,-0.036976,0.272112,1.358316,0.507892,0.689604,0.303991,0.058971,15.497721,1.983678,0.192408,-4.600160,-0.592162,12.329338,0.155878,-0.113683,-0.041112,
53.500000,88.427138,1.697309,17.390825,-1.496160,0.056298,16.401287,-1.575480,81.260095,-16.888052,4.341661,62.841078,0.250000,63.366360,1.692919,17.626812,-1.497559,52.000000,32.000000,0.235136,2.752223,0.000000,0.007870,0.098126,1.559558,-0.288480,-0.211671,0.118071,-0.001521,-0.004390,0.235988,1.483391,-0.704492,-0.032138,-0.027793,0.000733,-0.001099,-0.011760,-0.010467,-0.036751,0.265852,1.348973,0.512407,0.669006,0.289504,0.055116,15.592878,1.903296,0.170265,1.544537,-1.830767,-5.536741,-0.333126,1.016065,-0.705126,
54.000000,89.176167,1.694457,17.384405,-1.497501,0.056412,16.392302,-1.557694,81.276041,-17.620875,4.792893,62.841078,0.250000,64.116196,1.687180,17.636846,-1.497875,52.000000,32.000000,0.235136,2.752223,0.000000,0.007870,0.102189,1.560327,-0.304419,-0.227250,0.122376,-0.000607,-0.007277,0.252441,1.373775,-0.644097,-0.032255,-0.027793,0.000733,-0.001099,-0.011760,-0.010467,-0.036751,0.269219,1.349753,0.516949,0.678452,0.304083,0.058776,15.907562,2.015274,0.191916,1.544537,-1.830767,-5.536741,-0.333126,1.016065,-0.705126,
54.500000,89.923680,1.690405,17.377695,-1.493049,0.058994,16.402929,-1.543226,81.291140,-16.696739,4.161728,64.307837,0.250000,64.887361,1.639998,17.622314,-1.497887,53.000000,33.000000,0.031836,1.817480,0.000000,0.007870,0.088745,1.545084,-0.318764,-0.225251,0.082751,-0.004969,-0.050408,0.244619,1.071367,-0.957383,-0.055155,-0.027278,0.000628,-0.001093,-0.011442,-0.010301,-0.036817,0.263399,1.340397,0.521465,0.658992,0.289860,0.054973,16.015925,1.940092,0.169953,-3.189850,-2.173630,-6.525287,0.746367,-0.023702,-0.004071,
55.000000,90.671013,1.684899,17.373982,-1.493491,0.054955,16.402159,-1.542655,81.301634,-17.111403,4.336301,64.307837,0.250000,65.637307,1.630167,17.633780,-1.497636,53.000000,33.000000,0.031836,1.817480,0.000000,0.007870,0.092482,1.546400,-0.334694,-0.239775,0.085562,-0.004291,-0.054732,0.259798,0.955224,-0.915011,-0.057047,-0.027278,0.000628,-0.001093,-0.011442,-0.010301,-0.036817,0.266815,1.341167,0.526003,0.667986,0.304385,0.058598,16.324843,2.051981,0.191510,-3.189850,-2.173630,-6.525287,0.746367,-0.023702,-0.004071,
55.500000,91.155188,1.577280,16.201457,-0.406067,0.041376,-11.608669,12.839709,82.822452,-16.009116,3.559996,65.654119,0.250000,66.089573,1.680583,16.532565,-0.460791,54.000000,34.000000,0.126239,0.930103,0.000000,0.007870,0.093080,1.571978,-0.219257,-0.271381,0.185082,-0.007245,0.103304,0.331108,0.626060,-0.437382,-0.015172,-0.028100,0.000812,-0.001105,-0.011423,-0.010676,-0.036707,0.263470,1.333200,0.533647,0.647001,0.287562,0.054274,16.443789,1.976294,0.169637,-2.301833,1.648239,6.336883,0.388593,0.287203,-0.085336,
56.000000,90.973835,0.384753,13.996343,0.620148,0.082695,-16.524420,14.785092,82.328159,-13.804165,2.251469,65.654119,0.250000,65.927231,0.519871,14.362231,0.611457,54.000000,34.000000,0.126239,0.930103,0.000000,0.007870,0.115110,1.551651,-0.230285,-0.289482,0.204367,-0.029452,0.135118,0.365888,0.486557,-0.335972,-0.024193,-0.028100,0.000812,-0.001105,-0.011423,-0.010676,-0.036707,0.271176,1.333598,0.539143,0.653012,0.300108,0.057455,16.745190,2.086689,0.190291,-2.301833,1.648239,6.336883,0.388593,0.287203,-0.085336,
56.500000,90.776857,-1.022117,11.546738,0.199792,0.062054,-16.848133,14.993560,82.274124,-11.587410,0.539858,66.032262,0.250000,65.803109,-0.930320,11.888384,0.157228,55.000000,35.000000,0.229311,0.438135,0.000000,0.007870,0.112411,1.490222,-0.202765,-0.287388,0.150637,-0.047221,0.091797,0.341646,0.415336,-0.556010,-0.100241,-0.027040,0.000558,-0.001089,-0.011173,-0.010571,-0.036768,0.265939,1.327828,0.542783,0.614138,0.286790,0.056462,16.503871,1.989951,0.168356,-0.424867,-2.014092,2.071352,0.335737,0.027310,0.167881,
