Time ,gndAlt,velLL X  ,velLL Y  ,velLL Z  ,r,Roll ,Pitch,Yaw  ,gps_velN,gps_velE,Baro Altitude,Baro Altitude RMS,Nav Alt,Nav velLL X,Nav velLL Y,Nav velLL Z,Baro Update Count,GPS Update Count,Baro Chi2,GPS Chi2,Ground Align Chi2,Roll Error,Pitch Error,Yaw Error,Vel N Error,Vel E Error,Vel D Error,velLL X Error,velLL Y Error,N Error (m),E Error (m),Alt Error (m),Acc Bias X Error,Acc Bias Y Error,Acc Bias Z Error,Gyro Bias X Error,Gyro Bias Y Error,Gyro Bias Z Error,Roll Stdev,Pitch Stdev,Yaw Stdev,VN Stdev,VE Stdev,VD Stdev,N Stdev,E Stdev,Alt Stdev,GPSResidual[GPS_N],GPSResidual[GPS_E],GPSResidual[GPS_ALT],GPSResidual[GPS_VN],GPSResidual[GPS_VE],GPSResidual[GPS_VD],
0.500000,0.101886,-0.001489,0.009473,0.002397,-0.010555,14.027753,2.250979,81.065854,-0.235545,-1.134805,0.000000,0.250000,0.000000,0.000000,0.000000,0.000000,0.000000,0.000000,0.000000,0.000000,0.000000,0.000000,0.000000,0.000000,0.000000,0.000000,0.000000,0.000000,0.000000,0.000000,0.000000,0.000000,0.000000,0.000000,0.000000,0.000000,0.000000,0.000000,0.000000,0.000000,0.000000,0.000000,0.000000,0.000000,0.000000,0.000000,0.000000,0.000000,0.000000,0.000000,0.000000,0.000000,0.000000,
1.000000,0.101886,-0.001422,0.009057,0.002292,0.047650,14.028408,2.248111,81.077484,0.528495,0.126756,0.000000,0.250000,0.000000,0.000000,0.000000,0.000000,0.000000,0.000000,0.000000,0.000000,0.000000,0.000000,0.000000,0.000000,0.000000,0.000000,0.000000,0.000000,0.000000,0.000000,0.000000,0.000000,0.000000,0.000000,0.000000,0.000000,0.000000,0.000000,0.000000,0.000000,0.000000,0.000000,0.000000,0.000000,0.000000,0.000000,0.000000,0.000000,0.000000,0.000000,0.000000,0.000000,0.000000,
1.500000,0.101886,-0.001430,0.009121,0.002308,0.053929,14.029014,2.244386,81.092417,-0.041776,0.076523,0.000000,0.250000,0.000000,0.000000,0.000000,0.000000,0.000000,0.000000,0.000000,0.000000,0.000000,0.000000,0.000000,0.000000,0.000000,0.000000,0.000000,0.001430,-0.009121,0.000000,0.000000,-0.000000,0.000000,0.000000,0.000000,0.000000,0.000000,0.000000,8.554585,2.726392,0.000000,0.000000,0.000000,0.000000,0.000000,0.000000,0.000000,0.000000,0.000000,0.000000,0.000000,0.000000,0.000000,
2.000000,0.101929,-0.001403,0.008965,0.002268,0.006621,14.029256,2.241677,81.103140,-0.385561,-0.189813,0.000000,0.250000,0.000021,0.002053,-0.008820,0.001263,0.000000,0.000000,0.000000,0.000000,0.000000,-3.615658,-0.539215,-81.106686,0.011433,-0.008820,-0.001081,0.003457,-0.017785,0.019149,-0.001738,-0.002764,0.008556,0.061474,-0.013431,-0.008397,-0.009618,-0.039084,8.554631,2.726544,0.028770,0.212318,0.651904,0.121421,0.032977,0.101088,0.018858,0.000000,0.000000,0.000000,0.000000,0.000000,0.000000,
2.500000,0.101928,-0.001491,0.009534,0.002412,0.000375,14.029648,2.239196,81.113080,-0.123620,0.209260,0.105439,0.250000,0.000023,-0.002281,0.016253,0.002729,1.000000,0.000000,0.177166,0.000000,0.020650,-3.469330,-0.519431,-81.119071,0.006864,0.016253,0.000443,-0.000791,0.006719,0.023316,0.002399,-0.003947,0.008842,0.061469,-0.013914,-0.008397,-0.009589,-0.038926,4.920218,1.957710,0.035713,0.091594,0.092726,0.082021,0.034808,0.035222,0.032503,0.000000,0.000000,0.000000,0.000000,0.000000,0.000000,
3.000000,0.101928,-0.001454,0.009307,0.002355,-0.014378,14.030025,2.236595,81.123483,-0.072152,0.000540,0.105439,0.250000,-0.001239,-0.004007,0.029309,0.004832,1.000000,0.000000,0.177166,0.000000,0.020650,-3.467993,-0.518535,-81.135774,0.005285,0.029310,0.002510,-0.002554,0.020002,0.026992,0.011611,-0.003866,0.008842,0.061469,-0.013914,-0.008397,-0.009589,-0.038926,4.920358,1.958050,0.051243,0.151220,0.153185,0.133227,0.094176,0.095374,0.085680,0.000000,0.000000,0.000000,0.000000,0.000000,0.000000,
3.500000,0.101928,-0.001472,0.009440,0.002389,0.014404,14.030451,2.233935,81.134142,0.040572,0.062379,-0.110687,0.250000,0.000073,0.000024,-0.001027,0.001782,2.000000,0.000000,0.199588,0.000000,0.109693,-3.544965,-0.526021,-81.138400,0.009063,-0.001027,-0.000477,0.001497,-0.010467,0.034240,-0.006612,-0.006359,0.008700,0.060677,-0.014000,-0.008383,-0.009498,-0.038425,4.799603,1.930796,0.036067,0.054283,0.054331,0.047502,0.042443,0.042471,0.040479,0.000000,0.000000,0.000000,0.000000,0.000000,0.000000,
4.000000,0.101928,-0.001493,0.009583,0.002425,0.040425,14.030891,2.231341,81.144548,-0.304625,-0.207287,-0.110687,0.250000,-0.000786,-0.000796,0.003548,0.003091,2.000000,0.000000,0.199588,0.000000,0.109693,-3.543948,-0.524982,-81.154918,0.008834,0.003548,0.000684,0.000697,-0.006035,0.039070,-0.006739,-0.006681,0.008700,0.060677,-0.014000,-0.008383,-0.009498,-0.038425,4.799754,1.931162,0.051473,0.075886,0.075966,0.063153,0.070877,0.070940,0.066462,0.000000,0.000000,0.000000,0.000000,0.000000,0.000000,
4.500000,0.101928,-0.001456,0.009359,0.002368,0.018000,14.031258,2.228817,81.154642,0.388606,0.316448,-0.170338,0.250000,-0.004101,-0.000306,0.000271,0.003671,3.000000,0.000000,0.459842,0.000000,0.019279,-3.553652,-0.524582,-81.165622,0.009100,0.000271,0.001320,0.001150,-0.009089,0.043852,-0.006382,-0.004546,0.008702,0.060837,-0.014007,-0.008379,-0.009458,-0.038205,4.788463,1.929145,0.042354,0.047222,0.047235,0.039015,0.051700,0.051707,0.048726,0.000000,0.000000,0.000000,0.000000,0.000000,0.000000,
5.000000,0.101928,-0.001478,0.009511,0.002406,0.039331,14.031752,2.226171,81.165294,-0.009139,-0.009471,-0.170338,0.250000,-0.006145,-0.001275,0.005366,0.005159,3.000000,0.000000,0.459842,0.000000,0.019279,-3.552584,-0.523471,-81.181929,0.008273,0.005367,0.002773,0.000203,-0.004145,0.048327,-0.004678,-0.003684,0.008702,0.060837,-0.014007,-0.008379,-0.009458,-0.038205,4.788621,1.929531,0.056192,0.063433,0.063454,0.049087,0.072496,0.072513,0.067754,0.000000,0.000000,0.000000,0.000000,0.000000,0.000000,
5.500000,0.101928,-0.001443,0.009293,0.002351,0.012105,14.032114,2.223682,81.175244,-0.014957,-0.002500,0.096163,0.250000,0.000927,-0.001002,0.003314,0.000553,4.000000,0.000000,0.149334,0.000000,0.059017,-3.541860,-0.522688,-81.186652,0.008688,0.003314,-0.001869,0.000441,-0.005979,0.053284,-0.005074,-0.011937,0.008682,0.060583,-0.014106,-0.008353,-0.009391,-0.037810,4.785707,1.928930,0.041732,0.044599,0.044604,0.035150,0.059048,0.059051,0.055090,0.000000,0.000000,0.000000,0.000000,0.000000,0.000000,
6.000000,0.101929,-0.001463,0.009436,0.002387,0.028539,14.032491,2.221072,81.185677,-0.198995,0.038175,0.096163,0.250000,0.000600,-0.001628,0.005196,0.000744,4.000000,0.000000,0.149334,0.000000,0.059017,-3.540407,-0.521652,-81.202917,0.007409,0.005197,-0.001515,-0.000165,-0.004240,0.057338,-0.001730,-0.012790,0.008682,0.060583,-0.014106,-0.008353,-0.009391,-0.037810,4.785871,1.929334,0.055682,0.058978,0.058985,0.043241,0.075921,0.075928,0.070435,0.000000,0.000000,0.000000,0.000000,0.000000,0.000000,
6.500000,0.101928,-0.001485,0.009585,0.002425,0.042420,14.032886,2.218500,81.195970,-0.068111,0.340014,-0.126436,0.250000,-0.005693,-0.002228,0.010466,0.003950,5.000000,0.000000,0.248986,0.000000,0.011596,-3.551011,-0.521798,-81.215767,0.007405,0.010467,0.001543,-0.000743,0.000881,0.062415,-0.001684,-0.007679,0.008672,0.060665,-0.014088,-0.008299,-0.009388,-0.037710,4.784283,1.929013,0.050050,0.043432,0.043433,0.033099,0.064522,0.064524,0.059729,0.000000,0.000000,0.000000,0.000000,0.000000,0.000000,
7.000000,0.101928,-0.001449,0.009369,0.002370,0.007544,14.033208,2.215948,81.206140,-0.264484,-0.163602,-0.126436,0.250000,-0.007648,-0.003269,0.014569,0.004761,5.000000,0.000000,0.248986,0.000000,0.011596,-3.549835,-0.520843,-81.232047,0.006151,0.014570,0.002407,-0.001820,0.005200,0.065943,0.004600,-0.006904,0.008672,0.060665,-0.014088,-0.008299,-0.009388,-0.037710,4.784453,1.929434,0.062343,0.056992,0.056993,0.040213,0.079100,0.079103,0.072763,0.000000,0.000000,0.000000,0.000000,0.000000,0.000000,
7.500000,0.101928,-0.001473,0.009530,0.002411,0.016517,14.033686,2.213300,81.216790,-0.294065,0.113555,0.073170,0.250000,0.000244,-0.001605,0.005561,0.001193,6.000000,0.000000,0.089403,0.000000,0.090018,-3.562943,-0.520799,-81.238625,0.007536,0.005561,-0.001092,-0.000133,-0.003970,0.072421,-0.004001,-0.015978,0.008631,0.060659,-0.014161,-0.008103,-0.009374,-0.037408,4.784085,1.929239,0.047236,0.042863,0.042863,0.031914,0.068420,0.068421,0.062928,0.000000,0.000000,0.000000,0.000000,0.000000,0.000000,
8.000000,0.101929,-0.001438,0.009319,0.002357,-0.023450,14.034057,2.210659,81.227338,-0.019053,0.063739,0.073170,0.250000,0.000167,-0.002488,0.008511,0.001625,6.000000,0.000000,0.089403,0.000000,0.090018,-3.561751,-0.519735,-81.254488,0.006812,0.008512,-0.000700,-0.001050,-0.000809,0.076650,-0.002682,-0.017082,0.008631,0.060659,-0.014161,-0.008103,-0.009374,-0.037408,4.784260,1.929675,0.060006,0.056018,0.056016,0.038459,0.081609,0.081611,0.074447,0.000000,0.000000,0.000000,0.000000,0.000000,0.000000,
8.500000,0.101928,-0.001396,0.009054,0.002290,0.020746,14.034470,2.208149,81.237397,0.188687,0.345084,-0.117868,0.250000,-0.006908,-0.001480,0.004189,0.002870,7.000000,0.000000,0.210385,0.000000,0.027842,-3.575354,-0.520028,-81.269817,0.007979,0.004190,0.000506,-0.000084,-0.004865,0.082447,-0.007042,-0.011187,0.008614,0.060773,-0.014168,-0.007955,-0.009411,-0.037386,4.783787,1.929448,0.056678,0.042573,0.042571,0.031166,0.071104,0.071105,0.065015,0.000000,0.000000,0.000000,0.000000,0.000000,0.000000,
9.000000,0.101929,-0.001421,0.009230,0.002335,0.022148,14.034941,2.205588,81.247702,0.086824,-0.150995,-0.117868,0.250000,-0.007692,-0.002057,0.005002,0.003097,7.000000,0.000000,0.210385,0.000000,0.027842,-3.574226,-0.518978,-81.285843,0.007578,0.005004,0.000689,-0.000636,-0.004228,0.086875,-0.007336,-0.011584,0.008614,0.060773,-0.014168,-0.007955,-0.009411,-0.037386,4.783967,1.929896,0.067894,0.055519,0.055514,0.037335,0.083446,0.083447,0.075526,0.000000,0.000000,0.000000,0.000000,0.000000,0.000000,
9.500000,0.101929,-0.001445,0.009399,0.002378,0.021160,14.035354,2.203061,81.257836,0.004191,0.047146,-0.124494,0.250000,-0.013593,-0.000926,-0.000106,0.002714,8.000000,0.000000,0.212547,0.000000,0.026331,-3.588392,-0.519587,-81.295743,0.008501,-0.000105,0.000357,0.000519,-0.009505,0.092505,-0.010002,-0.006863,0.008608,0.060952,-0.014205,-0.007844,-0.009414,-0.037196,4.783400,1.929637,0.053594,0.042425,0.042422,0.030655,0.072912,0.072913,0.066310,0.000000,0.000000,0.000000,0.000000,0.000000,0.000000,
10.000000,0.101929,-0.001468,0.009560,0.002418,0.017707,14.035618,2.200383,81.268461,-0.426508,0.207511,-0.124494,0.250000,-0.015111,-0.001753,0.002074,0.003196,8.000000,0.000000,0.212547,0.000000,0.026331,-3.587678,-0.518607,-81.311642,0.007415,0.002075,0.000904,-0.000285,-0.007486,0.096528,-0.008090,-0.006526,0.008608,0.060952,-0.014205,-0.007844,-0.009414,-0.037196,4.783584,1.930095,0.065235,0.055264,0.055258,0.036556,0.084738,0.084738,0.076141,0.000000,0.000000,0.000000,0.000000,0.000000,0.000000,
10.500000,0.806819,-0.100496,0.798180,-1.415850,0.046673,-4.481153,-0.575323,80.910899,-0.699646,-0.023282,0.052784,0.250000,0.625782,-0.088340,0.715510,-1.510446,9.000000,0.000000,0.028513,0.000000,0.009582,-3.608121,-0.538533,-81.151374,0.724775,0.688862,-0.092763,0.012156,-0.082669,0.389524,0.268749,-0.038845,0.008604,0.060966,-0.014236,-0.007797,-0.009433,-0.037119,4.782120,1.929531,0.239737,0.067172,0.119567,0.123101,0.077168,0.089759,0.073672,0.000000,0.000000,0.000000,0.000000,0.000000,0.000000,
11.000000,1.565001,-0.048386,0.341848,-1.333180,0.045689,-3.895425,-0.416488,80.907642,-0.265118,0.403905,0.052784,0.250000,1.379487,-0.033929,0.244022,-1.502608,9.000000,0.000000,0.028513,0.000000,0.009582,-3.569226,-0.540401,-81.175789,0.318610,0.237620,-0.168295,0.014457,-0.097827,0.647766,0.496904,-0.104362,0.008604,0.060966,-0.014236,-0.007797,-0.009433,-0.037119,4.782122,1.929971,0.232094,0.076444,0.100108,0.228187,0.098015,0.131334,0.138998,0.000000,0.000000,0.000000,0.000000,0.000000,0.000000,
11.500000,2.224615,-0.033829,0.217851,-1.196263,0.044820,0.247246,0.006999,80.904930,-0.238579,-0.043146,1.618182,0.250000,2.161866,-0.014629,0.095007,-1.499075,10.000000,0.000000,0.122177,0.000000,0.009582,-4.350142,-0.564425,-81.188047,0.206062,0.094094,-0.301310,0.019200,-0.122844,0.765855,0.545573,-0.257466,0.008824,0.075191,-0.016887,-0.007790,-0.009427,-0.037130,4.239712,1.929810,0.183176,0.085425,0.083362,0.297556,0.127822,0.158123,0.230657,0.000000,0.000000,0.000000,0.000000,0.000000,0.000000,
12.000000,2.829473,-0.037565,0.254595,-1.100504,0.045509,0.327060,0.055761,80.915855,-0.285144,-0.636232,1.618182,0.250000,2.912282,-0.015554,0.128990,-1.498137,10.000000,0.000000,0.122177,0.000000,0.009582,-4.353658,-0.568546,-81.207935,0.241936,0.125968,-0.396078,0.022011,-0.125604,0.878080,0.599942,-0.432044,0.008824,0.075191,-0.016887,-0.007790,-0.009427,-0.037130,4.239902,1.930287,0.183984,0.096030,0.085361,0.396032,0.164853,0.189968,0.398785,0.000000,0.000000,0.000000,0.000000,0.000000,0.000000,
12.500000,3.530942,-0.032906,0.145505,-1.412319,0.051033,-2.342289,-0.129725,80.930517,-0.243091,-0.063233,2.567223,0.250000,3.293425,-0.018727,0.018532,-1.507181,11.000000,0.000000,0.916749,0.000000,0.009582,-0.941191,-0.495356,-81.350383,0.133861,0.027863,-0.094446,0.014179,-0.126973,0.970682,0.761282,-0.143011,0.007846,0.012516,-0.005268,-0.007807,-0.009457,-0.037082,2.307579,1.929235,0.135811,0.112598,0.096803,0.248200,0.210212,0.189288,0.307631,0.000000,0.000000,0.000000,0.000000,0.000000,0.000000,
13.000000,4.239481,-0.025156,0.025848,-1.382445,0.047838,-0.354079,-0.032793,80.938803,-0.026073,-0.022715,2.567223,0.250000,4.046292,-0.009108,-0.124732,-1.500700,11.000000,0.000000,0.916749,0.000000,0.009582,-0.939028,-0.499348,-81.367752,0.020110,-0.103929,-0.118086,0.016048,-0.150580,1.002202,0.735304,-0.196353,0.007846,0.012516,-0.005268,-0.007807,-0.009457,-0.037082,2.307979,1.929715,0.138955,0.123445,0.108440,0.288603,0.262860,0.230994,0.438626,0.000000,0.000000,0.000000,0.000000,0.000000,0.000000,
13.500000,5.019299,-0.019880,-0.011902,-1.608123,0.049458,-0.524237,-0.074452,80.949587,-0.270833,0.257550,3.724994,0.250000,4.438236,-0.009077,-0.184203,-1.505925,12.000000,0.000000,0.749002,0.000000,0.009582,0.723284,-0.462089,-81.450267,-0.018453,-0.162623,0.102159,0.010803,-0.172302,0.990377,0.732566,0.187697,0.007312,-0.018092,0.000380,-0.007809,-0.009473,-0.037058,1.278828,1.929671,0.123206,0.138492,0.121983,0.162329,0.322436,0.270012,0.280233,0.000000,0.000000,0.000000,0.000000,0.000000,0.000000,
14.000000,5.821132,-0.016184,-0.015010,-1.605944,0.050206,0.406006,-0.004878,80.959269,0.103601,0.186464,3.724994,0.250000,5.190618,-0.003839,-0.215588,-1.500438,12.000000,0.000000,0.749002,0.000000,0.009582,0.722801,-0.465447,-81.465005,-0.018576,-0.197096,0.105307,0.012345,-0.200578,0.978070,0.639227,0.239337,0.007312,-0.018092,0.000380,-0.007809,-0.009473,-0.037058,1.279620,1.930190,0.129079,0.150127,0.135283,0.180306,0.388719,0.327051,0.362701,0.000000,0.000000,0.000000,0.000000,0.000000,0.000000,
14.500000,6.591928,-0.019474,0.052992,-1.510803,0.049169,1.005809,0.071113,80.971164,-0.250705,0.133635,5.596121,0.250000,6.133047,-0.002050,-0.170426,-1.498071,13.000000,0.000000,0.355119,0.000000,0.009582,0.171978,-0.490516,-81.459177,0.050366,-0.159345,0.012625,0.017424,-0.223418,0.992861,0.527854,0.066508,0.007639,-0.007987,-0.001477,-0.007813,-0.009468,-0.037066,0.889460,1.930380,0.130175,0.160833,0.148676,0.117408,0.459845,0.389614,0.251194,0.000000,0.000000,0.000000,0.000000,0.000000,0.000000,
15.000000,7.358216,-0.024027,0.122849,-1.505056,0.051902,0.617089,0.039581,80.980711,-0.199443,0.130498,5.596121,0.250000,6.883082,-0.004498,-0.123045,-1.497916,13.000000,0.000000,0.355119,0.000000,0.009582,0.175115,-0.492652,-81.474999,0.118594,-0.118436,0.006972,0.019528,-0.245894,1.036699,0.459557,0.071158,0.007639,-0.007987,-0.001477,-0.007813,-0.009468,-0.037066,0.890696,1.930915,0.136708,0.173716,0.162786,0.129502,0.537029,0.460864,0.309271,0.000000,0.000000,0.000000,0.000000,0.000000,0.000000,
15.500000,8.132086,-0.025863,0.163381,-1.509312,0.048047,0.403617,0.018758,80.990872,-0.215461,-0.060760,6.981058,0.250000,7.609925,-0.004434,-0.105956,-1.498169,14.000000,0.000000,0.008275,0.000000,0.009582,0.226006,-0.490827,-81.492868,0.159463,-0.105881,0.010996,0.021429,-0.269337,1.105714,0.405070,0.099788,0.007573,-0.008851,-0.001319,-0.007813,-0.009468,-0.037065,0.727946,1.930948,0.141628,0.187165,0.177064,0.094484,0.620329,0.539222,0.230407,0.000000,0.000000,0.000000,0.000000,0.000000,0.000000,
16.000000,8.908950,-0.027313,0.196675,-1.504388,0.046638,0.413382,0.027105,81.001292,-0.372086,-0.075382,6.981058,0.250000,8.360026,-0.003342,-0.095791,-1.498103,14.000000,0.000000,0.008275,0.000000,0.009582,0.227598,-0.493455,-81.508776,0.193741,-0.099481,0.006300,0.023971,-0.292466,1.194226,0.353455,0.103856,0.007573,-0.008851,-0.001319,-0.007813,-0.009468,-0.037065,0.729508,1.931511,0.147791,0.201050,0.191910,0.103398,0.710396,0.625047,0.275633,0.000000,0.000000,0.000000,0.000000,0.000000,0.000000,
16.500000,9.679939,-0.030635,0.232900,-1.479106,0.052181,0.454842,0.054180,81.012104,-0.275833,-0.596792,8.592526,0.250000,9.165463,-0.002839,-0.080276,-1.497387,15.000000,0.000000,0.066436,0.000000,0.009582,0.144049,-0.511105,-81.521429,0.230609,-0.086343,-0.018385,0.027795,-0.313176,1.305376,0.306672,0.042599,0.007821,-0.007294,-0.001606,-0.007814,-0.009468,-0.037066,0.653586,1.931243,0.153275,0.215132,0.206900,0.081477,0.806852,0.718291,0.215505,0.000000,0.000000,0.000000,0.000000,0.000000,0.000000,
17.000000,10.450368,-0.034367,0.268053,-1.473566,0.047276,0.404626,0.042772,81.022134,-0.239867,-0.137694,8.592526,0.250000,9.915305,-0.003582,-0.067496,-1.498044,15.000000,0.000000,0.066436,0.000000,0.009582,0.146270,-0.513438,-81.537352,0.265361,-0.075309,-0.024472,0.030785,-0.335549,1.429744,0.266262,0.031623,0.007821,-0.007294,-0.001606,-0.007814,-0.009468,-0.037066,0.655409,1.931827,0.159267,0.230014,0.222528,0.088780,0.910534,0.819134,0.253225,0.000000,0.000000,0.000000,0.000000,0.000000,0.000000,
17.500000,11.220478,-0.037586,0.299453,-1.462974,0.047149,0.379360,0.044344,81.032461,-0.472138,0.073654,10.072990,0.250000,10.677177,-0.003340,-0.057779,-1.497397,16.000000,0.000000,0.003973,0.000000,0.009582,0.134076,-0.520533,-81.552768,0.297247,-0.067269,-0.034539,0.034246,-0.357231,1.572204,0.231022,0.004196,0.007898,-0.007030,-0.001655,-0.007814,-0.009468,-0.037066,0.616775,1.931137,0.164905,0.245271,0.238391,0.073728,1.021176,0.927701,0.204670,0.000000,0.000000,0.000000,0.000000,0.000000,0.000000,
18.000000,11.990850,-0.040865,0.328991,-1.457170,0.047446,0.363246,0.043656,81.042529,0.113221,0.218456,10.072990,0.250000,11.427117,-0.003144,-0.050219,-1.497994,16.000000,0.000000,0.003973,0.000000,0.009582,0.135951,-0.523298,-81.568672,0.327226,-0.061023,-0.040872,0.037721,-0.379211,1.728608,0.198795,-0.014902,0.007898,-0.007030,-0.001655,-0.007814,-0.009468,-0.037066,0.618785,1.931744,0.170700,0.261102,0.254829,0.080047,1.139618,1.044265,0.237745,0.000000,0.000000,0.000000,0.000000,0.000000,0.000000,
18.500000,12.759602,-0.044680,0.357464,-1.444942,0.052437,0.356157,0.056112,81.052889,-0.139507,0.020168,11.599495,0.250000,12.195515,-0.002820,-0.042726,-1.497599,17.000000,0.000000,0.011478,0.000000,0.009582,0.119553,-0.534876,-81.583788,0.356347,-0.054151,-0.052718,0.041859,-0.400190,1.902897,0.171310,-0.057659,0.008051,-0.006699,-0.001719,-0.007813,-0.009468,-0.037067,0.597839,1.930581,0.176280,0.277291,0.271536,0.068881,1.265439,1.168869,0.196717,0.000000,0.000000,0.000000,0.000000,0.000000,0.000000,
19.000000,13.527936,-0.048788,0.384792,-1.438456,0.050118,0.342975,0.052431,81.062990,-0.621457,0.248683,11.599495,0.250000,12.945442,-0.003038,-0.037029,-1.497851,17.000000,0.000000,0.011478,0.000000,0.009582,0.121334,-0.537634,-81.599672,0.383839,-0.048574,-0.059425,0.045749,-0.421821,2.088202,0.145477,-0.085946,0.008051,-0.006699,-0.001719,-0.007813,-0.009468,-0.037067,0.599992,1.931213,0.181930,0.294048,0.288800,0.074561,1.399602,1.301906,0.226797,0.000000,0.000000,0.000000,0.000000,0.000000,0.000000,
19.500000,14.295666,-0.052873,0.411031,-1.430198,0.047096,0.335653,0.056786,81.073398,-0.488133,-0.024503,13.093739,0.250000,13.701664,-0.002808,-0.032010,-1.498110,18.000000,0.000000,0.001531,0.000000,0.009582,0.118013,-0.543942,-81.615474,0.410685,-0.043530,-0.067911,0.050065,-0.443041,2.288459,0.123004,-0.124496,0.008114,-0.006606,-0.001737,-0.007813,-0.009468,-0.037067,0.588242,1.929590,0.187438,0.311208,0.306377,0.065701,1.541580,1.443341,0.190854,0.000000,0.000000,0.000000,0.000000,0.000000,0.000000,
20.000000,15.063100,-0.057103,0.436473,-1.423083,0.047320,0.329152,0.057023,81.083779,-0.511855,0.068805,13.093739,0.250000,14.451645,-0.002671,-0.027929,-1.497667,18.000000,0.000000,0.001531,0.000000,0.009582,0.119771,-0.546681,-81.631370,0.436662,-0.039143,-0.074671,0.054432,-0.464402,2.500542,0.102145,-0.160383,0.008114,-0.006606,-0.001737,-0.007813,-0.009468,-0.037067,0.590504,1.930246,0.192959,0.328873,0.324476,0.070925,1.692442,1.593652,0.218932,0.000000,0.000000,0.000000,0.000000,0.000000,0.000000,
20.500000,15.869520,-0.083163,1.136391,-1.444750,0.053042,14.438977,0.431712,81.124939,-1.199772,-0.290765,14.280413,0.250000,15.062564,-0.027863,0.612978,-1.492051,19.000000,0.000000,0.830322,0.000000,0.009582,0.225081,-0.455722,-81.649577,1.091932,0.522766,-0.047480,0.055300,-0.523413,2.786151,0.148106,-0.048564,0.006508,-0.008332,-0.001385,-0.007823,-0.009465,-0.037066,0.583226,1.928441,0.198003,0.347211,0.343010,0.063389,1.851708,1.752786,0.186485,0.000000,0.000000,0.000000,0.000000,0.000000,0.000000,
21.000000,16.814975,-0.119926,2.491659,-1.435450,0.052978,16.151925,0.457411,81.143124,-2.738302,0.349552,14.280413,0.250000,15.810038,-0.060525,1.944974,-1.493802,19.000000,0.000000,0.830322,0.000000,0.009582,0.212767,-0.454667,-81.665697,2.413486,1.683412,-0.058400,0.059401,-0.546685,3.657678,0.694993,-0.075329,0.006508,-0.008332,-0.001385,-0.007823,-0.009465,-0.037066,0.585426,1.929165,0.203305,0.365800,0.361953,0.068459,2.020401,1.921274,0.213074,0.000000,0.000000,0.000000,0.000000,0.000000,0.000000,
21.500000,17.947160,-0.153502,3.880591,-1.476368,0.054746,16.179210,0.345353,81.121517,-3.319418,-0.486774,15.537044,0.250000,16.381483,-0.096468,3.313109,-1.497674,20.000000,0.000000,1.508888,0.000000,0.009582,0.319913,-0.323168,0.773059,0.540656,-0.072409,-0.021362,0.057034,-0.567483,3.282892,-0.291383,0.087947,0.004281,-0.010232,-0.000983,-0.007920,-0.009458,-0.037065,0.582102,1.926818,0.208644,0.385313,0.381529,0.062731,2.198012,2.099221,0.183126,0.000000,0.000000,0.000000,0.000000,0.000000,0.000000,
22.000000,19.248589,-0.177738,5.204906,-1.467238,0.054284,16.174476,0.326926,81.126819,-4.719105,1.254636,15.537044,0.250000,17.131329,-0.117913,4.619584,-1.497527,20.000000,0.000000,1.508888,0.000000,0.009582,0.321617,-0.321107,0.757142,0.557553,-0.088626,-0.030327,0.059825,-0.585322,3.557623,-0.331495,0.074737,0.004281,-0.010232,-0.000983,-0.007920,-0.009458,-0.037065,0.584658,1.927482,0.213890,0.404875,0.401350,0.068181,2.385588,2.286821,0.208832,0.000000,0.000000,0.000000,0.000000,0.000000,0.000000,
22.500000,20.711572,-0.198675,6.463646,-1.473899,0.053767,16.043668,0.291783,81.127157,-6.069596,0.657063,17.216251,0.250000,17.861210,-0.188456,6.135154,-1.497840,21.000000,1.000000,0.025195,1.076255,0.009582,0.468232,-0.283000,-0.185148,0.307536,-0.017861,-0.023957,0.010219,-0.328492,2.230759,-0.353686,0.082548,0.004076,-0.010245,-0.000984,-0.010912,-0.008988,-0.037122,0.527754,1.772507,0.219032,0.199734,0.160458,0.060873,0.869747,0.673244,0.179681,-1.532402,-0.065743,-0.101658,-0.563329,0.151588,-0.221110,
23.000000,22.323231,-0.215008,7.637392,-1.467226,0.053580,16.024664,0.285998,81.136278,-7.156212,0.468964,17.216251,0.250000,18.611074,-0.205206,7.305696,-1.497259,21.000000,1.000000,0.025195,1.076255,0.009582,0.471652,-0.280892,-0.201085,0.312818,-0.013114,-0.030153,0.009802,-0.331696,2.386058,-0.361238,0.068762,0.004076,-0.010245,-0.000984,-0.010912,-0.008988,-0.037122,0.529708,1.772585,0.224193,0.215011,0.173946,0.065457,0.950658,0.733106,0.204280,-1.532402,-0.065743,-0.101658,-0.563329,0.151588,-0.221110,
23.500000,24.037079,-0.136778,7.402798,-1.469913,0.054311,-18.935905,-2.332040,80.622376,-7.236368,1.429333,18.571279,0.250000,19.289208,-0.120754,7.273100,-1.491470,22.000000,2.000000,0.280481,2.262709,0.009582,0.552267,-0.289805,0.772456,0.150014,-0.105186,-0.015639,0.016025,-0.129697,1.976220,-0.449182,0.134030,0.004293,-0.010825,-0.000879,-0.012782,-0.009073,-0.037105,0.533638,1.759548,0.232353,0.218545,0.152579,0.058841,0.884666,0.527988,0.177071,-0.720015,0.038791,-1.449242,-0.699938,-0.122104,-0.226151,
24.000000,25.545602,-0.049829,5.073168,-1.463344,0.057827,-25.128356,-1.033946,80.075634,-5.650763,0.523805,18.571279,0.250000,20.033509,-0.027394,4.962650,-1.488189,22.000000,2.000000,0.280481,2.262709,0.009582,0.602532,-0.293541,0.772577,0.144489,-0.069490,-0.024810,0.022435,-0.110518,2.049638,-0.492858,0.123552,0.004293,-0.010825,-0.000879,-0.012782,-0.009073,-0.037105,0.546363,1.756198,0.235534,0.234027,0.166389,0.061372,0.977031,0.580484,0.200405,-0.720015,0.038791,-1.449242,-0.699938,-0.122104,-0.226151,
24.500000,26.757982,-0.018370,2.631983,-1.478730,0.060953,-25.636751,-0.303101,79.739088,-2.546480,0.703754,20.052900,0.250000,20.718237,0.006782,2.591869,-1.495808,23.000000,3.000000,0.074499,5.527285,0.009582,0.681484,-0.290252,0.639420,0.080423,-0.018068,-0.017149,0.025151,-0.040114,1.862900,-0.408074,0.177120,0.004156,-0.011240,-0.000791,-0.013788,-0.009033,-0.037118,0.548453,1.745995,0.239670,0.249214,0.154990,0.056599,1.076322,0.474254,0.174114,-0.455477,0.234407,-11.188222,-0.257025,-0.039516,0.069909,
25.000000,27.707721,-0.011727,0.985513,-1.500962,0.052028,-7.973250,0.021290,79.634715,-1.068146,0.171588,20.052900,0.250000,21.473326,0.016525,0.910951,-1.517371,23.000000,3.000000,0.074499,5.527285,0.009582,0.730836,-0.298040,0.630176,0.089979,0.002062,-0.017344,0.028252,-0.074563,1.905212,-0.410921,0.168110,0.004156,-0.011240,-0.000791,-0.013788,-0.009033,-0.037118,0.552621,1.745389,0.244398,0.266023,0.169322,0.061189,1.187590,0.528678,0.196241,-0.455477,0.234407,-11.188222,-0.257025,-0.039516,0.069909,
25.500000,28.550883,-0.022374,0.777432,-1.471722,0.049131,0.781042,0.182005,79.635533,-0.837986,0.082842,21.760862,0.250000,22.281022,0.014686,0.756985,-1.505831,24.000000,4.000000,0.264715,2.644026,0.009582,0.726211,-0.363781,0.416412,0.024820,0.027274,-0.034242,0.037060,-0.020447,1.650044,-0.251468,0.102388,0.005153,-0.010979,-0.000876,-0.014721,-0.009147,-0.037121,0.547222,1.732434,0.249281,0.254334,0.158402,0.056888,1.214225,0.453628,0.172023,-0.686106,0.369743,-6.726062,-0.112257,0.004133,-0.002287,
26.000000,29.387290,-0.033665,0.872721,-1.463965,0.048193,1.003381,0.088959,79.643829,-0.489354,0.780139,21.760862,0.250000,23.033449,0.006356,0.860207,-1.500591,24.000000,4.000000,0.264715,2.644026,0.009582,0.721706,-0.364802,0.399236,0.016943,0.031367,-0.036660,0.040021,-0.012514,1.660849,-0.236650,0.084403,0.005153,-0.010979,-0.000876,-0.014721,-0.009147,-0.037121,0.549091,1.732646,0.254396,0.270441,0.172633,0.060500,1.328496,0.512081,0.194203,-0.686106,0.369743,-6.726062,-0.112257,0.004133,-0.002287,
26.500000,30.219953,-0.046816,0.909068,-1.433584,0.046649,0.132890,0.204550,79.655284,-0.932499,0.129009,23.414898,0.250000,23.882079,0.005517,0.915936,-1.498278,25.000000,5.000000,0.576093,1.201602,0.009582,0.721247,-0.470621,0.469782,0.001121,0.045058,-0.064753,0.052333,0.006868,1.619018,-0.200662,-0.042508,0.006860,-0.010687,-0.001007,-0.014778,-0.009267,-0.037112,0.542827,1.717943,0.259272,0.247640,0.159861,0.056030,1.311859,0.447848,0.171040,-0.169709,0.030198,-4.188015,0.127395,0.043075,-0.308732,
27.000000,31.049277,-0.058658,0.903616,-1.429612,0.047683,-0.007372,0.088981,79.665449,-0.514721,0.098177,23.414898,0.250000,24.632140,-0.002675,0.921384,-1.497525,25.000000,5.000000,0.576093,1.201602,0.009582,0.728749,-0.471465,0.452432,-0.008575,0.050950,-0.068081,0.055983,0.017768,1.617404,-0.176482,-0.075975,0.006860,-0.010687,-0.001007,-0.014778,-0.009267,-0.037112,0.544647,1.718286,0.264351,0.262620,0.173967,0.059723,1.422268,0.509626,0.193076,-0.169709,0.030198,-4.188015,0.127395,0.043075,-0.308732,
27.500000,31.882926,-0.069485,0.887020,-1.445008,0.052532,-0.153939,0.166443,79.675731,-0.829936,0.372846,24.567326,0.250000,25.305757,0.007971,0.934695,-1.498268,26.000000,6.000000,0.395692,0.221698,0.009582,0.747721,-0.394038,0.636555,-0.034595,0.074242,-0.053424,0.077457,0.047676,1.541308,-0.147561,-0.027773,0.005270,-0.010755,-0.000925,-0.015052,-0.009490,-0.037106,0.538104,1.704872,0.269229,0.231771,0.159308,0.055369,1.362901,0.447843,0.170316,-0.157711,-0.117209,-0.492526,-0.061853,0.194408,-0.001201,
28.000000,32.715131,-0.080108,0.872884,-1.441899,0.050738,-0.010311,0.101314,79.686077,-0.997433,0.157131,24.567326,0.250000,26.055898,0.002446,0.932471,-1.498027,26.000000,6.000000,0.395692,0.221698,0.009582,0.750981,-0.395791,0.619748,-0.045502,0.081802,-0.056265,0.082554,0.059588,1.521537,-0.108367,-0.055447,0.005270,-0.010755,-0.000925,-0.015052,-0.009490,-0.037106,0.539884,1.705329,0.274233,0.245508,0.173172,0.059003,1.463940,0.511425,0.192091,-0.157711,-0.117209,-0.492526,-0.061853,0.194408,-0.001201,
28.500000,33.555683,-0.080482,0.837313,-1.470085,0.046217,-0.517497,-0.032147,79.697237,-0.879056,0.106611,25.853076,0.250000,26.674968,0.002674,0.962344,-1.498567,27.000000,7.000000,1.107700,1.307013,0.009582,0.802074,-0.301431,0.578659,-0.108947,0.094520,-0.028610,0.083155,0.125031,1.263627,-0.032795,0.058211,0.003662,-0.011073,-0.000782,-0.015710,-0.009436,-0.037122,0.533757,1.695150,0.279214,0.212798,0.157291,0.054830,1.382331,0.449055,0.169621,-0.615778,0.114456,-4.204308,0.018954,-0.069607,0.029023,
29.000000,34.393087,-0.080398,0.801401,-1.467532,0.050875,-0.154033,0.056630,79.706469,-0.851881,0.064988,25.853076,0.250000,27.425296,0.008277,0.940939,-1.498154,27.000000,7.000000,1.107700,1.307013,0.009582,0.805955,-0.304801,0.564138,-0.122785,0.102952,-0.030828,0.088675,0.139538,1.205931,0.016755,0.043102,0.003662,-0.011073,-0.000782,-0.015710,-0.009436,-0.037122,0.535481,1.695697,0.284095,0.225495,0.170894,0.058430,1.471690,0.513062,0.191117,-0.615778,0.114456,-4.204308,0.018954,-0.069607,0.029023,
29.500000,35.240291,-0.149802,0.848543,-1.493138,0.048250,1.071552,1.275619,79.726810,-1.091078,0.496979,27.302128,0.250000,28.063737,0.081134,0.899507,-1.498336,28.000000,8.000000,0.554395,9.305150,0.009582,0.691501,-0.060412,1.309836,-0.016068,0.214740,-0.005413,0.230936,0.050964,1.445332,0.318236,0.149224,-0.002118,-0.010458,-0.000703,-0.014228,-0.010984,-0.037029,0.529512,1.689017,0.288565,0.195596,0.154631,0.054417,1.392514,0.449733,0.168955,0.207593,0.113698,-9.350723,1.035060,0.762355,-0.000736,
30.000000,36.099923,-0.225610,0.902003,-1.491425,0.047359,0.310054,0.493826,79.727420,-0.866944,-0.083027,27.302128,0.250000,28.814080,0.016173,0.963853,-1.498476,28.000000,8.000000,0.554395,9.305150,0.009582,0.696894,-0.061846,1.284527,-0.022231,0.227020,-0.007096,0.241783,0.061850,1.436071,0.428777,0.145841,-0.002118,-0.010458,-0.000703,-0.014228,-0.010984,-0.037029,0.531506,1.689500,0.293677,0.207604,0.168011,0.057977,1.470632,0.513286,0.190179,0.207593,0.113698,-9.350723,1.035060,0.762355,-0.000736,
30.500000,36.965072,-0.194393,0.926111,-1.495126,0.049218,0.416407,-0.816544,79.729635,-0.830048,0.184644,28.916820,0.250000,29.542926,-0.038034,0.952353,-1.498289,29.000000,9.000000,0.003112,4.462127,0.009582,0.693428,-0.052744,0.765770,0.000100,0.147271,-0.003346,0.156359,0.026242,1.550582,0.207437,0.164978,-0.001353,-0.010791,-0.000670,-0.013663,-0.009985,-0.037064,0.526838,1.685307,0.299287,0.180178,0.152032,0.054236,1.387939,0.449413,0.168348,0.295538,-0.675758,-9.593510,0.053140,-0.194032,-0.040857,
31.000000,37.831695,-0.149842,0.940151,-1.493149,0.048375,0.106482,-0.131157,79.743187,-1.046432,0.064896,28.916820,0.250000,30.293060,0.016799,0.974713,-1.497543,29.000000,9.000000,0.003112,4.462127,0.009582,0.699917,-0.055846,0.757993,-0.006758,0.157753,-0.004679,0.166641,0.034563,1.549127,0.283834,0.162712,-0.001353,-0.010791,-0.000670,-0.013663,-0.009985,-0.037064,0.528231,1.686025,0.303716,0.191842,0.165255,0.057837,1.454988,0.512156,0.189414,0.295538,-0.675758,-9.593510,0.053140,-0.194032,-0.040857,
31.500000,38.683111,-0.096873,0.860784,-1.463679,0.051793,-1.385140,-0.877589,79.761531,-0.844448,0.077909,30.718921,0.250000,31.158784,-0.040216,1.038788,-1.497220,30.000000,10.000000,0.785641,4.156193,0.009582,0.801026,-0.210253,0.237665,-0.163236,0.084084,-0.033756,0.056657,0.178005,0.930211,0.064757,0.033296,0.002444,-0.010969,-0.000762,-0.015163,-0.008787,-0.037112,0.523429,1.684095,0.309028,0.168227,0.149700,0.054210,1.383967,0.448490,0.167930,-1.467043,-0.543801,3.462520,-0.031218,-0.320685,-0.021194,
32.000000,39.516456,-0.051138,0.774381,-1.461683,0.046494,-0.431799,-0.163159,79.760688,-0.437834,0.068412,30.718921,0.250000,31.908630,0.010830,0.965972,-1.497461,30.000000,10.000000,0.785641,4.156193,0.009582,0.805697,-0.213638,0.231582,-0.177389,0.091360,-0.035946,0.061968,0.191591,0.845284,0.108797,0.015618,0.002444,-0.010969,-0.000762,-0.015163,-0.008787,-0.037112,0.525035,1.684760,0.313417,0.179822,0.162818,0.057779,1.441255,0.510282,0.188955,-1.467043,-0.543801,3.462520,-0.031218,-0.320685,-0.021194,
32.500000,40.344768,0.003050,0.694896,-1.473179,0.047343,-1.107725,-0.897902,79.780266,-0.689314,0.059537,31.927172,0.250000,32.605946,-0.040022,1.007035,-1.497932,31.000000,11.000000,0.104271,7.920090,0.009582,0.913153,-0.294510,-0.248320,-0.312194,0.018371,-0.024997,-0.043071,0.312140,0.194798,-0.149113,0.054546,0.004828,-0.011748,-0.000678,-0.016238,-0.007771,-0.037137,0.520320,1.683756,0.318683,0.160883,0.147992,0.054133,1.399902,0.447159,0.167703,-1.525314,-0.648230,-8.908025,0.325131,-0.180570,0.128468,
33.000000,41.161580,0.051416,0.626166,-1.471496,0.051135,-0.373248,-0.219429,79.781842,-0.563319,0.194145,31.927172,0.250000,33.356142,0.009130,0.958160,-1.498179,31.000000,11.000000,0.104271,7.920090,0.009582,0.917444,-0.297211,-0.253415,-0.332682,0.021691,-0.026879,-0.042286,0.331994,0.033833,-0.138952,0.041323,0.004828,-0.011748,-0.000678,-0.016238,-0.007771,-0.037137,0.521836,1.684463,0.323080,0.172572,0.161058,0.057637,1.450247,0.508127,0.188702,-1.525314,-0.648230,-8.908025,0.325131,-0.180570,0.128468,
33.500000,41.971051,0.048835,0.721524,-1.455863,0.047498,2.145512,0.162293,79.797016,-0.686550,0.155986,33.656764,0.250000,34.163034,0.026478,0.858238,-1.497633,32.000000,12.000000,0.302267,5.806899,0.009582,0.745926,-0.159729,0.040181,-0.141813,0.001955,-0.041800,-0.022357,0.136714,0.722174,-0.224538,-0.034816,0.002253,-0.011062,-0.000760,-0.013773,-0.007791,-0.037165,0.516773,1.683724,0.327693,0.156336,0.146823,0.053999,1.426566,0.446216,0.167555,1.980273,-0.260421,-1.870576,0.337815,-0.025349,0.019098,
34.000000,42.795778,0.037586,0.836198,-1.454186,0.048771,0.578109,0.078059,79.805601,-0.753218,0.184011,33.656764,0.250000,34.912974,0.014961,0.987391,-1.497445,32.000000,12.000000,0.302267,5.806899,0.009582,0.750310,-0.160266,0.023043,-0.153761,0.004137,-0.043443,-0.022625,0.151193,0.648552,-0.222849,-0.056367,0.002253,-0.011062,-0.000760,-0.013773,-0.007791,-0.037165,0.518469,1.684415,0.332519,0.168187,0.159861,0.057501,1.471886,0.506568,0.188504,1.980273,-0.260421,-1.870576,0.337815,-0.025349,0.019098,
34.500000,43.643383,0.013897,0.903755,-1.489990,0.052377,1.053571,0.388532,79.819794,-1.001880,0.105497,34.726323,0.250000,35.521495,0.029756,0.945738,-1.499048,33.000000,13.000000,0.829048,6.217193,0.009582,0.722100,-0.153318,0.123590,-0.040527,0.020720,-0.009214,0.015859,0.041983,1.055271,-0.174288,0.076767,0.001687,-0.011825,-0.000608,-0.012374,-0.008227,-0.037170,0.513318,1.683348,0.337173,0.152242,0.146233,0.053871,1.436003,0.445462,0.167419,1.047319,0.049660,-8.495381,0.355682,0.120218,0.618556,
35.000000,44.503349,-0.008250,0.951004,-1.487958,0.049943,0.245957,0.129044,79.826965,-1.011936,0.273010,34.726323,0.250000,36.271838,0.009028,0.999925,-1.498340,33.000000,13.000000,0.829048,6.217193,0.009582,0.727827,-0.152590,0.104404,-0.045748,0.023710,-0.010513,0.017278,0.048922,1.033956,-0.163016,0.071586,0.001687,-0.011825,-0.000608,-0.012374,-0.008227,-0.037170,0.515071,1.684025,0.342042,0.164315,0.159261,0.057337,1.475614,0.505448,0.188308,1.047319,0.049660,-8.495381,0.355682,0.120218,0.618556,
35.500000,45.365359,0.011820,0.955513,-1.487206,0.051122,0.107433,-0.433937,79.835804,-0.936422,0.188803,36.369453,0.250000,37.012991,-0.013648,0.995620,-1.497869,34.000000,14.000000,0.020563,0.551292,0.009582,0.723857,-0.116557,0.020581,-0.043940,-0.017672,-0.010881,-0.025467,0.040107,1.021408,-0.306381,0.075024,0.001576,-0.011846,-0.000604,-0.012176,-0.007709,-0.037154,0.510122,1.682334,0.347048,0.149357,0.145814,0.053707,1.442605,0.444672,0.167272,-0.030318,-0.271420,0.185706,0.124893,-0.253377,-0.220736,
36.000000,46.226249,0.036035,0.952706,-1.485850,0.049234,0.030332,-0.109222,79.846256,-1.047397,0.300954,36.369453,0.250000,37.763035,0.011083,0.997975,-1.497870,34.000000,14.000000,0.020563,0.551292,0.009582,0.728883,-0.119089,0.008677,-0.048862,-0.016554,-0.012182,-0.024952,0.045269,0.998453,-0.314784,0.069006,0.001576,-0.011846,-0.000604,-0.012176,-0.007709,-0.037154,0.511640,1.683077,0.351644,0.161661,0.158836,0.057137,1.477102,0.504391,0.188085,-0.030318,-0.271420,0.185706,0.124893,-0.253377,-0.220736,
36.500000,47.082488,0.009083,0.931440,-1.477744,0.050484,-0.259768,0.557384,79.855287,-1.058661,1.159064,37.946209,0.250000,38.537646,0.035865,1.009750,-1.497586,35.000000,15.000000,0.014214,1.098711,0.009582,0.737929,-0.145236,0.076345,-0.072273,0.037917,-0.020094,0.026782,0.078310,0.890970,-0.088249,0.035091,0.001458,-0.011636,-0.000634,-0.012450,-0.008217,-0.037168,0.506440,1.681229,0.356130,0.147811,0.145577,0.053521,1.456892,0.444238,0.167098,-0.221550,0.600537,2.948529,0.029648,-0.018166,-0.190966,
37.000000,47.935085,-0.023532,0.909209,-1.476473,0.048261,-0.069692,0.189786,79.866589,-0.866064,0.062550,37.946209,0.250000,39.287628,0.004852,0.994175,-1.497754,35.000000,15.000000,0.014214,1.098711,0.009582,0.740060,-0.145296,0.055686,-0.078627,0.041603,-0.021486,0.028385,0.084966,0.853485,-0.068188,0.024434,0.001458,-0.011636,-0.000634,-0.012450,-0.008217,-0.037168,0.508116,1.681923,0.360984,0.160289,0.158588,0.056920,1.487780,0.503796,0.187821,-0.221550,0.600537,2.948529,0.029648,-0.018166,-0.190966,
37.500000,48.797761,-0.015972,0.937513,-1.503154,0.051210,0.699755,-0.238427,79.874702,-0.062349,0.411782,39.133176,0.250000,39.924324,-0.012295,0.959101,-1.498652,36.000000,16.000000,0.790312,1.213093,0.009582,0.739917,-0.154806,0.033688,-0.021551,0.007394,0.004323,0.003677,0.021588,1.076064,-0.183368,0.136909,0.001964,-0.012371,-0.000521,-0.011696,-0.007920,-0.037153,0.503298,1.679772,0.365870,0.147236,0.145490,0.053319,1.478965,0.443590,0.166895,0.628573,-0.259311,-2.881058,0.086969,-0.187302,0.178911,
38.000000,49.667639,-0.002025,0.969736,-1.501397,0.047058,0.221036,-0.057725,79.886846,-1.001245,0.231898,39.133176,0.250000,40.674574,0.003097,0.996254,-1.497869,36.000000,16.000000,0.790312,1.213093,0.009582,0.744916,-0.157240,0.019824,-0.025466,0.009511,0.003381,0.005122,0.026517,1.064561,-0.178983,0.138590,0.001964,-0.012371,-0.000521,-0.011696,-0.007920,-0.037153,0.504822,1.680507,0.370514,0.159820,0.158491,0.056673,1.507800,0.503068,0.187516,0.628573,-0.259311,-2.881058,0.086969,-0.187302,0.178911,
38.500000,50.536412,-0.020047,0.928938,-1.499445,0.047449,-0.842027,0.423889,79.894694,-0.607666,-0.091890,40.851838,0.250000,41.433533,0.022136,1.041490,-1.498382,37.000000,17.000000,0.018064,2.490824,0.009582,0.800608,-0.209013,0.038166,-0.102259,0.059731,0.000957,0.042184,0.112552,0.735522,0.034651,0.130255,0.002443,-0.012390,-0.000524,-0.012503,-0.008282,-0.037168,0.499873,1.678095,0.375046,0.146219,0.144810,0.053088,1.500621,0.441448,0.166655,-0.813147,0.536334,-5.179755,0.032186,-0.019589,0.075331,
39.000000,51.397378,-0.045972,0.870299,-1.497609,0.046001,-0.283268,0.166400,79.907716,-0.808598,0.312461,40.851838,0.250000,42.183608,-0.001246,0.990326,-1.497452,37.000000,17.000000,0.018064,2.490824,0.009582,0.803864,-0.209254,0.018620,-0.109845,0.064396,-0.000019,0.044726,0.120027,0.682731,0.065874,0.130223,0.002443,-0.012390,-0.000524,-0.012503,-0.008282,-0.037168,0.501494,1.678794,0.379831,0.158826,0.157769,0.056404,1.527712,0.500491,0.187158,-0.813147,0.536334,-5.179755,0.032186,-0.019589,0.075331,
39.500000,52.254413,-0.031787,0.890014,-1.495980,0.051015,0.766429,-0.403766,79.915627,-0.880038,0.092485,42.331916,0.250000,42.939285,-0.024042,0.946663,-1.498022,38.000000,18.000000,0.001811,0.860182,0.009582,0.755523,-0.158673,0.012894,-0.055355,0.018134,-0.002266,0.007745,0.056649,0.878951,-0.106498,0.123476,0.002012,-0.012309,-0.000532,-0.011767,-0.007852,-0.037158,0.497177,1.676400,0.384742,0.145926,0.144437,0.052867,1.531352,0.439816,0.166387,0.595915,-0.486169,0.582998,0.101049,-0.079732,0.002753,
40.000000,53.115664,-0.007411,0.929566,-1.495097,0.048485,0.270904,-0.116585,79.928434,-0.951076,0.143858,42.331916,0.250000,43.689318,0.002146,0.992750,-1.497998,38.000000,18.000000,0.001811,0.860182,0.009582,0.759757,-0.160724,0.000633,-0.060812,0.020713,-0.003117,0.009557,0.063184,0.850171,-0.096630,0.121880,0.002012,-0.012309,-0.000532,-0.011767,-0.007852,-0.037158,0.498640,1.677134,0.389315,0.158535,0.157372,0.056161,1.558295,0.498627,0.186775,0.595915,-0.486169,0.582998,0.101049,-0.079732,0.002753,
40.500000,53.980529,-0.062145,0.959906,-1.496358,0.048303,0.644342,1.277896,79.948377,-0.814895,-0.012386,43.885685,0.250000,44.443546,0.066358,0.966391,-1.497902,39.000000,19.000000,0.038139,7.076719,0.009582,0.723651,-0.250460,-0.073555,0.015177,0.127126,-0.001769,0.128503,0.006485,1.095162,0.398048,0.116304,0.002322,-0.012406,-0.000522,-0.010995,-0.008987,-0.037173,0.494004,1.674981,0.393653,0.145785,0.144238,0.052665,1.561074,0.438875,0.166112,0.470014,1.369406,-4.981493,0.500031,-0.288824,0.656694,
41.000000,54.851902,-0.140024,0.989354,-1.495316,0.047430,0.218865,0.472391,79.952626,-1.087526,-0.015108,43.885685,0.250000,45.193633,-0.006218,0.999049,-1.498106,39.000000,19.000000,0.038139,7.076719,0.009582,0.727944,-0.251602,-0.099531,0.013754,0.134461,-0.002845,0.133806,0.009696,1.102649,0.463641,0.114901,0.002322,-0.012406,-0.000522,-0.010995,-0.008987,-0.037173,0.495844,1.675579,0.398477,0.158383,0.157152,0.055927,1.587901,0.497574,0.186389,0.470014,1.369406,-4.981493,0.500031,-0.288824,0.656694,
41.500000,55.729769,-0.079501,1.019987,-1.505152,0.049322,0.694949,-1.638435,79.947105,-0.856320,0.220588,45.205778,0.250000,45.896828,-0.098947,0.967810,-1.498556,40.000000,20.000000,0.152784,5.030448,0.009582,0.703522,-0.137711,-0.036392,0.047571,-0.025014,0.006458,-0.019446,-0.052176,1.262524,-0.158700,0.163651,0.002096,-0.012593,-0.000487,-0.010379,-0.007376,-0.037147,0.492968,1.673090,0.404084,0.145770,0.144164,0.052475,1.590607,0.438040,0.165836,0.398066,-1.701070,-4.060856,-0.012547,-0.144953,-0.098889,
42.000000,56.611131,0.021082,1.053096,-1.503541,0.046945,0.265171,-0.546173,79.966048,-1.079676,0.159072,45.205778,0.250000,46.646997,0.003151,1.001476,-1.497629,40.000000,20.000000,0.152784,5.030448,0.009582,0.707899,-0.137898,-0.038903,0.047723,-0.025024,0.005685,-0.017931,-0.051620,1.286595,-0.171075,0.166422,0.002096,-0.012593,-0.000487,-0.010379,-0.007376,-0.037147,0.493936,1.673899,0.408167,0.158349,0.157059,0.055712,1.617507,0.496721,0.186007,0.398066,-1.701070,-4.060856,-0.012547,-0.144953,-0.098889,
42.500000,57.499544,0.049802,1.044785,-1.521875,0.051961,-0.164028,-0.260392,79.977144,-1.072421,0.162816,46.582778,0.250000,47.318954,-0.000907,1.013429,-1.498527,41.000000,21.000000,0.402508,1.992144,0.009582,0.757434,-0.142242,0.019433,0.022467,-0.055392,0.023140,-0.050709,-0.031357,1.284300,-0.281736,0.253956,0.002537,-0.013029,-0.000422,-0.010684,-0.006984,-0.037150,0.490264,1.671767,0.412696,0.145805,0.144066,0.052296,1.620506,0.437792,0.165567,0.189221,-0.153561,-3.821292,-0.543859,-0.207498,0.065098,
43.000000,58.387047,0.062129,1.026813,-1.520901,0.049892,-0.012622,-0.051459,79.987023,-1.000506,0.239926,46.582778,0.250000,48.069162,0.009093,0.997014,-1.497994,41.000000,21.000000,0.402508,1.992144,0.009582,0.759328,-0.145308,0.006305,0.020308,-0.057461,0.022684,-0.053036,-0.029799,1.295224,-0.309777,0.265161,0.002537,-0.013029,-0.000422,-0.010684,-0.006984,-0.037150,0.491805,1.672455,0.417276,0.158361,0.156934,0.055498,1.647547,0.496440,0.185636,0.189221,-0.153561,-3.821292,-0.543859,-0.207498,0.065098,
43.500000,59.266555,0.056561,1.029962,-1.502635,0.045393,0.257464,0.146422,79.998088,-0.940833,0.131520,48.339880,0.250000,48.883025,0.016918,0.986511,-1.496944,42.000000,22.000000,0.187290,2.427225,0.009582,0.730168,-0.131292,-0.034239,0.035752,-0.046185,0.005544,-0.039642,-0.043452,1.393122,-0.313468,0.205998,0.002026,-0.012629,-0.000480,-0.010573,-0.007168,-0.037148,0.488412,1.670463,0.421858,0.145876,0.143891,0.052127,1.653980,0.437648,0.165305,0.267699,-0.036622,6.000582,-0.091821,0.217664,-0.407194,
44.000000,60.145073,0.047808,1.038417,-1.502568,0.051571,0.136643,0.042260,80.007647,-1.033478,0.205231,48.339880,0.250000,49.632895,0.006464,0.996868,-1.497534,42.000000,22.000000,0.187290,2.427225,0.009582,0.734332,-0.131497,-0.051316,0.033836,-0.047105,0.004824,-0.041344,-0.041548,1.410767,-0.336615,0.208338,0.002026,-0.012629,-0.000480,-0.010573,-0.007168,-0.037148,0.490046,1.671118,0.426532,0.158409,0.156736,0.055315,1.681583,0.496237,0.185280,0.267699,-0.036622,6.000582,-0.091821,0.217664,-0.407194,
44.500000,61.014788,0.038589,1.038296,-1.478506,0.051696,0.088096,0.176445,80.018273,-1.172636,0.125012,50.043003,0.250000,50.481617,0.016293,0.998571,-1.497178,43.000000,23.000000,0.770683,0.881656,0.009582,0.708527,-0.108676,-0.104508,0.035582,-0.027318,-0.018862,-0.022296,-0.039725,1.448629,-0.300712,0.102656,0.001335,-0.012090,-0.000558,-0.010592,-0.007388,-0.037144,0.486911,1.669380,0.431129,0.146020,0.143719,0.051991,1.689101,0.437505,0.165062,0.071047,0.059506,-4.135958,-0.039188,0.200480,-0.095997,
45.000000,61.881579,0.028116,1.035515,-1.477923,0.049917,0.064013,0.059598,80.028320,-1.224807,0.545373,50.043003,0.250000,51.231364,0.005531,0.998238,-1.497533,43.000000,23.000000,0.770683,0.881656,0.009582,0.712064,-0.108491,-0.121823,0.033228,-0.026711,-0.019835,-0.022585,-0.037277,1.466071,-0.314047,0.092738,0.001335,-0.012090,-0.000558,-0.010592,-0.007388,-0.037144,0.488537,1.670030,0.435796,0.158522,0.156540,0.055167,1.717376,0.496031,0.184958,0.071047,0.059506,-4.135958,-0.039188,0.200480,-0.095997,
45.500000,62.742778,0.012924,1.025863,-1.463703,0.048313,-0.067634,0.291191,80.038651,-0.601615,1.052283,51.448948,0.250000,52.022265,0.019171,1.004452,-1.496827,44.000000,24.000000,0.069614,2.203159,0.009582,0.708495,-0.107578,-0.166226,0.022910,0.004836,-0.033351,0.006247,-0.021411,1.454359,-0.171685,0.036615,0.001024,-0.011816,-0.000599,-0.010715,-0.007610,-0.037145,0.485586,1.668569,0.440361,0.146310,0.143580,0.051880,1.726501,0.437342,0.164846,-0.054464,0.473864,-2.164990,-0.038690,-0.159703,-0.621952,
46.000000,63.600806,-0.004361,1.014362,-1.463213,0.049165,0.012924,0.104171,80.048687,-1.018695,0.280349,51.448948,0.250000,52.772108,0.002844,0.996447,-1.497659,44.000000,24.000000,0.069614,2.203159,0.009582,0.710236,-0.107322,-0.184336,0.019568,0.006976,-0.034683,0.007205,-0.017916,1.465213,-0.168557,0.019352,0.001024,-0.011816,-0.000599,-0.010715,-0.007610,-0.037145,0.487225,1.669209,0.445035,0.158781,0.156382,0.055043,1.755625,0.495813,0.184676,-0.054464,0.473864,-2.164990,-0.038690,-0.159703,-0.621952,
46.500000,64.453888,-0.008991,1.018992,-1.451811,0.048477,0.268277,0.039291,80.058663,-1.254992,0.261253,53.054151,0.250000,53.567515,0.002733,0.984892,-1.497649,45.000000,25.000000,0.220727,2.376204,0.009582,0.687332,-0.095680,-0.208951,0.035989,0.009193,-0.045947,0.011724,-0.034100,1.556246,-0.147272,-0.047902,0.000808,-0.011608,-0.000631,-0.010530,-0.007609,-0.037147,0.484480,1.667907,0.449671,0.146731,0.143468,0.051788,1.766422,0.437139,0.164657,0.200705,0.099128,-7.471159,0.019422,-0.116978,0.063490,
47.000000,65.306535,-0.011190,1.027627,-1.450094,0.046899,0.122883,0.026841,80.069211,-1.045919,0.164702,53.054151,0.250000,54.317392,0.002035,0.996846,-1.497230,45.000000,25.000000,0.220727,2.376204,0.009582,0.691537,-0.097172,-0.225171,0.033244,0.011555,-0.047257,0.013225,-0.030781,1.573808,-0.141916,-0.071466,0.000808,-0.011608,-0.000631,-0.010530,-0.007609,-0.037147,0.486072,1.668557,0.454291,0.159168,0.156248,0.054938,1.796551,0.495566,0.184431,0.200705,0.099128,-7.471159,0.019422,-0.116978,0.063490,
47.500000,66.170937,0.008142,1.042096,-1.479339,0.047800,0.415246,-0.431826,80.077153,-1.019180,0.164778,54.066187,0.250000,54.933469,-0.024418,0.977005,-1.498971,46.000000,26.000000,1.522366,5.521955,0.009582,0.706294,-0.128393,-0.197350,0.058657,-0.039221,-0.019731,-0.032560,-0.065091,1.679504,-0.474922,0.049432,0.001652,-0.012238,-0.000540,-0.010167,-0.007376,-0.037139,0.483586,1.667268,0.459044,0.147231,0.143442,0.051698,1.806699,0.436985,0.164492,0.122710,-1.230243,0.914452,0.231370,0.761631,-0.269978,
48.000000,67.039942,0.033430,1.059072,-1.477459,0.046179,0.178397,-0.124872,80.088962,-0.901454,-0.192800,54.066187,0.250000,55.683735,0.001917,0.996041,-1.497894,46.000000,26.000000,1.522366,5.521955,0.009582,0.710608,-0.130583,-0.209573,0.057222,-0.038068,-0.020590,-0.031513,-0.063032,1.708726,-0.494089,0.039105,0.001652,-0.012238,-0.000540,-0.010167,-0.007376,-0.037139,0.485058,1.667943,0.463553,0.159641,0.156207,0.054820,1.837704,0.495400,0.184210,0.122710,-1.230243,0.914452,0.231370,0.761631,-0.269978,
48.500000,67.903352,0.063300,0.989235,-1.468684,0.047840,-1.473525,-0.563771,80.103702,-0.972108,0.239811,55.848891,0.250000,56.452110,-0.021457,1.076306,-1.497775,47.000000,27.000000,0.009329,7.436225,0.009582,0.786878,-0.048530,-0.266889,-0.097069,-0.063136,-0.029336,-0.084757,0.087071,1.084339,-0.597867,0.007106,0.000793,-0.011950,-0.000568,-0.011469,-0.006863,-0.037154,0.482528,1.666552,0.468297,0.147491,0.143315,0.051606,1.846069,0.436913,0.164337,-1.669731,-0.136093,-6.365230,-0.019181,-0.179510,-0.645615,
49.000000,68.751278,0.095566,0.892427,-1.467326,0.047242,-0.488313,-0.173906,80.107312,-0.867987,0.537885,55.848891,0.250000,57.202113,0.009423,0.987024,-1.497601,47.000000,27.000000,0.009329,7.436225,0.009582,0.790657,-0.050752,-0.277514,-0.106135,-0.063790,-0.030488,-0.086143,0.094597,1.033761,-0.629454,-0.008095,0.000793,-0.011950,-0.000568,-0.011469,-0.006863,-0.037154,0.484120,1.667186,0.472768,0.159874,0.156064,0.054724,1.877554,0.495274,0.184003,-1.669731,-0.136093,-6.365230,-0.019181,-0.179510,-0.645615,
49.500000,69.601933,0.072953,0.863347,-1.493966,0.047185,-0.138643,0.586734,80.114233,-0.755218,0.207388,57.117596,0.250000,57.848736,0.037651,0.982244,-1.498283,48.000000,28.000000,0.492607,6.304851,0.009582,0.832745,-0.130314,-0.354116,-0.121711,-0.009364,-0.004550,-0.035301,0.118897,0.966831,-0.432283,0.089805,0.001561,-0.012513,-0.000487,-0.011610,-0.007351,-0.037126,0.481483,1.666002,0.477172,0.148448,0.143264,0.051524,1.894211,0.436899,0.164195,0.010401,0.569083,-9.537123,-0.088161,0.035112,0.743796,
50.000000,70.453743,0.037136,0.850298,-1.492925,0.049079,-0.024589,0.198882,80.124734,-1.370524,0.093534,57.117596,0.250000,58.599004,0.001624,0.979786,-1.498055,48.000000,28.000000,0.492607,6.304851,0.009582,0.834272,-0.130139,-0.375560,-0.132423,-0.006806,-0.005367,-0.035512,0.129488,0.903536,-0.436137,0.087063,0.001561,-0.012513,-0.000487,-0.011610,-0.007351,-0.037126,0.483162,1.666611,0.481845,0.160795,0.155998,0.054617,1.927306,0.495229,0.183811,0.010401,0.569083,-9.537123,-0.088161,0.035112,0.743796,
50.500000,71.310061,-0.020258,0.857902,-1.504939,0.050818,0.331987,1.115669,80.137525,-0.891400,0.123075,58.562680,0.250000,59.290882,0.049747,0.963064,-1.498249,49.000000,29.000000,0.300418,5.589259,0.009582,0.838625,-0.250820,-0.367879,-0.090890,0.091419,0.006477,0.070006,0.105162,1.070881,-0.193666,0.147030,0.002292,-0.012857,-0.000447,-0.011351,-0.008479,-0.037048,0.480368,1.665343,0.486272,0.149169,0.143192,0.051428,1.942266,0.436818,0.164058,0.637756,0.098405,2.106398,-0.065663,1.136481,-0.102052,
51.000000,72.170906,-0.086460,0.869357,-1.503888,0.045741,0.083467,0.388155,80.145575,-0.810843,0.071609,58.562680,0.250000,60.041049,-0.010836,0.984933,-1.497894,49.000000,29.000000,0.300418,5.589259,0.009582,0.843119,-0.251295,-0.394653,-0.099941,0.100378,0.005910,0.075624,0.115576,1.023416,-0.145523,0.149864,0.002292,-0.012857,-0.000447,-0.011351,-0.008479,-0.037048,0.482157,1.665906,0.490969,0.161478,0.155910,0.054501,1.976480,0.495115,0.183620,0.637756,0.098405,2.106398,-0.065663,1.136481,-0.102052,
51.500000,73.035375,-0.086341,0.889000,-1.509191,0.046068,0.532084,-0.242031,80.153394,-0.871572,0.010818,60.148566,0.250000,60.771569,-0.031401,0.959341,-1.497786,50.000000,30.000000,0.007701,1.552467,0.009582,0.817678,-0.247764,-0.431352,-0.059488,0.073810,0.011287,0.054941,0.070341,1.157176,-0.214975,0.174118,0.002590,-0.012986,-0.000431,-0.010839,-0.008221,-0.037059,0.479846,1.664374,0.495704,0.149410,0.143115,0.051329,1.985991,0.436664,0.163918,0.392234,-0.210987,-4.281668,0.183336,-0.220880,0.279282,
52.000000,73.903688,-0.071125,0.912007,-1.508968,0.051514,0.156041,-0.050453,80.164341,-0.676855,-0.070469,60.148566,0.250000,61.521685,-0.009814,0.990622,-1.497879,50.000000,30.000000,0.007701,1.552467,0.009582,0.822219,-0.249945,-0.444391,-0.065826,0.081556,0.010885,0.061312,0.078615,1.126110,-0.175965,0.179410,0.002590,-0.012986,-0.000431,-0.010839,-0.008221,-0.037059,0.481355,1.665025,0.500232,0.161689,0.155816,0.054386,2.020492,0.494930,0.183425,0.392234,-0.210987,-4.281668,0.183336,-0.220880,0.279282,
52.500000,74.769671,-0.105431,0.908590,-1.500386,0.047134,-0.003814,0.785663,80.175846,-0.785625,-0.456731,61.831992,0.250000,62.316705,0.030255,0.993520,-1.497163,51.000000,31.000000,0.315314,5.411280,0.009582,0.817184,-0.287080,-0.438237,-0.059046,0.154460,0.002983,0.135686,0.084930,1.123444,0.180160,0.136491,0.002523,-0.012876,-0.000450,-0.010777,-0.008733,-0.037031,0.478634,1.663597,0.504636,0.149263,0.143005,0.051237,2.025799,0.436563,0.163778,-0.005654,0.914103,-7.988495,0.188112,-0.230061,0.545676,
53.000000,75.634891,-0.154203,0.899576,-1.500244,0.048003,-0.017679,0.330860,80.185960,-0.790957,-0.059026,61.831992,0.250000,63.066637,-0.010162,0.992371,-1.497626,51.000000,31.000000,0.315314,5.411280,0.009582,0.820327,-0.287759,-0.460484,-0.065503,0.165097,0.002382,0.144041,0.092796,1.092536,0.260236,0.137576,0.002523,-0.012876,-0.000450,-0.010777,-0.008733,-0.037031,0.480329,1.664187,0.509288,0.161517,0.155690,0.054283,2.059981,0.494783,0.183233,-0.005654,0.914103,-7.988495,0.188112,-0.230061,0.545676,
53.500000,76.488179,-0.096675,0.896638,-1.471404,0.047760,0.106562,-1.470886,80.194735,-0.722772,-0.131719,63.504210,0.250000,63.931177,-0.088926,0.987914,-1.497260,52.000000,32.000000,0.939793,5.007620,0.009582,0.789632,-0.133659,-0.566665,-0.087428,0.035181,-0.025958,0.007749,0.091276,1.070103,-0.195280,0.013077,0.001465,-0.012269,-0.000528,-0.010817,-0.007448,-0.037080,0.478587,1.662707,0.514439,0.149057,0.142892,0.051160,2.065370,0.436497,0.163644,0.297707,-1.186035,-3.222207,-0.571805,-0.444277,-0.424306,
54.000000,77.335877,-0.008076,0.894657,-1.470492,0.047159,0.015928,-0.456143,80.205946,-0.878526,-0.015499,63.504210,0.250000,64.680978,0.003836,0.994624,-1.497113,52.000000,32.000000,0.939793,5.007620,0.009582,0.793846,-0.134108,-0.568691,-0.094490,0.039211,-0.026858,0.011912,0.099967,1.024904,-0.176541,-0.000366,0.001465,-0.012269,-0.000528,-0.010817,-0.007448,-0.037080,0.479722,1.663412,0.518629,0.161286,0.155561,0.054204,2.099193,0.494677,0.183056,0.297707,-1.186035,-3.222207,-0.571805,-0.444277,-0.424306,
54.500000,78.178149,-0.005785,0.899189,-1.459454,0.045799,0.251899,0.248962,80.217430,-0.871294,0.117202,64.912791,0.250000,65.467251,0.023949,0.981733,-1.497178,53.000000,33.000000,0.096420,4.819658,0.009582,0.770713,-0.134352,-0.555050,-0.074714,0.052347,-0.037856,0.029734,0.082544,1.096294,-0.024623,-0.054482,0.001393,-0.012120,-0.000553,-0.010585,-0.007431,-0.037077,0.477232,1.662255,0.523007,0.148820,0.142773,0.051100,2.103253,0.436361,0.163524,0.311708,0.636701,-6.587365,-0.003625,-0.640646,-0.370854,
55.000000,79.020286,-0.024183,0.905839,-1.458875,0.050628,0.063844,0.143666,80.227086,-0.819444,-0.157607,64.912791,0.250000,66.217137,0.007314,0.996421,-1.497554,53.000000,33.000000,0.096420,4.819658,0.009582,0.775326,-0.135222,-0.572118,-0.082128,0.055985,-0.038868,0.031497,0.090582,1.057336,0.002648,-0.073911,0.001393,-0.012120,-0.000553,-0.010585,-0.007431,-0.037077,0.478850,1.662864,0.527590,0.161036,0.155426,0.054133,2.136587,0.494479,0.182899,0.311708,0.636701,-6.587365,-0.003625,-0.640646,-0.370854,
55.500000,79.604226,0.421573,0.195274,-0.433035,0.043963,-20.091413,-10.643947,81.573993,-0.196928,0.676500,66.199924,0.250000,66.692183,0.433748,0.220084,-0.497775,54.000000,34.000000,0.225705,2.532141,0.009582,0.751055,-0.184046,-0.712595,0.003049,0.024224,-0.029523,0.012175,0.024810,1.405063,-0.038729,-0.039841,0.002023,-0.012380,-0.000522,-0.009809,-0.007419,-0.037075,0.461384,1.668623,0.541265,0.148575,0.141143,0.051133,2.139515,0.436073,0.163413,0.978353,-0.136640,5.277267,0.062605,-0.077943,0.054016,
56.000000,79.358837,0.956371,-0.831648,0.717013,0.085282,-10.590475,-5.461890,80.134669,0.967625,0.676971,66.199924,0.250000,66.524543,0.969371,-0.820092,0.715211,54.000000,34.000000,0.225705,2.532141,0.009582,0.779261,-0.159003,-0.662169,0.022703,0.010774,-0.029696,0.013000,0.011556,1.412487,-0.030648,-0.053790,0.002023,-0.012380,-0.000522,-0.009809,-0.007419,-0.037075,0.482870,1.662036,0.539871,0.167438,0.152005,0.054735,2.169372,0.493095,0.182789,0.978353,-0.136640,5.277267,0.062605,-0.077943,0.054016,
56.500000,79.066282,1.137749,-1.213928,0.085720,0.050707,1.267717,1.107942,79.604897,1.430802,0.915093,66.393475,0.250000,66.352484,1.246548,-1.333867,0.076982,55.000000,35.000000,0.061622,6.532173,0.009582,0.664329,-0.040230,-0.255050,0.139629,0.077060,-0.010401,0.108799,-0.119939,1.855961,0.082178,-0.015477,-0.001077,-0.012069,-0.000506,-0.008918,-0.008032,-0.036743,0.487843,1.655870,0.540660,0.147745,0.140929,0.051606,2.106785,0.435554,0.163415,0.829388,-0.092570,-2.522064,0.631870,0.715202,0.750789,
57.000000,78.877815,1.013514,-1.039342,0.032913,0.050598,1.567981,1.036053,79.611540,1.139909,0.807248,66.393475,0.250000,66.331938,1.129480,-1.161499,0.022554,55.000000,35.000000,0.061622,6.532173,0.009582,0.650159,-0.049275,-0.271264,0.142531,0.084433,-0.011078,0.115966,-0.122157,1.926924,0.122801,-0.021121,-0.001077,-0.012069,-0.000506,-0.008918,-0.008032,-0.036743,0.489428,1.656499,0.545210,0.159144,0.153519,0.054524,2.131298,0.492913,0.182875,0.829388,-0.092570,-2.522064,0.631870,0.715202,0.750789,
57.500000,78.709925,0.989775,-1.014168,0.035323,0.050241,-0.877133,-0.452540,79.611140,1.027465,0.782151,66.340545,0.250000,66.328627,1.043483,-1.029060,0.019322,56.000000,36.000000,0.001094,2.369507,0.009582,0.724941,-0.042054,-0.322702,0.030331,0.043695,-0.016625,0.053708,-0.014892,1.539351,-0.032368,-0.039668,-0.000455,-0.012107,-0.000509,-0.009758,-0.007523,-0.036896,0.488200,1.656227,0.549807,0.144032,0.141946,0.051325,2.032164,0.438251,0.163465,-1.071199,-0.506759,2.264779,-0.259569,-0.012974,-0.123724,
58.000000,78.545484,1.014161,-1.071849,0.023840,0.046921,-0.442686,-0.167445,79.618565,1.123720,1.536177,66.340545,0.250000,66.324129,1.072215,-1.083563,0.006827,56.000000,36.000000,0.001094,2.369507,0.009582,0.729730,-0.042612,-0.335254,0.027550,0.047637,-0.017254,0.058054,-0.011714,1.554019,-0.009386,-0.048393,-0.000455,-0.012107,-0.000509,-0.009758,-0.007523,-0.036896,0.489715,1.656892,0.554285,0.156196,0.154553,0.054327,2.048519,0.496101,0.182902,-1.071199,-0.506759,2.264779,-0.259569,-0.012974,-0.123724,
