Time ,gndAlt,velLL X  ,velLL Y  ,velLL Z  ,r,Roll ,Pitch,Yaw  ,gps_velN,gps_velE,Baro Altitude,Baro Altitude RMS,Nav Alt,Nav velLL X,Nav velLL Y,Nav velLL Z,Baro Update Count,GPS Update Count,Baro Chi2,GPS Chi2,Ground Align Chi2,Roll Error,Pitch Error,Yaw Error,Vel N Error,Vel E Error,Vel D Error,velLL X Error,velLL Y Error,N Error (m),E Error (m),Alt Error (m),Acc Bias X Error,Acc Bias Y Error,Acc Bias Z Error,Gyro Bias X Error,Gyro Bias Y Error,Gyro Bias Z Error,Roll Stdev,Pitch Stdev,Yaw Stdev,VN Stdev,VE Stdev,VD Stdev,N Stdev,E Stdev,Alt Stdev,GPSResidual[GPS_N],GPSResidual[GPS_E],GPSResidual[GPS_ALT],GPSResidual[GPS_VN],GPSResidual[GPS_VE],GPSResidual[GPS_VD],
0.500000,0.101886,-0.001489,0.009473,0.002397,-0.010555,14.027753,2.250979,81.065854,-0.530391,0.145103,0.000000,0.250000,0.000000,0.000000,0.000000,0.000000,0.000000,0.000000,0.000000,0.000000,0.000000,0.000000,0.000000,0.000000,0.000000,0.000000,0.000000,0.000000,0.000000,0.000000,0.000000,0.000000,0.000000,0.000000,0.000000,0.000000,0.000000,0.000000,0.000000,0.000000,0.000000,0.000000,0.000000,0.000000,0.000000,0.000000,0.000000,0.000000,0.000000,0.000000,0.000000,0.000000,0.000000,
1.000000,0.101886,-0.001422,0.009057,0.002292,0.047650,14.028408,2.248111,81.077484,-0.306495,0.214901,0.000000,0.250000,0.000000,0.000000,0.000000,0.000000,0.000000,0.000000,0.000000,0.000000,0.000000,0.000000,0.000000,0.000000,0.000000,0.000000,0.000000,0.000000,0.000000,0.000000,0.000000,0.000000,0.000000,0.000000,0.000000,0.000000,0.000000,0.000000,0.000000,0.000000,0.000000,0.000000,0.000000,0.000000,0.000000,0.000000,0.000000,0.000000,0.000000,0.000000,0.000000,0.000000,0.000000,
1.500000,0.101886,-0.001430,0.009121,0.002308,0.053929,14.029014,2.244386,81.092417,0.028672,-0.042251,0.000000,0.250000,0.000000,0.000000,0.000000,0.000000,0.000000,0.000000,0.000000,0.000000,0.000000,0.000000,0.000000,0.000000,0.000000,0.000000,0.000000,0.001430,-0.009121,0.000000,0.000000,-0.000000,0.000000,0.000000,0.000000,0.000000,0.000000,0.000000,8.554585,2.726392,0.000000,0.000000,0.000000,0.000000,0.000000,0.000000,0.000000,0.000000,0.000000,0.000000,0.000000,0.000000,0.000000,
2.000000,0.101929,-0.001403,0.008965,0.002268,0.006621,14.029256,2.241677,81.103140,0.653600,0.127778,0.000000,0.250000,0.000021,0.002053,-0.008820,0.001263,0.000000,0.000000,0.000000,0.000000,0.000000,-3.615658,-0.539215,-81.106686,0.011433,-0.008820,-0.001081,0.003457,-0.017785,0.019149,-0.001738,-0.002764,0.008556,0.061474,-0.013431,-0.008397,-0.009618,-0.039084,8.554631,2.726544,0.028770,0.212318,0.651904,0.121421,0.032977,0.101088,0.018858,0.000000,0.000000,0.000000,0.000000,0.000000,0.000000,
2.500000,0.101928,-0.001491,0.009534,0.002412,0.000375,14.029648,2.239196,81.113080,-0.048693,-0.165818,-0.081037,0.250000,-0.000742,-0.002282,0.016041,0.004586,1.000000,0.000000,0.105369,0.000000,0.020650,-3.493932,-0.519654,-81.119070,0.006863,0.016042,0.002300,-0.000792,0.006508,0.023315,0.002359,-0.003182,0.008853,0.061879,-0.013756,-0.008397,-0.009589,-0.038927,4.920218,1.957710,0.035713,0.091588,0.092721,0.081999,0.034807,0.035221,0.032499,0.000000,0.000000,0.000000,0.000000,0.000000,0.000000,
3.000000,0.101928,-0.001454,0.009307,0.002355,-0.014378,14.030025,2.236595,81.123483,-0.074506,-0.070126,-0.081037,0.250000,-0.003214,-0.004009,0.028829,0.007813,1.000000,0.000000,0.105369,0.000000,0.020650,-3.492595,-0.518761,-81.135772,0.005283,0.028830,0.005492,-0.002555,0.019522,0.026991,0.011398,-0.001891,0.008853,0.061879,-0.013756,-0.008397,-0.009589,-0.038927,4.920358,1.958050,0.051243,0.151208,0.153173,0.133178,0.094171,0.095369,0.085657,0.000000,0.000000,0.000000,0.000000,0.000000,0.000000,
3.500000,0.101928,-0.001472,0.009440,0.002389,0.014404,14.030451,2.233935,81.134142,-0.005965,0.008192,-0.185456,0.250000,-0.001395,0.000025,-0.000929,0.003223,2.000000,0.000000,0.552871,0.000000,0.110350,-3.556172,-0.526240,-81.138400,0.009063,-0.000929,0.000964,0.001498,-0.010369,0.034240,-0.006526,-0.004891,0.008706,0.060907,-0.013961,-0.008383,-0.009498,-0.038425,4.802616,1.930941,0.036067,0.054284,0.054332,0.047502,0.042443,0.042471,0.040482,0.000000,0.000000,0.000000,0.000000,0.000000,0.000000,
4.000000,0.101928,-0.001493,0.009583,0.002425,0.040425,14.030891,2.231341,81.144548,0.286701,0.578814,-0.185456,0.250000,-0.003073,-0.000795,0.003760,0.004926,2.000000,0.000000,0.552871,0.000000,0.110350,-3.555154,-0.525202,-81.154917,0.008835,0.003761,0.002519,0.000699,-0.005823,0.039071,-0.006575,-0.004394,0.008706,0.060907,-0.013961,-0.008383,-0.009498,-0.038425,4.802766,1.931307,0.051473,0.075887,0.075967,0.063153,0.070878,0.070941,0.066465,0.000000,0.000000,0.000000,0.000000,0.000000,0.000000,
4.500000,0.101928,-0.001456,0.009359,0.002368,0.018000,14.031258,2.228817,81.154642,0.473818,0.606440,-0.065291,0.250000,-0.002184,-0.000306,0.000501,0.002347,3.000000,0.000000,0.067071,0.000000,0.021819,-3.547459,-0.524509,-81.165622,0.009100,0.000502,-0.000005,0.001150,-0.008858,0.043852,-0.006303,-0.006464,0.008700,0.060763,-0.014042,-0.008378,-0.009458,-0.038205,4.791262,1.929265,0.042354,0.047223,0.047236,0.039019,0.051700,0.051708,0.048728,0.000000,0.000000,0.000000,0.000000,0.000000,0.000000,
5.000000,0.101928,-0.001478,0.009511,0.002406,0.039331,14.031752,2.226171,81.165294,-0.167737,0.281411,-0.065291,0.250000,-0.003506,-0.001276,0.005806,0.003600,3.000000,0.000000,0.067071,0.000000,0.021819,-3.546391,-0.523398,-81.181929,0.008273,0.005806,0.001213,0.000203,-0.003706,0.048327,-0.004431,-0.006323,0.008700,0.060763,-0.014042,-0.008378,-0.009458,-0.038205,4.791420,1.929651,0.056192,0.063435,0.063456,0.049095,0.072497,0.072514,0.067759,0.000000,0.000000,0.000000,0.000000,0.000000,0.000000,
5.500000,0.101928,-0.001443,0.009293,0.002351,0.012105,14.032114,2.223682,81.175244,-0.095528,-0.201451,-0.132546,0.250000,-0.006774,-0.001001,0.003443,0.003840,4.000000,0.000000,0.268169,0.000000,0.055944,-3.555979,-0.523230,-81.186651,0.008689,0.003443,0.001417,0.000442,-0.005850,0.053284,-0.005076,-0.004235,0.008694,0.060844,-0.014066,-0.008349,-0.009391,-0.037810,4.787528,1.928998,0.041732,0.044600,0.044604,0.035152,0.059048,0.059051,0.055090,0.000000,0.000000,0.000000,0.000000,0.000000,0.000000,
6.000000,0.101929,-0.001463,0.009436,0.002387,0.028539,14.032491,2.221072,81.185677,-0.026790,0.055769,-0.132546,0.250000,-0.008852,-0.001627,0.005343,0.004458,4.000000,0.000000,0.268169,0.000000,0.055944,-3.554528,-0.522196,-81.202916,0.007411,0.005343,0.002199,-0.000163,-0.004093,0.057339,-0.001663,-0.003338,0.008694,0.060844,-0.014066,-0.008349,-0.009391,-0.037810,4.787691,1.929402,0.055682,0.058978,0.058985,0.043242,0.075921,0.075928,0.070435,0.000000,0.000000,0.000000,0.000000,0.000000,0.000000,
6.500000,0.101928,-0.001485,0.009585,0.002425,0.042420,14.032886,2.218500,81.195970,-0.339068,0.038751,0.021239,0.250000,-0.005439,-0.002228,0.010612,0.003193,5.000000,0.000000,0.011019,0.000000,0.018099,-3.552859,-0.522109,-81.215767,0.007405,0.010613,0.000786,-0.000743,0.001027,0.062415,-0.001670,-0.007932,0.008677,0.060718,-0.014114,-0.008294,-0.009388,-0.037710,4.785992,1.929070,0.050050,0.043432,0.043433,0.033099,0.064522,0.064524,0.059729,0.000000,0.000000,0.000000,0.000000,0.000000,0.000000,
7.000000,0.101928,-0.001449,0.009369,0.002370,0.007544,14.033208,2.215948,81.206140,-0.009725,-0.000504,0.021239,0.250000,-0.006996,-0.003269,0.014835,0.003923,5.000000,0.000000,0.011019,0.000000,0.018099,-3.551685,-0.521154,-81.232047,0.006151,0.014837,0.001570,-0.001820,0.005467,0.065944,0.004717,-0.007556,0.008677,0.060718,-0.014114,-0.008294,-0.009388,-0.037710,4.786160,1.929491,0.062343,0.056993,0.056993,0.040213,0.079100,0.079103,0.072764,0.000000,0.000000,0.000000,0.000000,0.000000,0.000000,
7.500000,0.101928,-0.001473,0.009530,0.002411,0.016517,14.033686,2.213300,81.216790,0.146820,0.457845,-0.269398,0.250000,-0.019464,-0.001604,0.005631,0.005804,6.000000,0.000000,1.068262,0.000000,0.088538,-3.576686,-0.522153,-81.238624,0.007537,0.005632,0.003519,-0.000132,-0.003899,0.072421,-0.004019,0.003731,0.008656,0.060907,-0.014125,-0.008095,-0.009375,-0.037409,4.785688,1.929272,0.047236,0.042863,0.042862,0.031914,0.068420,0.068421,0.062928,0.000000,0.000000,0.000000,0.000000,0.000000,0.000000,
8.000000,0.101929,-0.001438,0.009319,0.002357,-0.023450,14.034057,2.210659,81.227338,-0.025482,-0.016637,-0.269398,0.250000,-0.021947,-0.002486,0.008567,0.006635,6.000000,0.000000,1.068262,0.000000,0.088538,-3.575499,-0.521090,-81.254487,0.006814,0.008568,0.004310,-0.001047,-0.000752,0.076651,-0.002669,0.005032,0.008656,0.060907,-0.014125,-0.008095,-0.009375,-0.037409,4.785861,1.929708,0.060006,0.056018,0.056015,0.038459,0.081609,0.081611,0.074447,0.000000,0.000000,0.000000,0.000000,0.000000,0.000000,
8.500000,0.101928,-0.001396,0.009054,0.002290,0.020746,14.034470,2.208149,81.237397,-0.286416,-0.325472,0.068124,0.250000,-0.011435,-0.001479,0.004290,0.002011,7.000000,0.000000,0.106775,0.000000,0.044095,-3.577783,-0.521154,-81.269817,0.007980,0.004290,-0.000353,-0.000084,-0.004765,0.082447,-0.007015,-0.006661,0.008633,0.060830,-0.014192,-0.007946,-0.009411,-0.037386,4.785400,1.929477,0.056678,0.042573,0.042571,0.031166,0.071104,0.071105,0.065015,0.000000,0.000000,0.000000,0.000000,0.000000,0.000000,
9.000000,0.101929,-0.001421,0.009230,0.002335,0.022148,14.034941,2.205588,81.247702,-0.197024,0.047833,0.068124,0.250000,-0.011774,-0.002057,0.005190,0.002176,7.000000,0.000000,0.106775,0.000000,0.044095,-3.576659,-0.520105,-81.285843,0.007579,0.005191,-0.000232,-0.000636,-0.004040,0.086875,-0.007237,-0.007502,0.008633,0.060830,-0.014192,-0.007946,-0.009411,-0.037386,4.785578,1.929925,0.067894,0.055519,0.055515,0.037336,0.083446,0.083447,0.075526,0.000000,0.000000,0.000000,0.000000,0.000000,0.000000,
9.500000,0.101929,-0.001445,0.009399,0.002378,0.021160,14.035354,2.203061,81.257836,0.241613,0.652205,-0.030227,0.250000,-0.011866,-0.000926,-0.000001,0.001073,8.000000,0.000000,0.005901,0.000000,0.024966,-3.585475,-0.520258,-81.295744,0.008501,-0.000001,-0.001284,0.000519,-0.009401,0.092505,-0.009980,-0.008591,0.008619,0.060909,-0.014219,-0.007831,-0.009414,-0.037196,4.784932,1.929647,0.053594,0.042425,0.042422,0.030656,0.072912,0.072913,0.066310,0.000000,0.000000,0.000000,0.000000,0.000000,0.000000,
10.000000,0.101929,-0.001468,0.009560,0.002418,0.017707,14.035618,2.200383,81.268461,-0.009337,0.046134,-0.030227,0.250000,-0.012537,-0.001754,0.002231,0.001452,8.000000,0.000000,0.005901,0.000000,0.024966,-3.584768,-0.519278,-81.311643,0.007415,0.002233,-0.000840,-0.000285,-0.007329,0.096528,-0.008002,-0.009100,0.008619,0.060909,-0.014219,-0.007831,-0.009414,-0.037196,4.785114,1.930104,0.065235,0.055264,0.055258,0.036557,0.084738,0.084738,0.076142,0.000000,0.000000,0.000000,0.000000,0.000000,0.000000,
10.500000,0.807935,-0.100600,0.798733,-1.418719,0.044649,-4.487045,-0.575616,80.911113,-1.049866,-0.085843,-0.241408,0.250000,0.608467,-0.088401,0.715961,-1.510541,9.000000,0.000000,0.948850,0.000000,0.005858,-3.607922,-0.539805,-81.151305,0.725285,0.689331,-0.090032,0.012199,-0.082771,0.389754,0.268960,-0.020502,0.008625,0.060963,-0.014203,-0.007781,-0.009434,-0.037119,4.783469,1.929518,0.239827,0.067252,0.119876,0.123019,0.077178,0.089818,0.073675,0.000000,0.000000,0.000000,0.000000,0.000000,0.000000,
11.000000,1.567596,-0.048492,0.341908,-1.336219,0.045642,-3.898535,-0.416229,80.907832,-0.381587,-0.014492,-0.241408,0.250000,1.362200,-0.033992,0.243990,-1.502760,9.000000,0.000000,0.948850,0.000000,0.005858,-3.568821,-0.541629,-81.175594,0.318627,0.237683,-0.165412,0.014500,-0.097918,0.648119,0.497241,-0.084607,0.008625,0.060963,-0.014203,-0.007781,-0.009434,-0.037119,4.783466,1.929957,0.232133,0.076520,0.100421,0.228056,0.098057,0.131546,0.138960,0.000000,0.000000,0.000000,0.000000,0.000000,0.000000,
11.500000,2.264109,-0.031120,0.154598,-1.311820,0.046908,-0.845295,-0.040418,80.902316,0.029266,0.006700,1.397691,0.250000,2.084299,-0.015101,0.047167,-1.500468,10.000000,0.000000,0.113984,0.000000,0.005858,-2.828604,-0.532929,-81.244382,0.144175,0.053397,-0.187821,0.016018,-0.107432,0.753765,0.577515,-0.138774,0.008412,0.047225,-0.011645,-0.007787,-0.009440,-0.037109,4.241326,1.929809,0.186370,0.087242,0.087414,0.288423,0.128507,0.160225,0.228780,0.000000,0.000000,0.000000,0.000000,0.000000,0.000000,
12.000000,2.923200,-0.032058,0.141383,-1.249690,0.047942,0.238425,0.037902,80.912205,-0.287782,0.236465,1.397691,0.250000,2.835237,-0.013736,0.020841,-1.498851,10.000000,0.000000,0.113984,0.000000,0.005858,-2.833488,-0.537371,-81.264380,0.130736,0.030253,-0.248332,0.018322,-0.120542,0.819082,0.594503,-0.248035,0.008412,0.047225,-0.011645,-0.007787,-0.009440,-0.037109,4.241494,1.930284,0.185212,0.097672,0.087814,0.376564,0.166469,0.194589,0.389923,0.000000,0.000000,0.000000,0.000000,0.000000,0.000000,
12.500000,3.574957,-0.033037,0.142544,-1.252226,0.049820,-0.167728,-0.004042,80.922256,-0.303738,-0.578273,2.892175,0.250000,3.526384,-0.014152,0.011751,-1.499665,11.000000,0.000000,0.025179,0.000000,0.005858,-2.271328,-0.526872,-81.299836,0.132162,0.021949,-0.246754,0.018885,-0.130793,0.884586,0.628442,-0.306123,0.008243,0.036918,-0.009735,-0.007789,-0.009445,-0.037101,2.351449,1.929135,0.133487,0.108702,0.095461,0.245403,0.210472,0.190514,0.304231,0.000000,0.000000,0.000000,0.000000,0.000000,0.000000,
13.000000,4.206791,-0.032628,0.136206,-1.201533,0.044553,0.061365,0.007677,80.932668,-0.313565,-0.192391,2.892175,0.250000,4.276923,-0.011390,-0.007823,-1.498143,11.000000,0.000000,0.025179,0.000000,0.005858,-2.271004,-0.529767,-81.316262,0.128140,0.003017,-0.295841,0.021239,-0.144030,0.949050,0.633654,-0.442019,0.008243,0.036918,-0.009735,-0.007789,-0.009445,-0.037101,2.351864,1.929628,0.138954,0.119931,0.107969,0.291318,0.260988,0.230501,0.435090,0.000000,0.000000,0.000000,0.000000,0.000000,0.000000,
13.500000,4.943603,-0.026497,0.072023,-1.513679,0.051642,-1.232655,-0.116479,80.945077,-0.333046,0.445799,3.772000,0.250000,4.525166,-0.012859,-0.097569,-1.507178,12.000000,0.000000,1.487811,0.000000,0.005858,0.115831,-0.472878,-81.425382,0.063551,-0.082745,0.006587,0.013638,-0.169592,0.982882,0.703986,0.028721,0.007443,-0.006937,-0.001645,-0.007789,-0.009467,-0.037067,1.309717,1.929539,0.124133,0.136635,0.121674,0.166402,0.319221,0.269385,0.281161,0.000000,0.000000,0.000000,0.000000,0.000000,0.000000,
14.000000,5.703046,-0.020273,0.022985,-1.501411,0.045998,0.105896,-0.017354,80.954679,0.118114,0.183320,3.772000,0.250000,5.278044,-0.004732,-0.173118,-1.500655,12.000000,0.000000,1.487811,0.000000,0.005858,0.116264,-0.476592,-81.441255,0.019619,-0.156613,0.000733,0.015541,-0.196103,0.999169,0.639296,0.030326,0.007443,-0.006937,-0.001645,-0.007789,-0.009467,-0.037067,1.310492,1.930050,0.129668,0.148383,0.135076,0.186025,0.384490,0.326139,0.365984,0.000000,0.000000,0.000000,0.000000,0.000000,0.000000,
14.500000,6.475232,-0.019897,0.053361,-1.541204,0.050752,0.470190,0.008261,80.965132,0.024773,0.045984,5.285226,0.250000,5.938442,-0.003782,-0.169724,-1.500063,13.000000,0.000000,0.078503,0.000000,0.005858,0.379807,-0.470440,-81.467466,0.049870,-0.158309,0.040988,0.016114,-0.223085,1.011617,0.567954,0.136901,0.007307,-0.011834,-0.000747,-0.007787,-0.009470,-0.037063,0.904201,1.930292,0.130582,0.161293,0.148758,0.120223,0.455655,0.388843,0.252902,0.000000,0.000000,0.000000,0.000000,0.000000,0.000000,
15.000000,7.255315,-0.021092,0.097759,-1.537340,0.048579,0.546133,0.025149,80.976221,-0.194023,0.253210,5.285226,0.250000,6.689176,-0.002830,-0.150228,-1.498371,13.000000,0.000000,0.078503,0.000000,0.005858,0.379885,-0.473273,-81.483558,0.094888,-0.144601,0.038861,0.018262,-0.247987,1.047815,0.491731,0.156617,0.007307,-0.011834,-0.000747,-0.007787,-0.009470,-0.037063,0.905396,1.930833,0.136915,0.174134,0.162872,0.132277,0.533226,0.460154,0.312344,0.000000,0.000000,0.000000,0.000000,0.000000,0.000000,
15.500000,8.015327,-0.025138,0.150567,-1.469143,0.046410,0.669586,0.069457,80.987877,-0.367875,0.224554,7.067315,0.250000,7.593375,-0.002026,-0.116311,-1.496796,14.000000,0.000000,0.353365,0.000000,0.005858,0.065125,-0.498602,-81.487355,0.148600,-0.114985,-0.027657,0.023112,-0.266878,1.117347,0.419703,-0.002571,0.007668,-0.006026,-0.001809,-0.007792,-0.009467,-0.037068,0.735108,1.931020,0.141566,0.186593,0.176971,0.095913,0.616436,0.538501,0.231701,0.000000,0.000000,0.000000,0.000000,0.000000,0.000000,
16.000000,8.771429,-0.029601,0.198546,-1.462990,0.051843,0.478662,0.042585,80.997693,-0.206476,0.073145,7.067315,0.250000,8.343105,-0.003842,-0.090808,-1.497695,14.000000,0.000000,0.353365,0.000000,0.005858,0.068501,-0.500808,-81.503302,0.195378,-0.092548,-0.034709,0.025759,-0.289354,1.204202,0.368322,-0.018417,0.007668,-0.006026,-0.001809,-0.007792,-0.009467,-0.037068,0.736669,1.931577,0.147812,0.200526,0.191828,0.105029,0.706242,0.624269,0.277681,0.000000,0.000000,0.000000,0.000000,0.000000,0.000000,
16.500000,9.549045,-0.029895,0.229282,-1.509015,0.050286,0.311087,-0.013469,81.007288,-0.292686,-0.041921,8.229813,0.250000,8.951075,-0.003845,-0.088585,-1.499060,15.000000,0.000000,0.426111,0.000000,0.005858,0.291688,-0.470285,-81.527746,0.226057,-0.094759,0.009780,0.026050,-0.317867,1.298889,0.321163,0.123632,0.007129,-0.010070,-0.001068,-0.007789,-0.009469,-0.037065,0.657250,1.931520,0.153423,0.215514,0.207004,0.082300,0.802969,0.717544,0.216473,0.000000,0.000000,0.000000,0.000000,0.000000,0.000000,
17.000000,10.333745,-0.029861,0.257629,-1.504340,0.046089,0.394074,0.025712,81.018249,-0.709783,0.510184,8.229813,0.250000,9.701462,-0.000790,-0.083972,-1.497899,15.000000,0.000000,0.426111,0.000000,0.005858,0.292039,-0.473333,-81.543695,0.257017,-0.094627,0.006356,0.029071,-0.341602,1.419693,0.273204,0.127424,0.007129,-0.010070,-0.001068,-0.007789,-0.009469,-0.037065,0.659044,1.932108,0.159324,0.230363,0.222630,0.089545,0.907025,0.818448,0.254602,0.000000,0.000000,0.000000,0.000000,0.000000,0.000000,
17.500000,11.100855,-0.036017,0.293970,-1.448714,0.046068,0.476803,0.109778,81.029473,-0.291278,0.009369,10.129168,0.250000,10.605767,-0.000547,-0.064142,-1.496337,16.000000,0.000000,0.653789,0.000000,0.005858,0.104016,-0.526701,-81.552321,0.294155,-0.074443,-0.047675,0.035470,-0.358112,1.574996,0.237365,-0.043863,0.007984,-0.006598,-0.001711,-0.007789,-0.009468,-0.037067,0.618474,1.931718,0.164827,0.245098,0.238357,0.074115,1.017788,0.927015,0.205314,0.000000,0.000000,0.000000,0.000000,0.000000,0.000000,
18.000000,11.864037,-0.042966,0.329139,-1.443402,0.052143,0.392957,0.061787,81.039145,-0.321137,-0.096476,10.129168,0.250000,11.355417,-0.004072,-0.051221,-1.497610,16.000000,0.000000,0.653789,0.000000,0.005858,0.106712,-0.528585,-81.568166,0.326705,-0.060005,-0.054292,0.038894,-0.380360,1.730603,0.203998,-0.069612,0.007984,-0.006598,-0.001711,-0.007789,-0.009468,-0.037067,0.620488,1.932322,0.170688,0.260948,0.254798,0.080460,1.136216,1.043567,0.238604,0.000000,0.000000,0.000000,0.000000,0.000000,0.000000,
18.500000,12.647639,-0.042182,0.356840,-1.488613,0.052541,0.324274,-0.043517,81.049412,-0.008061,-0.311897,11.155511,0.250000,11.940268,-0.003618,-0.053602,-1.499154,17.000000,0.000000,0.914950,0.000000,0.005858,0.273380,-0.458571,-81.591025,0.354507,-0.067270,-0.010681,0.038563,-0.410443,1.875691,0.158461,0.085457,0.006755,-0.009624,-0.001140,-0.007792,-0.009468,-0.037065,0.598475,1.931498,0.176412,0.277740,0.271686,0.069033,1.262412,1.168225,0.197134,0.000000,0.000000,0.000000,0.000000,0.000000,0.000000,
19.000000,13.437925,-0.040804,0.383559,-1.483871,0.050791,0.363329,0.028307,81.059983,-0.042546,-0.166487,11.155511,0.250000,12.690675,0.001671,-0.049882,-1.498262,17.000000,0.000000,0.914950,0.000000,0.005858,0.274220,-0.461800,-81.606503,0.385940,-0.069142,-0.014533,0.042475,-0.433442,2.061110,0.123756,0.078904,0.006755,-0.009624,-0.001140,-0.007792,-0.009468,-0.037065,0.600602,1.932133,0.181966,0.294474,0.288949,0.074637,1.396986,1.301346,0.227293,0.000000,0.000000,0.000000,0.000000,0.000000,0.000000,
19.500000,14.235562,-0.042796,0.412318,-1.495775,0.048731,0.369559,0.029101,81.070280,-0.095725,0.422105,12.709882,0.250000,13.386637,0.002271,-0.046579,-1.498430,18.000000,0.000000,0.114721,0.000000,0.005858,0.320433,-0.435577,-81.624254,0.415280,-0.068275,-0.002829,0.045068,-0.458897,2.250749,0.082621,0.130519,0.006255,-0.010449,-0.000980,-0.007795,-0.009467,-0.037065,0.588187,1.930894,0.187472,0.311796,0.306587,0.065605,1.539511,1.442886,0.191053,0.000000,0.000000,0.000000,0.000000,0.000000,0.000000,
20.000000,15.036825,-0.045921,0.440874,-1.491958,0.045821,0.369119,0.057232,81.081094,-0.476555,-0.138178,12.709882,0.250000,14.136813,0.003419,-0.040919,-1.497781,18.000000,0.000000,0.114721,0.000000,0.005858,0.322066,-0.438470,-81.640150,0.445177,-0.063932,-0.005871,0.049339,-0.481794,2.466175,0.049264,0.128100,0.006255,-0.010449,-0.000980,-0.007795,-0.009467,-0.037065,0.590438,1.931552,0.192961,0.329443,0.324686,0.070729,1.690865,1.593312,0.219089,0.000000,0.000000,0.000000,0.000000,0.000000,0.000000,
20.500000,15.855115,-0.071505,1.136536,-1.455441,0.053859,14.389497,0.455556,81.130441,-1.295013,0.112515,14.450450,0.250000,14.965411,-0.015091,0.605426,-1.490761,19.000000,0.000000,0.283229,0.000000,0.005858,0.278465,-0.489349,-81.652037,1.103021,0.503617,-0.035540,0.056414,-0.531109,2.813710,0.118078,0.034585,0.007109,-0.009419,-0.001186,-0.007789,-0.009468,-0.037065,0.582544,1.930264,0.197986,0.347206,0.343003,0.063180,1.850358,1.752484,0.186483,0.000000,0.000000,0.000000,0.000000,0.000000,0.000000,
21.000000,16.805782,-0.110905,2.487447,-1.447614,0.052771,16.098248,0.490200,81.150368,-2.598985,0.434745,14.450450,0.250000,15.712369,-0.050436,1.932198,-1.493131,19.000000,0.000000,0.283229,0.000000,0.005858,0.266291,-0.488584,-81.667899,2.417811,1.662527,-0.045696,0.060469,-0.555249,3.689128,0.654926,0.013984,0.007109,-0.009419,-0.001186,-0.007789,-0.009468,-0.037065,0.584703,1.931000,0.203282,0.365804,0.361944,0.068246,2.019097,1.920978,0.212983,0.000000,0.000000,0.000000,0.000000,0.000000,0.000000,
21.500000,17.914535,-0.151268,3.858192,-1.417957,0.055656,16.264002,0.537650,81.174936,-3.728766,-0.100011,16.033698,0.250000,16.542012,-0.084907,3.284467,-1.495443,20.000000,0.000000,0.316919,0.000000,0.005858,0.215696,-0.541195,-7.543185,0.636742,0.404654,-0.077569,0.066361,-0.573724,3.342618,0.106625,-0.101157,0.008046,-0.008531,-0.001371,-0.007746,-0.009470,-0.037066,0.580144,1.929395,0.208506,0.384690,0.381235,0.062579,2.196486,2.098832,0.183015,0.000000,0.000000,0.000000,0.000000,0.000000,0.000000,
22.000000,19.184554,-0.192827,5.192068,-1.407802,0.053657,16.276653,0.542927,81.187230,-4.954825,0.346550,16.033698,0.250000,17.291075,-0.123451,4.600107,-1.496339,20.000000,0.000000,0.316919,0.000000,0.005858,0.216841,-0.539604,-7.559136,0.689189,0.576129,-0.088607,0.069375,-0.591961,3.674379,0.352303,-0.142987,0.008046,-0.008531,-0.001371,-0.007746,-0.009470,-0.037066,0.582554,1.930104,0.213738,0.404277,0.401041,0.068127,2.383667,2.286295,0.208662,0.000000,0.000000,0.000000,0.000000,0.000000,0.000000,
22.500000,20.633945,-0.226884,6.468171,-1.454952,0.052816,16.071402,0.196228,81.097636,-6.481602,0.770477,17.085093,0.250000,17.889170,-0.373526,6.235672,-1.498593,21.000000,1.000000,0.995033,1.407299,0.005858,0.450309,-0.140739,-6.781067,0.299746,0.552343,-0.043692,-0.146642,-0.232499,1.487311,-0.172816,-0.017815,0.002920,-0.009154,-0.001125,-0.011900,-0.007424,-0.037255,0.528021,1.775969,0.219113,0.207928,0.160380,0.060909,0.916671,0.672924,0.179604,-2.499149,-0.824076,-0.379538,-0.628037,-0.064236,0.017880,
23.000000,22.237224,-0.233057,7.643353,-1.448359,0.055140,16.042101,0.144615,81.093268,-7.584967,0.981071,17.085093,0.250000,18.639394,-0.386841,7.411550,-1.497678,21.000000,1.000000,0.995033,1.407299,0.005858,0.454583,-0.136762,-6.796751,0.327973,0.683561,-0.049413,-0.153784,-0.231804,1.644522,0.136742,-0.041383,0.002920,-0.009154,-0.001125,-0.011900,-0.007424,-0.037255,0.530254,1.775969,0.224307,0.223439,0.173864,0.065490,1.002837,0.732759,0.204202,-2.499149,-0.824076,-0.379538,-0.628037,-0.064236,0.017880,
23.500000,23.935799,-0.078808,7.414161,-1.435181,0.057147,-18.748683,-4.334280,80.231623,-6.776023,1.514828,18.729409,0.250000,19.363231,-0.203633,7.290580,-1.490928,22.000000,2.000000,0.008217,1.785675,0.005858,0.460329,-0.172924,-2.462687,0.185028,0.164528,-0.049730,-0.124825,-0.123581,1.583940,-0.403741,-0.037080,0.003418,-0.009508,-0.001073,-0.012353,-0.007841,-0.037207,0.542621,1.760610,0.236549,0.223537,0.152959,0.058906,0.916348,0.532093,0.177042,-0.270080,-0.710393,-4.872788,-0.270412,-0.695918,0.124318,
24.000000,25.425749,0.083414,5.096473,-1.429635,0.060663,-25.016818,-1.994174,79.244090,-4.995439,1.028712,18.729409,0.250000,20.107426,-0.036208,4.987776,-1.488574,22.000000,2.000000,0.008217,1.785675,0.005858,0.510766,-0.173150,-2.456006,0.169624,0.065427,-0.058847,-0.119622,-0.108697,1.673111,-0.345282,-0.064590,0.003418,-0.009508,-0.001073,-0.012353,-0.007841,-0.037207,0.563947,1.754197,0.236974,0.239241,0.166844,0.061610,1.011788,0.584908,0.200408,-0.270080,-0.710393,-4.872788,-0.270412,-0.695918,0.124318,
24.500000,26.624871,0.151742,2.656935,-1.460185,0.059497,-25.589446,-0.721363,78.652084,-2.575708,0.660676,19.939446,0.250000,20.723735,0.024748,2.663857,-1.496073,23.000000,3.000000,0.789334,2.930492,0.005858,0.638256,-0.125478,-1.503912,0.024935,-0.062444,-0.036029,-0.126994,0.006922,1.188298,-0.590398,0.046335,0.002605,-0.010313,-0.000889,-0.013997,-0.007782,-0.037228,0.571602,1.741340,0.240126,0.254633,0.155632,0.057150,1.113337,0.479691,0.174192,-1.087011,-0.375266,-5.568361,-0.243942,-0.077192,-0.059925,
25.000000,27.560350,0.174154,0.965892,-1.481659,0.050964,-8.514331,-0.094649,78.435281,-0.916110,0.365259,19.939446,0.250000,21.478683,0.044353,0.939709,-1.517831,23.000000,3.000000,0.789334,2.930492,0.005858,0.689185,-0.132329,-1.509569,0.020326,-0.111256,-0.037045,-0.129802,-0.026182,1.198804,-0.635440,0.027632,0.002605,-0.010313,-0.000889,-0.013997,-0.007782,-0.037228,0.578201,1.739862,0.244503,0.271717,0.170399,0.062034,1.227724,0.534331,0.196513,-1.087011,-0.375266,-5.568361,-0.243942,-0.077192,-0.059925,
25.500000,28.399260,0.154451,0.752078,-1.488786,0.048273,1.112616,0.379527,78.416934,-0.705132,0.273012,21.446622,0.250000,22.157577,0.064005,0.739507,-1.507270,24.000000,4.000000,0.215194,1.643496,0.005858,0.660768,0.001032,-0.578200,-0.005109,-0.084268,-0.018533,-0.090446,-0.012570,1.043174,-0.857083,0.094877,-0.000278,-0.010262,-0.000791,-0.014418,-0.008360,-0.037187,0.572226,1.724094,0.249159,0.259378,0.159857,0.057425,1.253407,0.459340,0.172321,-0.401574,-0.475101,-2.930636,0.032960,0.265009,0.357778,
26.000000,29.237960,0.130794,0.870978,-1.480248,0.047538,1.163350,0.132320,78.421070,-0.827167,0.302866,21.446622,0.250000,22.910387,0.038268,0.864591,-1.500694,24.000000,4.000000,0.215194,1.643496,0.005858,0.655372,0.001502,-0.596903,-0.011801,-0.083070,-0.020405,-0.092526,-0.006387,1.039314,-0.898779,0.084892,-0.000278,-0.010262,-0.000791,-0.014418,-0.008360,-0.037187,0.574122,1.724270,0.254367,0.275731,0.174678,0.060786,1.370545,0.518081,0.194680,-0.401574,-0.475101,-2.930636,0.032960,0.265009,0.357778,
26.500000,30.089584,0.123602,0.912466,-1.489082,0.048387,0.128217,0.042256,78.430114,-0.871299,0.302492,22.897393,0.250000,23.607059,0.036076,0.923684,-1.499330,25.000000,5.000000,0.230822,0.876632,0.005858,0.670482,0.057201,-0.154320,-0.028057,-0.081134,-0.010345,-0.087526,0.011217,0.967930,-1.086194,0.132794,-0.001331,-0.010355,-0.000731,-0.014523,-0.008450,-0.037194,0.565913,1.705405,0.259373,0.251404,0.162082,0.055976,1.348206,0.452988,0.171304,-0.185788,-0.513145,-0.675154,0.059961,0.258842,-0.158849,
27.000000,30.942627,0.120209,0.906348,-1.486356,0.048788,-0.000044,0.026595,78.440327,-0.823789,0.661213,22.897393,0.250000,24.357572,0.031608,0.925779,-1.498219,25.000000,5.000000,0.230822,0.876632,0.005858,0.677775,0.055463,-0.170381,-0.036017,-0.080306,-0.012087,-0.088601,0.019431,0.952157,-1.126394,0.126938,-0.001331,-0.010355,-0.000731,-0.014523,-0.008450,-0.037194,0.567604,1.705767,0.264391,0.266544,0.176836,0.059484,1.460730,0.515272,0.193307,-0.185788,-0.513145,-0.675154,0.059961,0.258842,-0.158849,
27.500000,31.802463,0.021666,0.947414,-1.499972,0.050517,0.907849,1.848902,78.465247,-1.021040,0.294106,24.415050,0.250000,25.059793,0.141198,0.898927,-1.498565,26.000000,6.000000,0.022973,4.745115,0.005858,0.518905,0.422478,0.920233,0.064622,0.091170,0.001210,0.119532,-0.048487,1.181389,-0.744609,0.174145,-0.010031,-0.008791,-0.000737,-0.013404,-0.010876,-0.036976,0.557965,1.688361,0.268788,0.234358,0.161963,0.054943,1.394665,0.452407,0.170282,0.234549,0.594903,-5.105200,0.759721,0.591013,0.299310,
28.000000,32.672971,-0.087981,0.994154,-1.497100,0.048293,0.348437,0.652570,78.462968,-1.564883,0.333529,24.415050,0.250000,25.810036,0.038832,0.949448,-1.497828,26.000000,6.000000,0.022973,4.745115,0.005858,0.523717,0.420571,0.893282,0.065109,0.099958,-0.000891,0.126813,-0.044706,1.214147,-0.696711,0.173956,-0.010031,-0.008791,-0.000737,-0.013404,-0.010876,-0.036976,0.559781,1.688669,0.273965,0.248158,0.176438,0.058484,1.497084,0.516720,0.191772,0.234549,0.594903,-5.105200,0.759721,0.591013,0.299310,
28.500000,33.550940,-0.113296,0.990242,-1.507004,0.048164,-0.110297,0.116974,78.471770,-1.184969,-0.583768,25.831939,0.250000,26.516222,0.024582,0.967415,-1.498214,27.000000,7.000000,0.123695,0.786124,0.005858,0.553936,0.429428,0.883746,0.046959,0.115745,0.008548,0.137878,-0.022828,1.180108,-0.606406,0.221075,-0.010152,-0.009017,-0.000679,-0.013636,-0.010890,-0.036977,0.550209,1.674700,0.279129,0.213329,0.160135,0.054634,1.399664,0.451563,0.169208,-0.145345,0.138157,3.445352,-0.060436,-0.088780,0.228934,
29.000000,34.427966,-0.120969,0.977142,-1.504837,0.050995,0.026278,0.127993,78.482181,-1.006634,0.088244,25.831939,0.250000,27.266394,0.027231,0.958189,-1.497781,27.000000,7.000000,0.123695,0.786124,0.005858,0.557073,0.426642,0.867991,0.045054,0.127088,0.006840,0.148199,-0.018953,1.203351,-0.545553,0.224677,-0.010152,-0.009017,-0.000679,-0.013636,-0.010890,-0.036977,0.551820,1.675260,0.284057,0.226039,0.174265,0.058426,1.489085,0.516525,0.190409,-0.145345,0.138157,3.445352,-0.060436,-0.088780,0.228934,
29.500000,35.295796,-0.118491,0.974165,-1.483204,0.047228,0.081651,-0.090828,78.492519,-1.395667,0.017091,27.674827,0.250000,28.109710,0.008525,0.961414,-1.497016,28.000000,8.000000,0.835491,1.490801,0.005858,0.561743,0.359095,0.627108,0.035758,0.111782,-0.014013,0.127016,-0.012751,1.223927,-0.509817,0.126882,-0.008638,-0.008956,-0.000760,-0.013637,-0.010474,-0.036984,0.542219,1.664843,0.289063,0.194695,0.157436,0.054974,1.397216,0.451646,0.168494,0.048494,0.162024,-0.037011,-0.064058,-0.414224,0.439176,
30.000000,36.159953,-0.117156,0.972911,-1.481320,0.047795,0.080057,0.093660,78.503218,-1.135327,0.919061,27.674827,0.250000,28.859515,0.019331,0.965350,-1.497122,28.000000,8.000000,0.835491,1.490801,0.005858,0.566098,0.354823,0.612912,0.032408,0.122048,-0.016064,0.136487,-0.007560,1.241210,-0.451223,0.119101,-0.008638,-0.008956,-0.000760,-0.013637,-0.010474,-0.036984,0.543767,1.665478,0.293864,0.206697,0.171244,0.058869,1.474323,0.516318,0.189727,0.048494,0.162024,-0.037011,-0.064058,-0.414224,0.439176,
30.500000,37.016952,-0.151826,0.945151,-1.465657,0.049062,-0.410271,0.607142,78.511706,-0.972894,-0.016306,29.166320,0.250000,29.670660,0.036492,0.990974,-1.497380,29.000000,9.000000,0.314413,0.833311,0.005858,0.586430,0.311256,0.810299,-0.010022,0.178989,-0.031929,0.188318,0.045823,1.096714,-0.187769,0.043827,-0.008302,-0.008691,-0.000824,-0.014175,-0.010861,-0.036961,0.533998,1.656671,0.298526,0.179503,0.154571,0.055516,1.394278,0.451437,0.168308,-0.373349,0.528227,-0.658098,-0.025683,-0.121977,0.178514,
31.000000,37.867963,-0.189149,0.915067,-1.463502,0.050174,-0.094287,0.290466,78.523310,-1.028138,0.143001,29.166320,0.250000,30.420554,0.009707,0.968681,-1.497593,29.000000,9.000000,0.314413,0.833311,0.005858,0.589626,0.310059,0.791271,-0.015471,0.191974,-0.034295,0.198855,0.053614,1.090609,-0.094857,0.027022,-0.008302,-0.008691,-0.000824,-0.014175,-0.010861,-0.036961,0.535550,1.657327,0.303512,0.191161,0.168113,0.059462,1.460404,0.515292,0.189766,-0.373349,0.528227,-0.658098,-0.025683,-0.121977,0.178514,
31.500000,38.712926,-0.186612,0.923798,-1.450611,0.045189,0.351824,-0.175977,78.532885,-0.933615,-0.008240,30.687545,0.250000,31.210220,-0.005418,0.956353,-1.497068,30.000000,10.000000,0.218759,5.535178,0.005858,0.552930,0.378174,0.644246,0.001764,0.173872,-0.046620,0.181194,0.032555,1.168292,-0.094789,-0.034496,-0.009200,-0.008344,-0.000875,-0.013846,-0.010498,-0.036974,0.525436,1.647855,0.308574,0.168438,0.152063,0.056046,1.399710,0.450737,0.168551,0.169637,-0.141800,-11.517153,0.099012,-0.197858,-0.071228,
32.000000,39.557293,-0.179211,0.936772,-1.448830,0.048453,0.116512,0.064181,78.543754,-0.718400,-0.530477,30.687545,0.250000,31.960106,0.012727,0.977381,-1.497832,30.000000,10.000000,0.218759,5.535178,0.005858,0.559125,0.374281,0.630851,-0.003957,0.185620,-0.049154,0.191938,0.040609,1.167995,-0.004782,-0.058681,-0.009200,-0.008344,-0.000875,-0.013846,-0.010498,-0.036974,0.526922,1.648579,0.313298,0.180033,0.165414,0.060040,1.456849,0.513665,0.190297,0.169637,-0.141800,-11.517153,0.099012,-0.197858,-0.071228,
32.500000,40.405057,-0.115551,0.973366,-1.454234,0.047618,0.755163,-1.208208,78.544246,-0.975001,0.072549,32.021023,0.250000,32.681006,-0.051440,0.946170,-1.497752,31.000000,11.000000,0.052161,2.991664,0.005858,0.544266,0.413045,0.131085,0.038450,0.057345,-0.043749,0.064112,-0.027195,1.376747,-0.466868,-0.052063,-0.008565,-0.008804,-0.000829,-0.012992,-0.009066,-0.037020,0.516802,1.637454,0.318888,0.160299,0.149999,0.056421,1.406557,0.449647,0.169028,0.547407,-1.230884,3.123284,0.008219,-0.237466,0.098810,
33.000000,41.256160,-0.050242,1.007649,-1.452256,0.046522,0.229433,-0.251748,78.562764,-0.997979,0.162372,32.021023,0.250000,33.431096,0.020319,0.986271,-1.498181,31.000000,11.000000,0.052161,2.991664,0.005858,0.550077,0.410295,0.124187,0.034346,0.063334,-0.045985,0.070561,-0.021377,1.395193,-0.436559,-0.074749,-0.008565,-0.008804,-0.000829,-0.012992,-0.009066,-0.037020,0.517944,1.638293,0.323086,0.172012,0.163220,0.060357,1.455975,0.511661,0.191019,0.547407,-1.230884,3.123284,0.008219,-0.237466,0.098810,
33.500000,42.122586,-0.058874,0.985178,-1.491618,0.047418,-0.381406,0.305897,78.571767,-0.923536,0.109920,33.228251,0.250000,34.031522,0.015535,1.001610,-1.499109,32.000000,12.000000,0.913846,5.928360,0.005858,0.673128,0.152616,0.162174,-0.001333,0.072842,-0.007703,0.074409,0.016431,1.248033,-0.332880,0.066943,-0.004049,-0.010578,-0.000626,-0.013058,-0.009082,-0.036998,0.507079,1.625559,0.327618,0.154530,0.148323,0.056349,1.410992,0.447803,0.169505,-0.521661,0.365427,-8.511710,0.253933,-0.377413,0.618495,
34.000000,42.988907,-0.078604,0.955736,-1.489364,0.050391,-0.087595,0.148141,78.581977,-0.870666,0.111665,33.228251,0.250000,34.781937,-0.000483,0.978176,-1.498149,32.000000,12.000000,0.913846,5.928360,0.005858,0.675778,0.151522,0.144816,-0.006767,0.078324,-0.008981,0.078121,0.022439,1.246253,-0.294915,0.062513,-0.004049,-0.010578,-0.000626,-0.013058,-0.009082,-0.036998,0.508626,1.626302,0.332472,0.166457,0.161443,0.060010,1.453690,0.508946,0.191546,-0.521661,0.365427,-8.511710,0.253933,-0.377413,0.618495,
34.500000,43.859143,-0.130841,0.970066,-1.501903,0.046915,0.457861,0.896666,78.594392,-0.963374,-0.022163,34.773002,0.250000,35.477725,0.034915,0.958040,-1.498488,33.000000,13.000000,0.207531,1.836861,0.005858,0.666969,0.104914,0.359860,0.042372,0.153035,0.003304,0.165756,-0.012026,1.462404,0.051443,0.117041,-0.004070,-0.010853,-0.000570,-0.012566,-0.009910,-0.037010,0.497609,1.612089,0.337002,0.151193,0.147142,0.055863,1.426860,0.446231,0.169705,0.504825,0.773690,3.419413,0.097990,-0.029914,0.179322,
35.000000,44.734701,-0.181486,0.989127,-1.500462,0.050193,0.167289,0.306545,78.600665,-0.992455,0.021027,34.773002,0.250000,36.227899,-0.009010,0.982723,-1.498114,33.000000,13.000000,0.207531,1.836861,0.005858,0.672129,0.104202,0.337412,0.039079,0.161691,0.002180,0.172475,-0.006404,1.483041,0.130276,0.118164,-0.004070,-0.010853,-0.000570,-0.012566,-0.009910,-0.037010,0.499275,1.612794,0.341948,0.163340,0.160210,0.059472,1.464665,0.506736,0.191614,0.504825,0.773690,3.419413,0.097990,-0.029914,0.179322,
35.500000,45.607444,-0.187223,0.927624,-1.495061,0.046321,-1.075177,-0.030783,78.613354,-0.946091,-0.000356,36.484088,0.250000,37.009155,-0.022443,1.034662,-1.497492,34.000000,14.000000,0.209413,2.960543,0.005858,0.755482,0.016144,0.327705,-0.071657,0.176568,-0.002625,0.164780,0.107038,1.057442,0.251099,0.086264,-0.002334,-0.011049,-0.000577,-0.013657,-0.009753,-0.036976,0.488736,1.598291,0.346826,0.149036,0.146391,0.055263,1.444036,0.445157,0.169589,-1.071820,0.146209,-0.894549,-0.092533,-0.108330,0.559083,
36.000000,46.468895,-0.185018,0.858803,-1.494149,0.048559,-0.315191,0.041999,78.621869,-1.058151,-0.116950,36.484088,0.250000,37.759177,-0.012607,0.975502,-1.497745,34.000000,14.000000,0.209413,2.960543,0.005858,0.758968,0.012873,0.313176,-0.080725,0.186656,-0.003882,0.172411,0.116699,1.019588,0.342077,0.084386,-0.002334,-0.011049,-0.000577,-0.013657,-0.009753,-0.036976,0.490286,1.599062,0.351550,0.161363,0.159421,0.058754,1.477818,0.505245,0.191250,-1.071820,0.146209,-0.894549,-0.092533,-0.108330,0.559083,
36.500000,47.326019,-0.132760,0.860865,-1.494654,0.048957,0.348660,-0.958174,78.631648,-0.860719,-0.115792,37.965148,0.250000,38.518113,-0.056881,0.955883,-1.498070,35.000000,15.000000,0.099525,3.785061,0.005858,0.747015,0.070286,0.293976,-0.078965,0.089809,-0.003556,0.075879,0.095018,1.004479,0.004224,0.073718,-0.002223,-0.011206,-0.000567,-0.013276,-0.008612,-0.036985,0.480903,1.585846,0.356769,0.148177,0.145926,0.054627,1.473027,0.444340,0.169198,-0.004419,-1.015145,-4.212816,0.156320,-0.175417,0.618960,
37.000000,48.182793,-0.079844,0.874260,-1.493566,0.048715,0.101991,-0.220079,78.644500,-1.006577,0.166462,37.965148,0.250000,39.268143,0.000216,0.979957,-1.497893,35.000000,15.000000,0.099525,3.785061,0.005858,0.752495,0.067701,0.287898,-0.088789,0.094882,-0.004547,0.080060,0.105696,0.962791,0.050544,0.071441,-0.002223,-0.011206,-0.000567,-0.013276,-0.008612,-0.036985,0.482185,1.586688,0.361127,0.160621,0.158935,0.058068,1.504706,0.504154,0.190567,-0.004419,-1.015145,-4.212816,0.156320,-0.175417,0.618960,
37.500000,49.035835,-0.030903,0.900780,-1.482660,0.048669,0.566891,-0.770236,78.650901,-0.800973,0.301551,39.500790,0.250000,40.055729,-0.027342,0.959052,-1.497599,36.000000,16.000000,0.092934,1.324855,0.005858,0.695592,0.203920,0.314681,-0.057799,0.011095,-0.015151,0.003561,0.058271,1.064976,-0.250306,0.027297,-0.003739,-0.010801,-0.000608,-0.012694,-0.007682,-0.037000,0.473820,1.575444,0.366097,0.147633,0.145576,0.054102,1.501662,0.443460,0.168653,0.281423,-0.791044,-1.762782,0.192148,-0.201751,-0.101233,
38.000000,49.889989,0.010400,0.923615,-1.481179,0.046652,0.138379,-0.177636,78.665004,-0.322228,-0.161086,39.500790,0.250000,40.805675,0.013756,0.990605,-1.497245,36.000000,16.000000,0.092934,1.324855,0.005858,0.701405,0.201178,0.305915,-0.066159,0.011612,-0.016325,0.003356,0.066990,1.034228,-0.244481,0.019183,-0.003739,-0.010801,-0.000608,-0.012694,-0.007682,-0.037000,0.475176,1.576277,0.370537,0.160151,0.158566,0.057538,1.531772,0.503065,0.189761,0.281423,-0.791044,-1.762782,0.192148,-0.201751,-0.101233,
38.500000,50.749631,-0.049113,0.915097,-1.495235,0.052315,-0.094417,1.400870,78.675636,-0.689567,0.760645,40.889867,0.250000,41.512068,0.078294,0.994339,-1.498323,37.000000,17.000000,0.025716,7.102275,0.005858,0.741287,0.045370,0.269654,-0.054095,0.133847,-0.003244,0.127407,0.079242,1.117976,0.214384,0.059302,-0.002517,-0.011273,-0.000552,-0.012738,-0.009113,-0.037020,0.467316,1.567038,0.374816,0.146768,0.144837,0.053659,1.528917,0.440994,0.168074,0.406209,0.936152,-8.169178,-0.218954,0.443827,0.757034,
39.000000,51.611275,-0.133836,0.900590,-1.494051,0.046613,-0.050996,0.501372,78.686920,-0.870965,0.048633,40.889867,0.250000,42.262249,-0.002932,0.988933,-1.498267,37.000000,17.000000,0.025716,7.102275,0.005858,0.744254,0.043724,0.242149,-0.061694,0.140766,-0.004362,0.130903,0.088343,1.089294,0.283220,0.057135,-0.002517,-0.011273,-0.000552,-0.012738,-0.009113,-0.037020,0.468948,1.567758,0.379700,0.159308,0.157796,0.057017,1.557685,0.500120,0.188936,0.406209,0.936152,-8.169178,-0.218954,0.443827,0.757034,
39.500000,52.475799,-0.114573,0.906668,-1.501938,0.048994,0.334058,-0.732035,78.694531,-0.853571,0.021976,42.196770,0.250000,42.959481,-0.052925,0.969540,-1.498537,38.000000,18.000000,0.402776,4.730697,0.005858,0.741716,0.060275,0.286623,-0.050393,0.069149,0.003257,0.061648,0.062873,1.121867,0.060234,0.110743,-0.001916,-0.011599,-0.000516,-0.012320,-0.008306,-0.037016,0.462435,1.559953,0.384856,0.146341,0.144463,0.053246,1.558653,0.439597,0.167487,0.106060,-0.619658,6.923248,0.131705,-0.281046,-0.715751,
40.000000,53.341324,-0.068184,0.918781,-1.500688,0.046965,0.105048,-0.242176,78.706417,-1.335571,-0.223487,42.196770,0.250000,43.709605,-0.003770,0.989884,-1.498163,38.000000,18.000000,0.402776,4.730697,0.005858,0.746929,0.058580,0.276952,-0.057976,0.072823,0.002438,0.064414,0.071103,1.095027,0.095862,0.111918,-0.001916,-0.011599,-0.000516,-0.012320,-0.008306,-0.037016,0.463866,1.560759,0.389335,0.158892,0.157395,0.056558,1.586690,0.498478,0.188120,0.106060,-0.619658,6.923248,0.131705,-0.281046,-0.715751,
40.500000,54.203126,-0.031150,0.922048,-1.491468,0.048294,0.167600,-0.619458,78.716284,-1.052002,0.075971,43.919015,0.250000,44.487362,-0.027112,0.984470,-1.497270,39.000000,19.000000,0.055808,1.987584,0.005858,0.724690,0.133427,0.295827,-0.061202,0.012133,-0.005985,0.004038,0.062422,1.066524,-0.135614,0.082014,-0.002587,-0.011347,-0.000545,-0.012153,-0.007648,-0.037010,0.458055,1.554605,0.394161,0.146103,0.144230,0.052909,1.589374,0.438641,0.166926,-0.053775,-0.666822,-5.235037,0.122695,-0.040346,-0.222033,
41.000000,55.063050,0.003809,0.923155,-1.490937,0.048540,0.039240,-0.165113,78.727114,-1.134279,0.566484,43.919015,0.250000,45.237328,0.007633,0.993385,-1.497695,39.000000,19.000000,0.055808,1.987584,0.005858,0.730004,0.130941,0.285818,-0.068997,0.012897,-0.006971,0.003824,0.070230,1.034216,-0.129207,0.078514,-0.002587,-0.011347,-0.000545,-0.012153,-0.007648,-0.037010,0.459531,1.555397,0.398654,0.158652,0.157145,0.056200,1.617054,0.497389,0.187370,-0.053775,-0.666822,-5.235037,0.122695,-0.040346,-0.222033,
41.500000,55.928307,0.057148,0.900670,-1.509932,0.051229,-0.337475,-1.054439,78.739826,-0.942189,0.292405,45.178507,0.250000,45.907092,-0.048852,1.007584,-1.498389,40.000000,20.000000,0.378884,3.744305,0.005858,0.786644,0.121357,0.342557,-0.125480,-0.087596,0.011332,-0.106000,0.106915,0.772343,-0.558187,0.162140,-0.001297,-0.011978,-0.000472,-0.012347,-0.006617,-0.036992,0.454608,1.550532,0.403696,0.146147,0.144151,0.052628,1.622045,0.438019,0.166425,-0.644615,-1.119727,-5.175129,0.143473,0.010183,0.165055,
42.000000,56.789918,0.120002,0.872469,-1.508478,0.045182,-0.121262,-0.364825,78.747737,-0.859418,0.437457,45.178507,0.250000,46.657283,0.009070,0.988473,-1.497707,40.000000,20.000000,0.378884,3.744305,0.005858,0.789126,0.120033,0.335775,-0.136149,-0.091318,0.010609,-0.110932,0.116003,0.707154,-0.602758,0.167383,-0.001297,-0.011978,-0.000472,-0.012347,-0.006617,-0.036992,0.456046,1.551318,0.408057,0.158676,0.157050,0.055866,1.649829,0.496725,0.186700,-0.644615,-1.119727,-5.175129,0.143473,0.010183,0.165055,
42.500000,57.644386,0.098982,0.868711,-1.497532,0.053066,0.159780,0.685825,78.758646,-0.835069,0.259243,46.865693,0.250000,47.447393,0.051868,0.978807,-1.497659,41.000000,21.000000,0.054646,3.824435,0.005858,0.765724,0.097744,0.249110,-0.118525,-0.029877,-0.000322,-0.047114,0.110095,0.754398,-0.393024,0.128303,-0.001756,-0.011691,-0.000509,-0.012221,-0.007318,-0.036993,0.451378,1.547550,0.412391,0.146327,0.144055,0.052380,1.658647,0.437645,0.165971,0.298369,0.580497,8.590921,0.006168,0.159648,-0.242145,
43.000000,58.498652,0.056895,0.870634,-1.496859,0.048091,0.036922,0.219427,78.767772,-0.590425,0.123679,46.865693,0.250000,48.197334,0.006099,0.990335,-1.497746,41.000000,21.000000,0.054646,3.824435,0.005858,0.770389,0.097547,0.227149,-0.128097,-0.030727,-0.001069,-0.050796,0.119701,0.693015,-0.407995,0.127704,-0.001756,-0.011691,-0.000509,-0.012221,-0.007318,-0.036993,0.453068,1.548263,0.417162,0.158831,0.156939,0.055596,1.687118,0.496328,0.186103,0.298369,0.580497,8.590921,0.006168,0.159648,-0.242145,
43.500000,59.355899,0.051340,0.880684,-1.502601,0.050937,0.354957,-0.026713,78.776881,-0.867000,0.198584,48.213491,0.250000,48.912893,-0.001345,0.971897,-1.498013,42.000000,22.000000,0.143123,1.372259,0.005858,0.763274,0.075028,0.215669,-0.100823,-0.037398,0.004409,-0.052685,0.091213,0.800920,-0.480828,0.163665,-0.001395,-0.011878,-0.000488,-0.011877,-0.007387,-0.036993,0.449094,1.545197,0.421883,0.146579,0.143977,0.052180,1.696226,0.437470,0.165575,0.493056,-0.250649,2.035654,-0.097725,0.218192,-0.348315,
44.000000,60.215404,0.055091,0.893142,-1.501472,0.045521,0.092373,-0.046854,78.787457,-1.174081,0.347972,48.213491,0.250000,49.662915,0.000008,0.993186,-1.497588,42.000000,22.000000,0.143123,1.372259,0.005858,0.768487,0.074129,0.199238,-0.109524,-0.037888,0.003735,-0.055084,0.100044,0.748589,-0.499498,0.165462,-0.001395,-0.011878,-0.000488,-0.011877,-0.007387,-0.036993,0.450711,1.545936,0.426533,0.159053,0.156839,0.055370,1.725358,0.496133,0.185588,0.493056,-0.250649,2.035654,-0.097725,0.218192,-0.348315,
44.500000,61.063821,0.010504,0.883540,-1.472434,0.047625,-0.102822,1.012650,78.797082,-0.828628,0.166017,50.137270,0.250000,50.538866,0.056666,1.001254,-1.497111,43.000000,23.000000,1.171215,3.390241,0.005858,0.740412,0.065786,0.093026,-0.106930,0.065020,-0.024894,0.046162,0.117714,0.731162,-0.076529,0.030120,-0.002388,-0.011203,-0.000580,-0.011979,-0.008326,-0.036989,0.446970,1.543473,0.430919,0.146645,0.143819,0.052019,1.732894,0.437348,0.165236,0.071910,1.135463,5.894070,0.056076,-0.000275,0.169584,
45.000000,61.908590,-0.050430,0.868424,-1.471821,0.051885,-0.067120,0.349289,78.808168,-0.973840,0.202973,50.137270,0.250000,51.288664,-0.002592,0.995535,-1.497714,43.000000,23.000000,1.171215,3.390241,0.005858,0.743262,0.064899,0.068865,-0.115520,0.069832,-0.026095,0.047838,0.127110,0.675802,-0.042636,0.017115,-0.002388,-0.011203,-0.000580,-0.011979,-0.008326,-0.036989,0.448641,1.544172,0.435689,0.159096,0.156664,0.055200,1.762397,0.495958,0.185156,0.071910,1.135463,5.894070,0.056076,-0.000275,0.169584,
45.500000,62.753287,-0.095194,0.900614,-1.469688,0.046621,0.900155,0.752730,78.822070,-1.108045,0.141753,51.490771,0.250000,52.050368,0.026571,0.947272,-1.497995,44.000000,24.000000,0.045961,4.870790,0.005858,0.694834,0.007623,-0.080682,-0.023306,0.128936,-0.028377,0.121765,0.046658,1.068190,0.204038,-0.008834,-0.002190,-0.011220,-0.000584,-0.011185,-0.009030,-0.036964,0.445204,1.542225,0.440231,0.146902,0.143710,0.051894,1.770963,0.437246,0.164958,1.219811,0.477272,-6.689870,-0.132789,0.135008,0.316810,
46.000000,63.605282,-0.138682,0.946272,-1.468446,0.051892,0.287208,0.266859,78.826932,-0.943344,0.091428,51.490771,0.250000,52.800352,-0.010811,0.999871,-1.497795,44.000000,24.000000,0.045961,4.870790,0.005858,0.698781,0.007527,-0.102213,-0.027891,0.137257,-0.029551,0.127871,0.053599,1.055656,0.270760,-0.023553,-0.002190,-0.011220,-0.000584,-0.011185,-0.009030,-0.036964,0.446965,1.542902,0.444963,0.159333,0.156534,0.055055,1.801063,0.495810,0.184801,1.219811,0.477272,-6.689870,-0.132789,0.135008,0.316810,
46.500000,64.467756,-0.122423,1.007903,-1.483021,0.048803,1.329307,-0.506090,78.828223,-0.914740,-0.202595,52.697613,0.250000,53.472009,-0.044345,0.936119,-1.498209,45.000000,25.000000,0.576052,4.044938,0.005858,0.645299,-0.005616,-0.198458,0.084346,0.067047,-0.015381,0.078078,-0.071784,1.538464,0.021309,0.045341,-0.001335,-0.011608,-0.000536,-0.009957,-0.008530,-0.036940,0.444191,1.540984,0.449812,0.146926,0.143657,0.051777,1.804369,0.437334,0.164724,1.266432,-0.760293,-1.327450,0.026768,-0.133629,-0.458088,
47.000000,65.341074,-0.091605,1.077953,-1.481919,0.046978,0.453325,-0.131666,78.843620,-0.835014,0.352264,52.697613,0.250000,54.222248,-0.008216,1.007547,-1.498097,45.000000,25.000000,0.576052,4.044938,0.005858,0.648500,-0.007784,-0.210056,0.085381,0.072183,-0.016229,0.083389,-0.070406,1.581157,0.056271,0.037186,-0.001335,-0.011608,-0.000536,-0.009957,-0.008530,-0.036940,0.445647,1.541748,0.454307,0.159350,0.156463,0.054912,1.834429,0.495877,0.184495,1.266432,-0.760293,-1.327450,0.026768,-0.133629,-0.458088,
47.500000,66.223617,-0.051917,1.062582,-1.498895,0.046115,-0.431404,-0.759454,78.854910,-0.747795,0.018515,54.137581,0.250000,54.890246,-0.044649,1.035920,-1.498085,46.000000,26.000000,0.492343,3.034764,0.005858,0.695020,0.034660,-0.210519,0.029170,0.006744,0.000678,0.007268,-0.026662,1.368189,-0.158005,0.117516,-0.001182,-0.011902,-0.000484,-0.010305,-0.007754,-0.036939,0.442957,1.539859,0.459121,0.146660,0.143592,0.051659,1.832463,0.437357,0.164516,-0.696381,-0.485815,-6.093114,0.083618,-0.345027,-0.166450,
48.000000,67.102241,-0.008050,1.027447,-1.498243,0.049357,-0.116273,-0.212717,78.861795,-0.784859,-1.122396,54.137581,0.250000,55.640474,0.000776,1.002157,-1.498051,46.000000,26.000000,0.492343,3.034764,0.005858,0.697238,0.032414,-0.219480,0.027696,0.007836,-0.000002,0.008826,-0.025290,1.382634,-0.154208,0.117441,-0.001182,-0.011902,-0.000484,-0.010305,-0.007754,-0.036939,0.444489,1.540591,0.463545,0.159069,0.156382,0.054773,1.861837,0.495870,0.184218,-0.696381,-0.485815,-6.093114,0.083618,-0.345027,-0.166450,
48.500000,67.983084,-0.001914,1.008523,-1.513168,0.047809,-0.143771,0.007376,78.871917,-1.004785,0.210991,55.595391,0.250000,56.321481,0.002683,1.005737,-1.498056,47.000000,27.000000,0.331340,0.942882,0.005858,0.727954,0.014943,-0.240396,0.004829,0.008043,0.014919,0.004597,-0.002786,1.300100,-0.169196,0.192112,-0.000920,-0.012190,-0.000439,-0.010475,-0.007747,-0.036937,0.441813,1.538928,0.468082,0.146788,0.143501,0.051547,1.867726,0.437246,0.164324,-0.268479,-0.096666,-4.370894,0.048308,0.098717,-0.013023,
49.000000,68.863075,-0.003730,0.994014,-1.512774,0.046242,0.009428,0.029229,78.881819,-0.704458,0.384795,55.595391,0.250000,57.071654,0.001509,0.994354,-1.498135,47.000000,27.000000,0.331340,0.942882,0.005858,0.729074,0.012724,-0.255895,0.001686,0.009500,0.014505,0.005239,0.000340,1.301969,-0.164651,0.199209,-0.000920,-0.012190,-0.000439,-0.010475,-0.007747,-0.036937,0.443435,1.539638,0.472677,0.159186,0.156273,0.054642,1.897331,0.495713,0.183961,-0.268479,-0.096666,-4.370894,0.048308,0.098717,-0.013023,
49.500000,69.734227,0.012170,0.983587,-1.493583,0.049671,-0.062768,-0.357840,78.891652,-0.930494,0.403366,57.434892,0.250000,57.900220,-0.016098,1.000748,-1.497268,48.000000,28.000000,0.533290,1.401316,0.005858,0.718640,0.063895,-0.265038,-0.021110,-0.019380,-0.003943,-0.028268,0.017160,1.213840,-0.279868,0.120592,-0.001444,-0.011821,-0.000491,-0.010598,-0.007419,-0.036944,0.441002,1.538062,0.477381,0.146992,0.143346,0.051446,1.906307,0.437133,0.164146,-0.239696,-0.277422,-5.456049,0.023197,-0.067339,-0.039861,
50.000000,70.601007,0.033454,0.972602,-1.493282,0.051828,0.009460,-0.110774,78.902141,-1.022428,0.316610,57.434892,0.250000,58.650097,0.004787,0.994103,-1.497713,48.000000,28.000000,0.533290,1.401316,0.005858,0.720606,0.061553,-0.277859,-0.025484,-0.019104,-0.004659,-0.028667,0.021501,1.202434,-0.289344,0.118192,-0.001444,-0.011821,-0.000491,-0.010598,-0.007419,-0.036944,0.442567,1.538782,0.481903,0.159367,0.156097,0.054531,1.936445,0.495531,0.183725,-0.239696,-0.277422,-5.456049,0.023197,-0.067339,-0.039861,
50.500000,71.461481,0.035644,0.984287,-1.478643,0.050913,0.416045,0.028892,78.913055,-0.845401,-0.809003,58.955557,0.250000,59.455029,0.007297,0.975257,-1.497430,49.000000,29.000000,0.297792,8.348386,0.005858,0.686504,0.050950,-0.290751,0.003928,-0.024647,-0.018934,-0.028347,-0.009030,1.287575,-0.387661,0.055176,-0.001442,-0.011622,-0.000527,-0.010249,-0.007514,-0.036927,0.440142,1.537413,0.486453,0.147324,0.143211,0.051360,1.947054,0.436981,0.163986,0.102558,-0.433027,-12.863464,0.322266,0.437576,-0.245069,
51.000000,72.322632,0.032882,1.001786,-1.478005,0.050693,0.167572,0.026175,78.923891,-0.866429,0.513431,58.955557,0.250000,60.204888,0.004579,0.996169,-1.497514,49.000000,29.000000,0.297792,8.348386,0.005858,0.690784,0.049246,-0.306783,0.001012,-0.023638,-0.019789,-0.028303,-0.005618,1.289068,-0.399571,0.045252,-0.001442,-0.011622,-0.000527,-0.010249,-0.007514,-0.036927,0.441759,1.538116,0.491040,0.159673,0.155944,0.054432,1.977892,0.495315,0.183513,0.102558,-0.433027,-12.863464,0.322266,0.437576,-0.245069,
51.500000,73.194606,0.047137,1.013930,-1.503368,0.049783,0.331122,-0.330537,78.932498,-0.802340,0.251464,60.085300,0.250000,60.855848,-0.015664,0.982063,-1.498620,50.000000,30.000000,0.664032,2.604737,0.005858,0.701145,0.038087,-0.295488,0.019876,-0.062201,0.004522,-0.062801,-0.031868,1.382536,-0.583310,0.143525,-0.000890,-0.012067,-0.000460,-0.009984,-0.007250,-0.036934,0.439548,1.536814,0.495716,0.147666,0.143167,0.051278,1.987069,0.436855,0.163841,0.233428,-0.449108,4.838262,0.016976,0.008474,0.570869,
52.000000,74.070577,0.066984,1.025675,-1.502243,0.049920,0.143515,-0.112980,78.943610,-0.920060,0.112278,60.085300,0.250000,61.606070,0.003155,0.996155,-1.498024,50.000000,30.000000,0.664032,2.604737,0.005858,0.705453,0.035954,-0.308593,0.017755,-0.062846,0.004010,-0.063829,-0.029520,1.392195,-0.614415,0.145414,-0.000890,-0.012067,-0.000460,-0.009984,-0.007250,-0.036934,0.441109,1.537527,0.500236,0.159991,0.155885,0.054333,2.018397,0.495157,0.183319,0.233428,-0.449108,4.838262,0.016976,0.008474,0.570869,
52.500000,74.936301,0.041388,1.026892,-1.474440,0.048522,0.116776,0.623243,78.955624,-0.988393,0.231526,62.067171,0.250000,62.468952,0.036987,0.995825,-1.496955,51.000000,31.000000,1.091080,5.275861,0.005858,0.675718,0.009280,-0.364110,0.030908,-0.005027,-0.022634,-0.004401,-0.031067,1.383693,-0.383892,0.024061,-0.001117,-0.011673,-0.000528,-0.009836,-0.007739,-0.036912,0.438709,1.536272,0.504652,0.147735,0.143022,0.051198,2.026058,0.436709,0.163705,-0.314312,0.709381,-8.512404,0.576135,-0.071061,-0.152339,
53.000000,75.799786,0.003447,1.026355,-1.474005,0.045807,0.081768,0.218437,78.965581,-0.982082,0.086869,62.067171,0.250000,63.218710,-0.000021,0.996976,-1.497360,51.000000,31.000000,1.091080,5.275861,0.005858,0.678527,0.009131,-0.384747,0.029437,-0.002811,-0.023525,-0.003469,-0.029379,1.399018,-0.385674,0.012272,-0.001117,-0.011673,-0.000528,-0.009836,-0.007739,-0.036912,0.440390,1.536942,0.509304,0.160040,0.155724,0.054243,2.057550,0.494948,0.183138,-0.314312,0.709381,-8.512404,0.576135,-0.071061,-0.152339,
53.500000,76.663722,0.019740,1.022737,-1.475166,0.052396,0.046159,-0.492511,78.975075,-0.997491,0.240704,63.312083,0.250000,63.959923,-0.029272,0.997425,-1.497936,52.000000,32.000000,0.017701,1.191704,0.005858,0.682928,0.041121,-0.392685,0.016833,-0.045480,-0.022953,-0.049012,-0.025313,1.364379,-0.573162,0.009375,-0.001154,-0.011677,-0.000524,-0.009852,-0.007352,-0.036927,0.438301,1.535811,0.514054,0.147967,0.142953,0.051127,2.066694,0.436680,0.163579,-0.130188,-0.460420,4.541538,0.007360,-0.044706,-0.101998,
54.000000,77.526096,0.050021,1.018357,-1.474119,0.052372,0.061368,-0.167304,78.985962,-0.492438,0.642683,63.312083,0.250000,64.709937,0.001305,0.995219,-1.497853,52.000000,32.000000,0.017701,1.191704,0.005858,0.685329,0.039087,-0.404843,0.014896,-0.045077,-0.023816,-0.048716,-0.023138,1.372559,-0.595660,-0.002558,-0.001154,-0.011677,-0.000524,-0.009852,-0.007352,-0.036927,0.439843,1.536519,0.518533,0.160249,0.155640,0.054162,2.098506,0.494880,0.182971,-0.130188,-0.460420,4.541538,0.007360,-0.044706,-0.101998,
54.500000,78.386364,0.074414,0.975213,-1.475318,0.048351,-0.794314,-0.418431,78.997962,-0.941413,0.327753,64.762243,0.250000,65.441818,-0.014566,1.037459,-1.498125,53.000000,33.000000,0.070148,2.334032,0.005858,0.735919,0.090286,-0.419131,-0.075260,-0.067629,-0.023040,-0.088980,0.062245,1.018057,-0.715837,0.003908,-0.001653,-0.011613,-0.000521,-0.010555,-0.007022,-0.036947,0.437697,1.535453,0.523161,0.148193,0.142885,0.051063,2.108072,0.436607,0.163464,-0.877461,-0.251850,3.000009,-0.115919,-0.001180,-0.445086,
55.000000,79.238144,0.098013,0.920742,-1.474187,0.050256,-0.235889,-0.128259,79.005117,-1.218392,0.118316,64.762243,0.250000,66.191908,0.007507,0.988683,-1.497822,53.000000,33.000000,0.070148,2.334032,0.005858,0.738064,0.087738,-0.431051,-0.081892,-0.068497,-0.023877,-0.090506,0.067941,0.979005,-0.749729,-0.008068,-0.001653,-0.011613,-0.000521,-0.010555,-0.007022,-0.036947,0.439299,1.536143,0.527648,0.160451,0.155557,0.054089,2.140167,0.494770,0.182817,-0.877461,-0.251850,3.000009,-0.115919,-0.001180,-0.445086,
55.500000,79.828230,0.506963,0.207098,-0.455320,0.042728,-19.901522,-9.354269,80.076202,-0.119653,0.523647,66.414515,0.250000,66.751515,0.517665,0.192518,-0.521204,54.000000,34.000000,0.086215,5.994401,0.005858,0.688919,-0.032608,-0.615059,0.041933,0.014142,-0.031039,0.010702,-0.014580,1.495214,-0.377053,-0.050400,-0.001006,-0.011654,-0.000535,-0.009628,-0.008005,-0.036885,0.427704,1.539702,0.538695,0.148362,0.141208,0.051147,2.153549,0.436311,0.163362,1.400262,1.032703,-6.462898,0.086592,0.052646,-0.036691,
56.000000,79.593204,0.959351,-0.789909,0.768477,0.087995,-10.453768,-4.615096,78.771682,0.382398,0.990235,66.414515,0.250000,66.596096,0.976776,-0.818597,0.770668,54.000000,34.000000,0.086215,5.994401,0.005858,0.713079,-0.014523,-0.573952,0.062459,0.006797,-0.030324,0.017425,-0.028688,1.522024,-0.372125,-0.064765,-0.001006,-0.011654,-0.000535,-0.009628,-0.008005,-0.036885,0.444296,1.534985,0.538828,0.166517,0.151777,0.054752,2.183639,0.493370,0.182761,1.400262,1.032703,-6.462898,0.086592,0.052646,-0.036691,
56.500000,79.400551,1.142723,-1.252609,-0.052374,0.048990,0.604810,0.768035,78.313827,1.762074,1.151796,66.103836,0.250000,66.381037,1.200303,-1.311087,-0.038856,55.000000,35.000000,1.948061,8.190922,0.005858,0.709510,0.028859,-0.348785,0.073223,0.034182,0.015670,0.057581,-0.058478,1.577170,-0.342051,0.118268,-0.002158,-0.012081,-0.000433,-0.009591,-0.008204,-0.036768,0.447750,1.530706,0.540633,0.147246,0.141130,0.051600,2.125808,0.436567,0.163412,-0.004696,-0.082857,-12.339477,0.120816,0.280264,0.665718,
57.000000,79.239859,1.047096,-1.119069,-0.010994,0.048291,1.367298,0.833202,78.322391,0.686195,1.114118,66.103836,0.250000,66.386644,1.111486,-1.178280,0.004310,55.000000,35.000000,1.948061,8.190922,0.005858,0.696388,0.020858,-0.363359,0.073928,0.041388,0.015187,0.064390,-0.059211,1.614451,-0.322967,0.125701,-0.002158,-0.012081,-0.000433,-0.009591,-0.008204,-0.036768,0.449325,1.531415,0.545169,0.159081,0.153578,0.054538,2.151196,0.494000,0.182878,-0.004696,-0.082857,-12.339477,0.120816,0.280264,0.665718,
57.500000,79.139542,1.004150,-1.066294,-0.077975,0.046956,-0.250878,0.052406,78.325149,0.379200,0.536501,66.225124,0.250000,66.369333,1.062582,-1.078531,-0.050493,56.000000,36.000000,0.267138,0.476242,0.005858,0.735590,0.038374,-0.351887,0.029017,0.046668,0.029086,0.058433,-0.012237,1.471539,-0.303414,0.199898,-0.002301,-0.012251,-0.000399,-0.009914,-0.008120,-0.036825,0.447891,1.531609,0.549542,0.143855,0.142102,0.051334,2.063929,0.440290,0.163468,-0.443928,0.009211,-1.337180,-0.067734,-0.053031,0.165902,
58.000000,79.007951,0.997113,-1.084603,-0.034086,0.048082,-0.220208,0.010663,78.335674,0.762941,0.282377,66.225124,0.250000,66.380920,1.061351,-1.093167,-0.005366,56.000000,36.000000,0.267138,0.476242,0.005858,0.740129,0.037943,-0.368405,0.026781,0.052715,0.028816,0.064238,-0.008564,1.485758,-0.278418,0.214107,-0.002301,-0.012251,-0.000399,-0.009914,-0.008120,-0.036825,0.449469,1.532330,0.554095,0.156115,0.154615,0.054325,2.082018,0.498197,0.182907,-0.443928,0.009211,-1.337180,-0.067734,-0.053031,0.165902,
