Time ,gndAlt,velLL X  ,velLL Y  ,velLL Z  ,r,Roll ,Pitch,Yaw  ,gps_velN,gps_velE,Baro Altitude,Baro Altitude RMS,Nav Alt,Nav velLL X,Nav velLL Y,Nav velLL Z,Baro Update Count,GPS Update Count,Baro Chi2,GPS Chi2,GPS2D Chi2,Ground Align Chi2,Roll Error,Pitch Error,Yaw Error,Vel N Error,Vel E Error,Vel D Error,velLL X Error,velLL Y Error,N Error (m),E Error (m),Alt Error (m),Acc Bias X Error,Acc Bias Y Error,Acc Bias Z Error,Gyro Bias X Error,Gyro Bias Y Error,Gyro Bias Z Error,Roll Stdev,Pitch Stdev,Yaw Stdev,VN Stdev,VE Stdev,VD Stdev,N Stdev,E Stdev,Alt Stdev,GPSResidual[GPS_N],GPSResidual[GPS_E],GPSResidual[GPS_ALT],GPSResidual[GPS_VN],GPSResidual[GPS_VE],GPSResidual[GPS_VD],
0.500000,0.101886,-0.001489,0.009473,0.002397,-0.010555,14.027753,2.250979,81.065854,0.013428,-0.006438,0.000000,0.250000,0.000000,0.000000,0.000000,0.000000,0.000000,0.000000,0.000000,0.000000,0.000000,0.000000,0.000000,0.000000,0.000000,0.000000,0.000000,0.000000,0.000000,0.000000,0.000000,0.000000,0.000000,0.000000,0.000000,0.000000,0.000000,0.000000,0.000000,0.000000,0.000000,0.000000,0.000000,0.000000,0.000000,0.000000,0.000000,0.000000,0.000000,0.000000,0.000000,0.000000,0.000000,0.000000,
1.000000,0.101886,-0.001422,0.009057,0.002292,0.047650,14.028408,2.248111,81.077484,0.411951,0.022315,0.000000,0.250000,0.000000,0.000000,0.000000,0.000000,0.000000,0.000000,0.000000,0.000000,0.000000,0.000000,0.000000,0.000000,0.000000,0.000000,0.000000,0.000000,0.000000,0.000000,0.000000,0.000000,0.000000,0.000000,0.000000,0.000000,0.000000,0.000000,0.000000,0.000000,0.000000,0.000000,0.000000,0.000000,0.000000,0.000000,0.000000,0.000000,0.000000,0.000000,0.000000,0.000000,0.000000,0.000000,
1.500000,0.101886,-0.001430,0.009121,0.002308,0.053929,14.029014,2.244386,81.092417,0.044304,0.061204,0.000000,0.250000,0.000000,0.000000,0.000000,0.000000,0.000000,0.000000,0.000000,0.000000,0.000000,0.000000,0.000000,0.000000,0.000000,0.000000,0.000000,0.000000,0.001430,-0.009121,0.000000,0.000000,-0.000000,0.000000,0.000000,0.000000,0.000000,0.000000,0.000000,8.554585,2.726392,0.000000,0.000000,0.000000,0.000000,0.000000,0.000000,0.000000,0.000000,0.000000,0.000000,0.000000,0.000000,0.000000,
2.000000,0.101929,-0.001403,0.008965,0.002268,0.006621,14.029256,2.241677,81.103140,0.470496,0.290534,0.000000,0.250000,0.000021,0.002053,-0.008820,0.001263,0.000000,0.000000,0.000000,0.000000,0.000000,0.000000,-3.615658,-0.539215,-81.106686,0.011433,-0.008820,-0.001081,0.003457,-0.017785,0.019149,-0.001738,-0.002764,0.008556,0.061474,-0.013431,-0.008397,-0.009618,-0.039084,8.554631,2.726544,0.028770,0.212318,0.651904,0.121421,0.032977,0.101088,0.018858,0.000000,0.000000,0.000000,0.000000,0.000000,0.000000,
2.500000,0.101928,-0.001491,0.009534,0.002412,0.000375,14.029648,2.239196,81.113080,0.137565,0.355668,-0.265671,0.250000,-0.001499,-0.002283,0.015833,0.006424,1.000000,0.000000,1.129465,0.000000,0.000000,0.020650,-3.518291,-0.519876,-81.119070,0.006862,0.015833,0.004138,-0.000793,0.006299,0.023315,0.002319,-0.002425,0.008863,0.062286,-0.013600,-0.008397,-0.009589,-0.038927,4.920218,1.957710,0.035713,0.091583,0.092716,0.081978,0.034806,0.035220,0.032494,0.000000,0.000000,0.000000,0.000000,0.000000,0.000000,
3.000000,0.101928,-0.001454,0.009307,0.002355,-0.014378,14.030025,2.236595,81.123483,-0.476160,0.252378,-0.265671,0.250000,-0.005170,-0.004010,0.028356,0.010764,1.000000,0.000000,1.129465,0.000000,0.000000,0.020650,-3.516954,-0.518985,-81.135771,0.005282,0.028357,0.008442,-0.002556,0.019049,0.026990,0.011187,0.000065,0.008863,0.062286,-0.013600,-0.008397,-0.009589,-0.038927,4.920358,1.958050,0.051243,0.151197,0.153162,0.133131,0.094166,0.095364,0.085635,0.000000,0.000000,0.000000,0.000000,0.000000,0.000000,
3.500000,0.101928,-0.001472,0.009440,0.002389,0.014404,14.030451,2.233935,81.134142,-0.028627,0.054973,-0.145769,0.250000,-0.001034,0.000025,-0.000746,0.002807,2.000000,0.000000,0.342044,0.000000,0.000000,0.111960,-3.552500,-0.526215,-81.138400,0.009063,-0.000746,0.000548,0.001498,-0.010186,0.034240,-0.006422,-0.005252,0.008705,0.060883,-0.013980,-0.008383,-0.009498,-0.038424,4.805559,1.931084,0.036067,0.054285,0.054333,0.047507,0.042444,0.042472,0.040485,0.000000,0.000000,0.000000,0.000000,0.000000,0.000000,
4.000000,0.101928,-0.001493,0.009583,0.002425,0.040425,14.030891,2.231341,81.144548,0.067115,-0.590317,-0.145769,0.250000,-0.002475,-0.000795,0.004163,0.004395,2.000000,0.000000,0.342044,0.000000,0.000000,0.111960,-3.551482,-0.525177,-81.154917,0.008835,0.004163,0.001988,0.000699,-0.005420,0.039071,-0.006325,-0.004992,0.008705,0.060883,-0.013980,-0.008383,-0.009498,-0.038424,4.805710,1.931450,0.051473,0.075889,0.075970,0.063164,0.070880,0.070943,0.066472,0.000000,0.000000,0.000000,0.000000,0.000000,0.000000,
4.500000,0.101928,-0.001456,0.009359,0.002368,0.018000,14.031258,2.228817,81.154642,0.047729,0.012543,-0.025592,0.250000,-0.000813,-0.000306,0.000705,0.001526,3.000000,0.000000,0.010549,0.000000,0.000000,0.021182,-3.542238,-0.524393,-81.165622,0.009099,0.000705,-0.000826,0.001150,-0.008655,0.043852,-0.006265,-0.007835,0.008697,0.060697,-0.014060,-0.008377,-0.009459,-0.038205,4.792921,1.929347,0.042354,0.047224,0.047237,0.039024,0.051700,0.051708,0.048729,0.000000,0.000000,0.000000,0.000000,0.000000,0.000000,
5.000000,0.101928,-0.001478,0.009511,0.002406,0.039331,14.031752,2.226171,81.165294,0.023219,0.017136,-0.025592,0.250000,-0.001688,-0.001276,0.006151,0.002632,3.000000,0.000000,0.010549,0.000000,0.000000,0.021182,-3.541171,-0.523282,-81.181930,0.008273,0.006151,0.000246,0.000202,-0.003361,0.048327,-0.004256,-0.008140,0.008697,0.060697,-0.014060,-0.008377,-0.009459,-0.038205,4.793078,1.929733,0.056192,0.063437,0.063458,0.049103,0.072497,0.072515,0.067763,0.000000,0.000000,0.000000,0.000000,0.000000,0.000000,
5.500000,0.101928,-0.001443,0.009293,0.002351,0.012105,14.032114,2.223682,81.175244,-0.005903,0.011169,0.141137,0.250000,0.005128,-0.001002,0.003690,-0.000955,4.000000,0.000000,0.307683,0.000000,0.000000,0.055070,-3.536895,-0.522352,-81.186652,0.008688,0.003691,-0.003378,0.000441,-0.005602,0.053284,-0.005068,-0.016137,0.008675,0.060532,-0.014138,-0.008346,-0.009391,-0.037810,4.788188,1.929037,0.041732,0.044600,0.044605,0.035157,0.059048,0.059051,0.055090,0.000000,0.000000,0.000000,0.000000,0.000000,0.000000,
6.000000,0.101929,-0.001463,0.009436,0.002387,0.028539,14.032491,2.221072,81.185677,-0.052720,0.009727,0.141137,0.250000,0.005604,-0.001629,0.005785,-0.000963,4.000000,0.000000,0.307683,0.000000,0.000000,0.055070,-3.535445,-0.521316,-81.202918,0.007409,0.005786,-0.003222,-0.000165,-0.003651,0.057338,-0.001482,-0.017794,0.008675,0.060532,-0.014138,-0.008346,-0.009391,-0.037810,4.788351,1.929441,0.055682,0.058980,0.058988,0.043253,0.075922,0.075929,0.070438,0.000000,0.000000,0.000000,0.000000,0.000000,0.000000,
6.500000,0.101928,-0.001485,0.009585,0.002425,0.042420,14.032886,2.218500,81.195970,0.063625,-0.025574,0.098291,0.250000,0.009102,-0.002228,0.010825,-0.000142,5.000000,0.000000,0.133887,0.000000,0.000000,0.013388,-3.545709,-0.520735,-81.215769,0.007405,0.010826,-0.002549,-0.000743,0.001240,0.062415,-0.001700,-0.022473,0.008651,0.060604,-0.014165,-0.008286,-0.009388,-0.037710,4.785359,1.929055,0.050050,0.043432,0.043433,0.033099,0.064522,0.064524,0.059729,0.000000,0.000000,0.000000,0.000000,0.000000,0.000000,
7.000000,0.101928,-0.001449,0.009369,0.002370,0.007544,14.033208,2.215948,81.206140,0.000955,-0.032856,0.098291,0.250000,0.009299,-0.003270,0.015158,0.000238,5.000000,0.000000,0.133887,0.000000,0.000000,0.013388,-3.544539,-0.519779,-81.232049,0.006151,0.015159,-0.002115,-0.001820,0.005789,0.065944,0.004821,-0.023852,0.008651,0.060604,-0.014165,-0.008286,-0.009388,-0.037710,4.785526,1.929475,0.062343,0.056994,0.056995,0.040214,0.079100,0.079103,0.072764,0.000000,0.000000,0.000000,0.000000,0.000000,0.000000,
7.500000,0.101928,-0.001473,0.009530,0.002411,0.016517,14.033686,2.213300,81.216790,0.097132,-0.102184,0.103829,0.250000,0.014317,-0.001605,0.005821,-0.000771,6.000000,0.000000,0.137095,0.000000,0.000000,0.086250,-3.564199,-0.519310,-81.238626,0.007536,0.005822,-0.003056,-0.000133,-0.003709,0.072421,-0.004067,-0.030050,0.008603,0.060697,-0.014202,-0.008083,-0.009375,-0.037409,4.784756,1.929223,0.047236,0.042864,0.042863,0.031914,0.068420,0.068421,0.062927,0.000000,0.000000,0.000000,0.000000,0.000000,0.000000,
8.000000,0.101929,-0.001438,0.009319,0.002357,-0.023450,14.034057,2.210659,81.227338,0.095559,-0.058742,0.103829,0.250000,0.015264,-0.002487,0.008884,-0.000509,6.000000,0.000000,0.137095,0.000000,0.000000,0.086250,-3.563017,-0.518246,-81.254490,0.006812,0.008885,-0.002833,-0.001049,-0.000436,0.076650,-0.002590,-0.032179,0.008603,0.060697,-0.014202,-0.008083,-0.009375,-0.037409,4.784925,1.929659,0.060006,0.056019,0.056016,0.038460,0.081609,0.081611,0.074448,0.000000,0.000000,0.000000,0.000000,0.000000,0.000000,
8.500000,0.101928,-0.001396,0.009054,0.002290,0.020746,14.034470,2.208149,81.237397,-0.055707,0.241796,-0.013899,0.250000,0.012960,-0.001480,0.004358,0.000617,7.000000,0.000000,0.011857,0.000000,0.000000,0.027470,-3.574878,-0.517959,-81.269820,0.007979,0.004359,-0.001748,-0.000084,-0.004696,0.082447,-0.007067,-0.031055,0.008577,0.060772,-0.014200,-0.007929,-0.009411,-0.037386,4.784195,1.929395,0.056678,0.042573,0.042572,0.031166,0.071104,0.071105,0.065015,0.000000,0.000000,0.000000,0.000000,0.000000,0.000000,
9.000000,0.101929,-0.001421,0.009230,0.002335,0.022148,14.034941,2.205588,81.247702,0.218712,-0.023828,-0.013899,0.250000,0.013344,-0.002057,0.005236,0.000678,7.000000,0.000000,0.011857,0.000000,0.000000,0.027470,-3.573763,-0.516910,-81.285847,0.007578,0.005238,-0.001730,-0.000636,-0.003994,0.086875,-0.007260,-0.032620,0.008577,0.060772,-0.014200,-0.007929,-0.009411,-0.037386,4.784368,1.929842,0.067894,0.055519,0.055515,0.037336,0.083446,0.083447,0.075526,0.000000,0.000000,0.000000,0.000000,0.000000,0.000000,
9.500000,0.101929,-0.001445,0.009399,0.002378,0.021160,14.035354,2.203061,81.257836,0.255343,0.275405,0.206814,0.250000,0.025997,-0.000928,-0.000037,-0.002237,8.000000,0.000000,0.562125,0.000000,0.000000,0.023433,-3.571999,-0.516118,-81.295748,0.008499,-0.000037,-0.004594,0.000517,-0.009437,0.092505,-0.010041,-0.046454,0.008546,0.060660,-0.014215,-0.007813,-0.009414,-0.037196,4.783635,1.929559,0.053594,0.042425,0.042422,0.030658,0.072912,0.072913,0.066310,0.000000,0.000000,0.000000,0.000000,0.000000,0.000000,
10.000000,0.101929,-0.001468,0.009560,0.002418,0.017707,14.035618,2.200383,81.268461,-0.021971,0.006456,0.206814,0.250000,0.027034,-0.001756,0.002145,-0.002069,8.000000,0.000000,0.562125,0.000000,0.000000,0.023433,-3.571301,-0.515137,-81.311647,0.007412,0.002146,-0.004361,-0.000288,-0.007415,0.096527,-0.008094,-0.048671,0.008546,0.060660,-0.014215,-0.007813,-0.009414,-0.037196,4.783811,1.930015,0.065235,0.055264,0.055258,0.036559,0.084738,0.084738,0.076142,0.000000,0.000000,0.000000,0.000000,0.000000,0.000000,
10.500000,0.806093,-0.100247,0.797281,-1.414530,0.046996,-4.488322,-0.579885,80.909878,-0.631878,-0.053212,0.160445,0.250000,0.666651,-0.088225,0.714983,-1.511628,9.000000,0.000000,0.199103,0.000000,0.000000,0.011671,-3.597284,-0.534358,-81.151553,0.723992,0.688222,-0.095314,0.012021,-0.082299,0.389275,0.268631,-0.080365,0.008529,0.060770,-0.014231,-0.007765,-0.009434,-0.037120,4.781906,1.929429,0.240096,0.067134,0.119492,0.122781,0.077160,0.089711,0.073674,0.000000,0.000000,0.000000,0.000000,0.000000,0.000000,
11.000000,1.563202,-0.047962,0.340758,-1.331129,0.050257,-3.895903,-0.416862,80.905736,-0.942053,-0.117043,0.160445,0.250000,1.420654,-0.033626,0.243319,-1.502967,9.000000,0.000000,0.199103,0.000000,0.000000,0.011671,-3.558398,-0.536212,-81.175816,0.317777,0.236659,-0.170735,0.014336,-0.097439,0.647105,0.496360,-0.147113,0.008529,0.060770,-0.014231,-0.007765,-0.009434,-0.037120,4.781893,1.929866,0.232118,0.076390,0.099989,0.227753,0.097983,0.131222,0.138843,0.000000,0.000000,0.000000,0.000000,0.000000,0.000000,
11.500000,2.288478,-0.027897,0.094782,-1.406492,0.046941,-1.890505,-0.083344,80.899076,0.028896,0.001932,1.270309,0.250000,2.087741,-0.015131,0.006557,-1.502333,10.000000,0.000000,0.934006,0.000000,0.000000,0.011671,-1.428536,-0.497823,-81.298526,0.085941,0.018883,-0.095461,0.012766,-0.088224,0.741058,0.606397,-0.115740,0.007918,0.021492,-0.006914,-0.007777,-0.009452,-0.037089,4.241071,1.929729,0.189228,0.088767,0.090923,0.280206,0.128915,0.161422,0.227037,0.000000,0.000000,0.000000,0.000000,0.000000,0.000000,
12.000000,2.990065,-0.026374,0.031953,-1.370586,0.047135,0.131113,0.023720,80.907709,-0.152087,-0.393925,1.270309,0.250000,2.839230,-0.011776,-0.078169,-1.499294,10.000000,0.000000,0.934006,0.000000,0.000000,0.011671,-1.432570,-0.502419,-81.317160,0.023265,-0.057097,-0.128257,0.014597,-0.110123,0.761498,0.589842,-0.171876,0.007918,0.021492,-0.006914,-0.007777,-0.009452,-0.037089,4.241215,1.930203,0.186139,0.099037,0.090218,0.358903,0.167635,0.197873,0.381866,0.000000,0.000000,0.000000,0.000000,0.000000,0.000000,
12.500000,3.645561,-0.029855,0.092810,-1.253475,0.047800,0.992263,0.056766,80.918133,0.113790,0.367778,3.081877,0.250000,3.671112,-0.010908,-0.035759,-1.497906,11.000000,0.000000,0.049465,0.000000,0.000000,0.011671,-2.214836,-0.523706,-81.304039,0.083717,-0.020695,-0.243787,0.018947,-0.128569,0.788078,0.538778,-0.354572,0.008162,0.035829,-0.009572,-0.007776,-0.009445,-0.037100,2.391495,1.928979,0.132844,0.107704,0.095231,0.238939,0.211396,0.192342,0.300276,0.000000,0.000000,0.000000,0.000000,0.000000,0.000000,
13.000000,4.277165,-0.033001,0.149873,-1.205332,0.050850,0.356955,0.026088,80.927992,-0.453856,-0.293848,3.081877,0.250000,4.421148,-0.011717,0.010251,-1.497945,11.000000,0.000000,0.049465,0.000000,0.000000,0.011671,-2.211657,-0.526018,-81.318714,0.141002,0.019343,-0.292017,0.021284,-0.139622,0.846752,0.540317,-0.488774,0.008162,0.035829,-0.009572,-0.007776,-0.009445,-0.037100,2.391912,1.929475,0.139462,0.119028,0.107840,0.285303,0.261324,0.231816,0.428003,0.000000,0.000000,0.000000,0.000000,0.000000,0.000000,
13.500000,4.963364,-0.030153,0.121940,-1.365530,0.048984,-0.711817,-0.064689,80.938488,-0.203666,-0.025700,4.184984,0.250000,4.882303,-0.012264,-0.040783,-1.502924,12.000000,0.000000,0.513474,0.000000,0.000000,0.011671,-0.790101,-0.490430,-81.387885,0.113696,-0.030184,-0.137152,0.017889,-0.162723,0.902973,0.592825,-0.283778,0.007643,0.009769,-0.004760,-0.007773,-0.009458,-0.037080,1.348381,1.929283,0.124297,0.133350,0.121193,0.167215,0.317910,0.269439,0.280219,0.000000,0.000000,0.000000,0.000000,0.000000,0.000000,
14.000000,5.653704,-0.026727,0.093441,-1.340728,0.051636,0.083604,-0.002375,80.948974,-0.238327,-0.188537,4.184984,0.250000,5.633914,-0.006516,-0.090224,-1.499445,12.000000,0.000000,0.513474,0.000000,0.000000,0.011671,-0.789523,-0.493884,-81.404731,0.089183,-0.078448,-0.158541,0.020211,-0.183664,0.951114,0.562665,-0.357937,0.007643,0.009769,-0.004760,-0.007773,-0.009458,-0.037080,1.349143,1.929791,0.130137,0.145369,0.134769,0.189238,0.381280,0.325618,0.365959,0.000000,0.000000,0.000000,0.000000,0.000000,0.000000,
14.500000,6.411673,-0.023056,0.084022,-1.535085,0.047360,-0.238748,-0.064289,80.959318,-0.686651,-0.372453,5.202636,0.250000,5.983127,-0.007128,-0.133038,-1.504012,13.000000,0.000000,1.535406,0.000000,0.000000,0.011671,0.424712,-0.454117,-81.468688,0.078707,-0.123359,0.030945,0.015928,-0.217060,0.976590,0.550625,0.037116,0.007028,-0.012555,-0.000662,-0.007766,-0.009470,-0.037063,0.929454,1.930017,0.131175,0.160763,0.148668,0.122648,0.451768,0.388210,0.253794,0.000000,0.000000,0.000000,0.000000,0.000000,0.000000,
15.000000,7.188993,-0.020091,0.089380,-1.529553,0.048198,0.363303,0.004882,80.969506,-0.031503,-0.279244,5.202636,0.250000,6.735072,-0.001925,-0.153518,-1.499976,13.000000,0.000000,1.535406,0.000000,0.000000,0.011671,0.424361,-0.457389,-81.484128,0.087625,-0.147597,0.029443,0.018166,-0.242898,1.016356,0.480513,0.051975,0.007028,-0.012555,-0.000662,-0.007766,-0.009470,-0.037063,0.930613,1.930554,0.137258,0.173604,0.162798,0.135023,0.529088,0.459447,0.314472,0.000000,0.000000,0.000000,0.000000,0.000000,0.000000,
15.500000,7.982460,-0.020717,0.126297,-1.566733,0.048271,0.459420,0.013063,80.979351,-0.256827,0.091682,6.724647,0.250000,7.393270,-0.001615,-0.144693,-1.499603,14.000000,0.000000,0.125472,0.000000,0.000000,0.011671,0.619554,-0.448228,-81.507503,0.124368,-0.143917,0.066892,0.019103,-0.270990,1.064258,0.410784,0.173234,0.006841,-0.016147,-0.000006,-0.007764,-0.009472,-0.037061,0.751529,1.930811,0.141837,0.187450,0.177137,0.097175,0.612758,0.537856,0.232761,0.000000,0.000000,0.000000,0.000000,0.000000,0.000000,
16.000000,8.785046,-0.022302,0.167257,-1.566710,0.050838,0.508120,0.030743,80.989463,-0.249215,0.140035,6.724647,0.250000,8.143839,-0.000696,-0.129160,-1.498352,14.000000,0.000000,0.125472,0.000000,0.000000,0.011671,0.620150,-0.450950,-81.523046,0.166045,-0.133237,0.068157,0.021606,-0.296418,1.136965,0.341090,0.206750,0.006841,-0.016147,-0.000006,-0.007764,-0.009472,-0.037061,0.753042,1.931370,0.147966,0.201315,0.191987,0.106037,0.703215,0.623716,0.279308,0.000000,0.000000,0.000000,0.000000,0.000000,0.000000,
16.500000,9.591264,-0.025125,0.209712,-1.562341,0.048851,0.504580,0.041707,81.000193,-0.269845,-0.045128,8.301479,0.250000,8.907039,-0.000592,-0.111374,-1.497503,15.000000,0.000000,0.003522,0.000000,0.000000,0.011671,0.600990,-0.456009,-81.538282,0.208685,-0.119291,0.064632,0.024533,-0.321086,1.231887,0.277802,0.226070,0.006883,-0.015766,-0.000076,-0.007764,-0.009472,-0.037061,0.669159,1.931468,0.153402,0.215578,0.207019,0.082664,0.800217,0.717016,0.217128,0.000000,0.000000,0.000000,0.000000,0.000000,0.000000,
17.000000,10.402518,-0.028283,0.249833,-1.563587,0.049737,0.469216,0.040897,81.009838,-0.384709,0.281466,8.301479,0.250000,9.657066,-0.000822,-0.096077,-1.497847,15.000000,0.000000,0.003522,0.000000,0.000000,0.011671,0.603244,-0.458687,-81.553981,0.248769,-0.107114,0.065534,0.027461,-0.345909,1.346609,0.221121,0.258358,0.006883,-0.015766,-0.000076,-0.007764,-0.009472,-0.037061,0.670944,1.932048,0.159372,0.230444,0.222650,0.089842,0.904401,0.817925,0.255439,0.000000,0.000000,0.000000,0.000000,0.000000,0.000000,
17.500000,11.203255,-0.033837,0.289500,-1.522453,0.050506,0.495245,0.089819,81.020383,-0.302481,0.005958,10.028818,0.250000,10.532200,-0.000791,-0.075659,-1.496685,16.000000,0.000000,0.426291,0.000000,0.000000,0.011671,0.447065,-0.498306,-81.563242,0.288998,-0.087426,0.025556,0.033046,-0.365159,1.494426,0.177743,0.150479,0.007505,-0.012869,-0.000609,-0.007765,-0.009471,-0.037063,0.628214,1.931836,0.164907,0.245288,0.238407,0.074147,1.015381,0.926513,0.205638,0.000000,0.000000,0.000000,0.000000,0.000000,0.000000,
18.000000,12.003837,-0.039682,0.326448,-1.521227,0.048797,0.419781,0.056816,81.031046,-0.360818,0.011162,10.028818,0.250000,11.281842,-0.003251,-0.062362,-1.497070,16.000000,0.000000,0.426291,0.000000,0.000000,0.011671,0.449893,-0.500416,-81.579668,0.324193,-0.074007,0.023988,0.036431,-0.388809,1.648130,0.137549,0.162609,0.007505,-0.012869,-0.000609,-0.007765,-0.009471,-0.037063,0.630188,1.932441,0.170747,0.261122,0.254847,0.080418,1.134010,1.043090,0.238946,0.000000,0.000000,0.000000,0.000000,0.000000,0.000000,
18.500000,12.792616,-0.046517,0.359628,-1.478737,0.048375,0.414529,0.106966,81.041962,-0.366918,0.006927,11.684833,0.250000,12.164042,-0.003519,-0.046473,-1.496225,17.000000,0.000000,0.585893,0.000000,0.000000,0.011671,0.316438,-0.556726,-81.590293,0.357921,-0.056544,-0.017632,0.042999,-0.406101,1.838359,0.115688,0.026389,0.008426,-0.010376,-0.001077,-0.007763,-0.009471,-0.037065,0.607031,1.931798,0.176266,0.276973,0.271445,0.069011,1.259906,1.167664,0.197243,0.000000,0.000000,0.000000,0.000000,0.000000,0.000000,
19.000000,13.579546,-0.053099,0.390322,-1.476031,0.051475,0.367117,0.060677,81.051603,-0.433391,0.025590,11.684833,0.250000,12.913666,-0.006307,-0.038496,-1.497211,17.000000,0.000000,0.585893,0.000000,0.000000,0.011671,0.318742,-0.558519,-81.606310,0.386637,-0.046696,-0.021358,0.046792,-0.428819,2.024760,0.090008,0.016395,0.008426,-0.010376,-0.001077,-0.007763,-0.009471,-0.037065,0.609168,1.932423,0.181967,0.293755,0.288713,0.074701,1.394010,1.300662,0.227411,0.000000,0.000000,0.000000,0.000000,0.000000,0.000000,
19.500000,14.373945,-0.055168,0.417753,-1.487253,0.048608,0.345188,0.014616,81.061493,-0.552873,0.221925,12.945051,0.250000,13.615086,-0.005622,-0.036033,-1.498157,18.000000,0.000000,0.091672,0.000000,0.000000,0.011671,0.361629,-0.535105,-81.624078,0.414812,-0.046323,-0.011147,0.049546,-0.453786,2.215803,0.060915,0.058298,0.007990,-0.011132,-0.000931,-0.007765,-0.009470,-0.037064,0.596213,1.931263,0.187525,0.311094,0.306344,0.065731,1.536108,1.442079,0.191126,0.000000,0.000000,0.000000,0.000000,0.000000,0.000000,
20.000000,15.171741,-0.056926,0.444341,-1.483413,0.045990,0.349650,0.044496,81.072341,-0.681726,-0.179688,12.945051,0.250000,14.365162,-0.003125,-0.032169,-1.497457,18.000000,0.000000,0.091672,0.000000,0.000000,0.011671,0.363181,-0.537979,-81.639957,0.443876,-0.044835,-0.014126,0.053801,-0.476510,2.430779,0.037799,0.051741,0.007990,-0.011132,-0.000931,-0.007765,-0.009470,-0.037064,0.598434,1.931920,0.193011,0.328766,0.324444,0.070939,1.687046,1.592382,0.219226,0.000000,0.000000,0.000000,0.000000,0.000000,0.000000,
20.500000,16.000482,-0.084363,1.137496,-1.483874,0.052107,14.282445,0.477453,81.121470,-1.796347,0.925076,14.392018,0.250000,15.064940,-0.026959,0.605453,-1.491693,19.000000,0.000000,0.103193,0.000000,0.000000,0.011671,0.409247,-0.509410,-81.654375,1.094361,0.516080,-0.008016,0.057404,-0.532042,2.744533,0.094897,0.096504,0.007462,-0.011766,-0.000804,-0.007768,-0.009469,-0.037064,0.590271,1.930525,0.197991,0.346892,0.342887,0.063383,1.846323,1.751474,0.186605,0.000000,0.000000,0.000000,0.000000,0.000000,0.000000,
21.000000,16.965404,-0.125432,2.477595,-1.477821,0.056309,15.969344,0.510452,81.141373,-2.845844,0.244504,14.392018,0.250000,15.812228,-0.063963,1.921109,-1.494156,19.000000,0.000000,0.103193,0.000000,0.000000,0.011671,0.397059,-0.508436,-81.670278,2.397254,1.666994,-0.016412,0.061469,-0.556486,3.612663,0.636017,0.090092,0.007462,-0.011766,-0.000804,-0.007768,-0.009469,-0.037064,0.592402,1.931260,0.203289,0.365503,0.361825,0.068463,2.014933,1.919908,0.213195,0.000000,0.000000,0.000000,0.000000,0.000000,0.000000,
21.500000,18.092981,-0.166665,3.839241,-1.461476,0.053619,16.107632,0.532072,81.158375,-3.583395,0.058797,16.024773,0.250000,16.594775,-0.100666,3.263330,-1.495391,20.000000,0.000000,0.055117,0.000000,0.000000,0.011671,0.375300,-0.530858,9.047327,0.532804,-0.534857,-0.034029,0.065999,-0.575911,3.292427,-0.495531,0.042100,0.007877,-0.011391,-0.000882,-0.007750,-0.009471,-0.037064,0.587921,1.929301,0.208532,0.384500,0.381160,0.062734,2.192221,2.097716,0.183174,0.000000,0.000000,0.000000,0.000000,0.000000,0.000000,
22.000000,19.382585,-0.207262,5.160121,-1.453629,0.055541,16.117940,0.533181,81.169384,-5.271088,0.375456,16.024773,0.250000,17.344012,-0.138285,4.565485,-1.496646,20.000000,0.000000,0.055117,0.000000,0.000000,0.011671,0.376444,-0.529200,9.031343,0.543276,-0.738786,-0.043080,0.068977,-0.594636,3.561583,-0.814129,0.022535,0.007877,-0.011391,-0.000882,-0.007750,-0.009471,-0.037064,0.590329,1.930000,0.213768,0.404098,0.400968,0.068259,2.379368,2.285142,0.208900,0.000000,0.000000,0.000000,0.000000,0.000000,0.000000,
22.500000,20.842515,-0.250337,6.416119,-1.481277,0.054774,15.861740,0.791115,81.254150,-6.258535,1.250280,17.373764,0.250000,18.029327,-0.024114,6.219140,-1.498217,21.000000,1.000000,0.046365,3.607308,0.000000,0.011671,0.666236,-0.823120,-0.165236,0.210814,0.213668,-0.016950,0.226223,-0.196979,1.442856,1.144386,0.076160,0.011649,-0.012904,-0.000743,-0.011879,-0.011123,-0.036969,0.533279,1.780293,0.218772,0.203385,0.160373,0.061150,0.890203,0.673013,0.179847,-2.712692,1.550550,-0.309685,-0.257401,1.109495,0.598044,
23.000000,22.453029,-0.308420,7.576031,-1.475978,0.056119,15.827387,0.824302,81.274231,-7.557710,0.820164,17.373764,0.250000,18.779376,-0.073333,7.380001,-1.498021,21.000000,1.000000,0.046365,3.607308,0.000000,0.011671,0.670410,-0.822975,-0.181174,0.213204,0.227770,-0.022095,0.235087,-0.196030,1.549060,1.254940,0.066137,0.011649,-0.012904,-0.000743,-0.011879,-0.011123,-0.036969,0.534993,1.780447,0.223924,0.218741,0.173860,0.065941,0.973539,0.732855,0.204578,-2.712692,1.550550,-0.309685,-0.257401,1.109495,0.598044,
23.500000,24.144887,-0.308456,7.342747,-1.424114,0.055540,-18.740403,-0.708238,81.067697,-7.426286,0.912983,19.162607,0.250000,19.641055,-0.087105,7.254518,-1.489698,22.000000,2.000000,0.520191,1.483960,0.000000,0.011671,0.583314,-0.864104,2.287318,0.118165,-0.086431,-0.059435,0.221351,-0.088229,1.306345,0.554029,-0.068166,0.012509,-0.011837,-0.000967,-0.012024,-0.011024,-0.037011,0.532900,1.768466,0.230236,0.222252,0.152300,0.059524,0.909789,0.526861,0.177424,-0.537925,-0.975120,-0.627033,-0.104444,-0.258366,-0.394156,
24.000000,25.629413,-0.276876,5.021915,-1.418607,0.062770,-25.149035,-0.252754,80.882185,-5.027072,0.353750,19.162607,0.250000,20.384676,-0.044226,4.951926,-1.487402,22.000000,2.000000,0.520191,1.483960,0.000000,0.011671,0.635014,-0.872016,2.279142,0.122818,0.016761,-0.068776,0.232650,-0.069989,1.366277,0.536045,-0.100599,0.012509,-0.011837,-0.000967,-0.012024,-0.011024,-0.037011,0.538504,1.767428,0.234778,0.237665,0.166062,0.062336,1.004385,0.579224,0.201036,-0.537925,-0.975120,-0.627033,-0.104444,-0.258366,-0.394156,
24.500000,26.812580,-0.271738,2.590214,-1.415303,0.059266,-25.643263,0.025587,80.761399,-2.607445,0.080814,20.511324,0.250000,21.135717,-0.036456,2.586631,-1.494601,23.000000,3.000000,0.003864,5.290298,0.000000,0.011671,0.687263,-1.003036,2.429745,0.069122,0.116054,-0.079374,0.235282,-0.003583,0.892972,0.625009,-0.143028,0.014841,-0.012198,-0.000979,-0.012347,-0.010745,-0.037029,0.536836,1.756261,0.239449,0.252859,0.154610,0.057665,1.106492,0.473464,0.174748,-1.388438,0.279247,-0.312733,0.570479,-0.340299,-0.361141,
25.000000,27.731995,-0.276880,0.949086,-1.439121,0.054463,-7.901614,0.123154,80.736906,-0.969447,-0.083471,20.511324,0.250000,21.890583,-0.030180,0.906529,-1.517970,23.000000,3.000000,0.003864,5.290298,0.000000,0.011671,0.735727,-1.011856,2.417721,0.090936,0.196272,-0.079661,0.246700,-0.042557,0.932994,0.706642,-0.183119,0.014841,-0.012198,-0.000979,-0.012347,-0.010745,-0.037029,0.539357,1.756211,0.244372,0.269559,0.168721,0.062508,1.219878,0.527798,0.197320,-1.388438,0.279247,-0.312733,0.570479,-0.340299,-0.361141,
25.500000,28.557894,-0.252653,0.786961,-1.437719,0.046771,1.617946,-0.472890,80.773708,-0.773428,-0.071766,21.868856,0.250000,22.586784,-0.056617,0.716570,-1.506115,24.000000,4.000000,0.252153,0.289209,0.000000,0.011671,0.729924,-1.012783,1.949840,0.097332,0.158913,-0.068548,0.196036,-0.070391,1.004696,0.738879,-0.157667,0.015518,-0.012801,-0.000880,-0.012319,-0.009894,-0.037110,0.534690,1.740145,0.249839,0.257168,0.157822,0.058297,1.245349,0.453251,0.172996,0.082967,-0.067331,-1.930710,-0.043749,-0.278455,-0.023237,
26.000000,29.386260,-0.226370,0.931472,-1.429113,0.049925,1.302358,-0.063248,80.796577,-0.951984,0.029932,21.868856,0.250000,23.339365,-0.021304,0.861602,-1.500824,24.000000,4.000000,0.252153,0.289209,0.000000,0.011671,0.724155,-1.016139,1.938923,0.096423,0.162771,-0.071720,0.205066,-0.069871,1.053429,0.819417,-0.192995,0.015518,-0.012801,-0.000880,-0.012319,-0.009894,-0.037110,0.536107,1.740502,0.254559,0.273160,0.171820,0.062292,1.361377,0.511568,0.195820,0.082967,-0.067331,-1.930710,-0.043749,-0.278455,-0.023237,
26.500000,30.233008,-0.181719,0.956610,-1.452424,0.047194,-0.232916,-0.750721,80.800148,-0.563872,-0.330435,23.136410,0.250000,23.966010,-0.051830,0.937209,-1.500036,25.000000,5.000000,1.204270,1.431182,0.000000,0.011671,0.797342,-0.931930,1.216551,0.038685,0.106382,-0.047673,0.129889,-0.019402,0.926143,0.842327,-0.095313,0.014918,-0.013404,-0.000724,-0.013021,-0.008821,-0.037213,0.532028,1.721812,0.260064,0.248573,0.159160,0.057739,1.337149,0.447453,0.172419,-0.294352,0.072718,9.068649,-0.269555,-0.411996,-0.198620,
27.000000,31.078373,-0.141225,0.932267,-1.448620,0.047643,-0.047542,-0.142410,80.808315,-0.978404,0.405538,23.136410,0.250000,24.716645,-0.005652,0.916105,-1.498723,25.000000,5.000000,1.204270,1.431182,0.000000,0.011671,0.802204,-0.935073,1.209045,0.035118,0.112364,-0.050169,0.135573,-0.016162,0.944767,0.897222,-0.120020,0.014918,-0.013404,-0.000724,-0.013021,-0.008821,-0.037213,0.533617,1.722216,0.264574,0.263418,0.173039,0.061727,1.448293,0.509012,0.195255,-0.294352,0.072718,9.068649,-0.269555,-0.411996,-0.198620,
27.500000,31.935188,-0.098196,0.929931,-1.485578,0.047823,0.146134,-0.691607,80.818071,-0.947827,0.050546,24.418579,0.250000,25.302783,-0.026204,0.917787,-1.498890,26.000000,6.000000,1.900542,0.365348,0.000000,0.011671,0.818128,-0.733131,0.761814,0.022053,0.058114,-0.013432,0.071992,-0.012144,0.926496,0.810089,0.033102,0.012061,-0.013721,-0.000541,-0.013026,-0.007980,-0.037280,0.529541,1.704241,0.269911,0.231931,0.158487,0.057050,1.384098,0.447149,0.172041,-0.058072,-0.201885,-2.615484,-0.073741,-0.264165,-0.130515,
28.000000,32.794914,-0.061543,0.936281,-1.483267,0.048546,0.166685,-0.132580,80.830061,-0.436908,0.667845,24.418579,0.250000,26.053212,0.012958,0.927822,-1.497932,26.000000,6.000000,1.900542,0.365348,0.000000,0.011671,0.821654,-0.735925,0.753793,0.018115,0.060436,-0.014859,0.074500,-0.008459,0.936751,0.839913,0.025784,0.012061,-0.013721,-0.000541,-0.013026,-0.007980,-0.037280,0.531082,1.704765,0.274454,0.245544,0.172146,0.060840,1.485399,0.510428,0.194644,-0.058072,-0.201885,-2.615484,-0.073741,-0.264165,-0.130515,
28.500000,33.649371,-0.090253,0.924571,-1.471253,0.048768,-0.176222,0.615757,80.840581,-0.805049,0.046836,26.278898,0.250000,26.842034,0.037925,0.951579,-1.497909,27.000000,7.000000,0.070865,0.526635,0.000000,0.011671,0.834062,-0.774195,0.928426,-0.008943,0.114726,-0.026857,0.128178,0.027008,0.848559,1.068546,-0.025063,0.012162,-0.013487,-0.000596,-0.013423,-0.008551,-0.037235,0.527154,1.689412,0.278968,0.212342,0.156354,0.056285,1.397653,0.448215,0.171513,-0.244320,0.479810,-0.572035,0.016632,-0.020876,-0.160899,
29.000000,34.500393,-0.126372,0.909456,-1.469481,0.047460,0.014282,0.228530,80.851504,-1.056653,0.114750,26.278898,0.250000,27.592005,0.004796,0.942267,-1.498047,27.000000,7.000000,0.070865,0.526635,0.000000,0.011671,0.836856,-0.774328,0.906700,-0.013801,0.119630,-0.028652,0.131167,0.032811,0.843139,1.127342,-0.039194,0.012162,-0.013487,-0.000596,-0.013423,-0.008551,-0.037235,0.529101,1.689918,0.284076,0.224930,0.169783,0.060025,1.486793,0.511859,0.193787,-0.244320,0.479810,-0.572035,0.016632,-0.020876,-0.160899,
29.500000,35.350724,-0.175604,0.881546,-1.471390,0.049536,-0.390190,0.806405,80.859658,-0.924126,-0.088144,27.682377,0.250000,28.325675,0.041522,0.969661,-1.497817,28.000000,8.000000,0.020833,1.373354,0.000000,0.011671,0.847377,-0.706037,1.232466,-0.055950,0.206568,-0.026646,0.217126,0.088115,0.663698,1.505368,-0.036437,0.010184,-0.013100,-0.000601,-0.014011,-0.009392,-0.037182,0.526069,1.677272,0.288734,0.194508,0.153694,0.055617,1.400982,0.448930,0.170865,-0.474736,0.760562,5.674189,0.091696,-0.048394,-0.001117,
30.000000,36.197588,-0.221053,0.854170,-1.469348,0.046471,-0.073456,0.291998,80.872414,-0.092001,-0.273544,27.682377,0.250000,29.075721,0.002565,0.950788,-1.497473,28.000000,8.000000,0.020833,1.373354,0.000000,0.011671,0.850301,-0.706442,1.208685,-0.062765,0.215820,-0.028301,0.223617,0.096618,0.634306,1.611181,-0.050421,0.010184,-0.013100,-0.000601,-0.014011,-0.009392,-0.037182,0.527996,1.677830,0.293837,0.206434,0.166937,0.059250,1.478347,0.512100,0.192790,-0.474736,0.760562,5.674189,0.091696,-0.048394,-0.001117,
30.500000,37.046384,-0.209166,0.840511,-1.479676,0.050250,-0.083850,-0.338170,80.883168,-0.749911,-0.361075,29.182049,0.250000,29.797448,-0.019284,0.958736,-1.498120,29.000000,9.000000,0.000003,4.043579,0.000000,0.011671,0.874309,-0.675092,1.056995,-0.088596,0.189190,-0.018706,0.189882,0.118224,0.526009,1.523857,-0.032437,0.009948,-0.013315,-0.000547,-0.014177,-0.009065,-0.037232,0.525958,1.667908,0.299052,0.180201,0.151121,0.055041,1.405514,0.448751,0.170151,-0.197274,-0.650970,2.463496,0.010714,0.358031,0.828447,
31.000000,37.893500,-0.190874,0.829753,-1.478237,0.048775,-0.011015,-0.020028,80.893306,-0.796974,-0.065256,29.182049,0.250000,30.547577,0.006301,0.958330,-1.498003,29.000000,9.000000,0.000003,4.043579,0.000000,0.011671,0.877835,-0.678278,1.045770,-0.098322,0.197833,-0.019975,0.197175,0.128577,0.479496,1.620798,-0.042353,0.009948,-0.013315,-0.000547,-0.014177,-0.009065,-0.037232,0.527617,1.668563,0.303734,0.191810,0.164242,0.058631,1.472566,0.511072,0.191760,-0.197274,-0.650970,2.463496,0.010714,0.358031,0.828447,
31.500000,38.736051,-0.185681,0.859195,-1.466303,0.048151,0.670797,-0.055170,80.903200,-1.140129,0.586502,30.711585,0.250000,31.322978,-0.003294,0.932752,-1.497139,30.000000,10.000000,0.000348,2.828470,0.000000,0.011671,0.840096,-0.720473,0.936907,-0.046909,0.176907,-0.031093,0.182388,0.073557,0.665096,1.641648,-0.082277,0.010898,-0.013327,-0.000584,-0.013338,-0.008786,-0.037207,0.525851,1.661356,0.308596,0.169111,0.148987,0.054622,1.411532,0.447826,0.169464,0.522705,-0.059660,-3.468405,0.147748,-0.262363,-0.730868,
32.000000,39.581852,-0.184396,0.889818,-1.465377,0.050628,0.194010,0.065616,80.914186,-1.031708,0.087442,30.711585,0.250000,32.072926,0.004036,0.972211,-1.497760,30.000000,10.000000,0.000348,2.828470,0.000000,0.011671,0.845903,-0.723796,0.922675,-0.054219,0.183589,-0.032549,0.188432,0.082394,0.640050,1.731926,-0.098439,0.010898,-0.013327,-0.000584,-0.013338,-0.008786,-0.037207,0.527572,1.662022,0.313374,0.180664,0.162037,0.058193,1.469580,0.509260,0.190833,0.522705,-0.059660,-3.468405,0.147748,-0.262363,-0.730868,
32.500000,40.426925,-0.128916,0.891370,-1.460611,0.048384,0.059646,-1.037687,80.922421,-0.766715,0.003835,32.273226,0.250000,32.842313,-0.052270,0.973735,-1.497802,31.000000,11.000000,0.054339,1.643171,0.000000,0.011671,0.861940,-0.739910,0.462208,-0.069744,0.082457,-0.037417,0.076647,0.082364,0.563951,1.389909,-0.136024,0.012274,-0.013600,-0.000580,-0.013199,-0.007612,-0.037235,0.526650,1.656819,0.318890,0.160587,0.147450,0.054333,1.414422,0.446552,0.168877,-0.145883,-0.973126,-0.288736,0.093475,-0.152989,0.258754,
33.000000,41.269167,-0.071228,0.886549,-1.459025,0.049517,0.008485,-0.250622,80.932910,0.213520,0.433374,32.273226,0.250000,33.592311,0.008114,0.977264,-1.497864,31.000000,11.000000,0.054339,1.643171,0.000000,0.011671,0.867008,-0.742268,0.458130,-0.078161,0.085365,-0.039033,0.079341,0.090715,0.527199,1.432042,-0.155392,0.012274,-0.013600,-0.000580,-0.013199,-0.007612,-0.037235,0.528008,1.657562,0.323180,0.172263,0.160475,0.057888,1.464354,0.507247,0.190080,-0.145883,-0.973126,-0.288736,0.093475,-0.152989,0.258754,
33.500000,42.118172,-0.056634,0.868367,-1.481829,0.048403,-0.203354,-0.115420,80.943206,-0.973700,0.065350,33.416926,0.250000,34.233272,0.009131,0.986826,-1.498206,32.000000,12.000000,1.041872,1.255886,0.000000,0.011671,0.896833,-0.655436,0.351293,-0.107156,0.077759,-0.016623,0.065765,0.118459,0.425248,1.382981,-0.057349,0.010752,-0.013770,-0.000492,-0.013515,-0.007551,-0.037258,0.526568,1.653890,0.327901,0.154961,0.146530,0.054091,1.422847,0.445282,0.168407,-0.063916,-0.381482,0.970866,-0.195649,0.322366,-0.331123,
34.000000,42.966517,-0.052706,0.849381,-1.480854,0.049435,-0.067828,0.025472,80.953009,-0.895883,0.022819,33.416926,0.250000,34.983507,0.014295,0.977791,-1.498350,32.000000,12.000000,1.041872,1.255886,0.000000,0.011671,0.899594,-0.658498,0.337515,-0.117022,0.080632,-0.017693,0.067001,0.128410,0.369440,1.422772,-0.066176,0.010752,-0.013770,-0.000492,-0.013515,-0.007551,-0.037258,0.528284,1.654576,0.332624,0.166853,0.159547,0.057585,1.466218,0.505476,0.189466,-0.063916,-0.381482,0.970866,-0.195649,0.322366,-0.331123,
34.500000,43.823039,-0.005137,0.884733,-1.503118,0.047026,0.820118,-0.887171,80.957519,-0.872511,0.140425,34.889090,0.250000,35.641624,-0.026673,0.939934,-1.498834,33.000000,13.000000,0.484922,2.288744,0.000000,0.011671,0.872658,-0.557983,0.148130,-0.059110,-0.013465,0.004165,-0.021536,0.055201,0.575053,1.062073,0.025273,0.009905,-0.014173,-0.000400,-0.012579,-0.006609,-0.037242,0.527366,1.651601,0.337924,0.151522,0.146032,0.053842,1.438059,0.444437,0.168002,0.595380,-0.950267,5.733651,0.163575,-0.112427,0.288714,
35.000000,44.686633,0.044393,0.923463,-1.501420,0.046566,0.237592,-0.237198,80.974006,-0.395980,-0.670481,34.889090,0.250000,36.391883,0.021211,0.986356,-1.497734,33.000000,13.000000,0.484922,2.288744,0.000000,0.011671,0.877934,-0.559722,0.141910,-0.066379,-0.014989,0.003518,-0.023182,0.062893,0.543927,1.055125,0.026948,0.009905,-0.014173,-0.000400,-0.012579,-0.006609,-0.037242,0.528689,1.652381,0.342302,0.163642,0.159053,0.057288,1.476358,0.504332,0.188919,0.595380,-0.950267,5.733651,0.163575,-0.112427,0.288714,
35.500000,45.554985,0.050450,0.932607,-1.509297,0.045561,0.181803,0.015275,80.985340,-1.000893,0.302313,36.427892,0.250000,37.105067,0.023845,0.982261,-1.497898,34.000000,14.000000,0.098424,0.190712,0.000000,0.011671,0.874639,-0.534167,0.150105,-0.053818,-0.021018,0.011283,-0.026605,0.049654,0.580722,1.047063,0.068455,0.009440,-0.014271,-0.000369,-0.012335,-0.006558,-0.037234,0.526962,1.650022,0.346928,0.149180,0.145821,0.053599,1.451000,0.444302,0.167630,0.131048,0.057735,-3.836702,0.102838,-0.126130,-0.021457,
36.000000,46.424717,0.048298,0.933867,-1.508614,0.048324,0.045242,0.015743,80.995665,-0.917116,0.193154,36.427892,0.250000,37.855170,0.018492,0.989909,-1.497600,34.000000,14.000000,0.098424,0.190712,0.000000,0.011671,0.880279,-0.535611,0.134113,-0.060360,-0.022983,0.010785,-0.029806,0.056042,0.552416,1.036247,0.073719,0.009440,-0.014271,-0.000369,-0.012335,-0.006558,-0.037234,0.528713,1.650699,0.351679,0.161508,0.158841,0.057004,1.484900,0.504061,0.188413,0.131048,0.057735,-3.836702,0.102838,-0.126130,-0.021457,
36.500000,47.293604,0.053705,0.924411,-1.508364,0.047011,-0.051067,-0.113594,81.006373,-0.936663,0.174542,37.922715,0.250000,38.591867,0.010373,0.992546,-1.497627,35.000000,15.000000,0.074561,2.030809,0.000000,0.011671,0.893234,-0.532948,0.085519,-0.074077,-0.033468,0.010569,-0.043332,0.068135,0.529674,0.947059,0.092078,0.009438,-0.014268,-0.000368,-0.012473,-0.006520,-0.037242,0.526930,1.648634,0.356468,0.147852,0.145694,0.053368,1.468799,0.444384,0.167283,0.147867,-0.322973,5.986998,-0.264890,0.269300,-0.521246,
37.000000,48.160798,0.060470,0.913593,-1.507681,0.046644,-0.012528,-0.044099,81.016948,-0.863351,0.204199,37.922715,0.250000,39.341878,0.014014,0.989202,-1.497450,35.000000,15.000000,0.074561,2.030809,0.000000,0.011671,0.896569,-0.534684,0.070459,-0.081975,-0.035232,0.010006,-0.046457,0.075609,0.490893,0.930066,0.096969,0.009438,-0.014268,-0.000368,-0.012473,-0.006520,-0.037242,0.528643,1.649313,0.361171,0.160336,0.158707,0.056739,1.499484,0.504052,0.187941,0.147867,-0.322973,5.986998,-0.264890,0.269300,-0.521246,
37.500000,49.030257,0.048692,0.897845,-1.517421,0.047043,-0.140761,0.238719,81.026914,-0.678661,-0.139577,39.380894,0.250000,40.052657,0.024838,0.994791,-1.497771,36.000000,16.000000,0.081888,0.251546,0.000000,0.011671,0.917709,-0.539365,0.047835,-0.099341,-0.009671,0.019424,-0.023854,0.096946,0.404248,1.017308,0.144700,0.009188,-0.014424,-0.000331,-0.012619,-0.006813,-0.037249,0.526542,1.647524,0.365775,0.147199,0.145629,0.053151,1.490936,0.444631,0.166958,-0.127148,0.231524,-2.857695,0.034448,0.072525,0.158400,
38.000000,49.898714,0.035333,0.882118,-1.516938,0.046165,-0.044991,0.063024,81.037661,-0.987518,0.596783,39.380894,0.250000,40.802748,0.009409,0.987651,-1.497599,36.000000,16.000000,0.081888,0.251546,0.000000,0.011671,0.920390,-0.538548,0.029045,-0.108180,-0.009794,0.019097,-0.025925,0.105533,0.352605,1.012635,0.154069,0.009188,-0.014424,-0.000331,-0.012619,-0.006813,-0.037249,0.528338,1.648173,0.370559,0.159780,0.158629,0.056488,1.519528,0.504238,0.187497,-0.127148,0.231524,-2.857695,0.034448,0.072525,0.158400,
38.500000,50.763737,0.038651,0.887520,-1.510888,0.046116,0.305916,-0.109505,81.047747,-0.848106,0.474941,41.002879,0.250000,41.577415,0.001657,0.972207,-1.498017,37.000000,17.000000,0.042890,0.376302,0.000000,0.011671,0.898179,-0.539379,0.000926,-0.089719,-0.023161,0.012750,-0.036994,0.084687,0.398602,0.952783,0.136329,0.009314,-0.014333,-0.000353,-0.012280,-0.006721,-0.037238,0.526162,1.646422,0.375331,0.146325,0.144917,0.052943,1.517345,0.442848,0.166648,0.209242,-0.133771,-7.536798,0.103540,-0.011648,-0.052893,
39.000000,51.629300,0.045790,0.897873,-1.509950,0.048445,0.092203,-0.046708,81.058575,-0.814954,0.183858,41.002879,0.250000,42.327377,0.006836,0.990755,-1.497404,37.000000,17.000000,0.042890,0.376302,0.000000,0.011671,0.903432,-0.540945,-0.014311,-0.097779,-0.023716,0.012285,-0.038953,0.092882,0.351980,0.941239,0.142339,0.009314,-0.014333,-0.000353,-0.012280,-0.006721,-0.037238,0.527860,1.647086,0.380009,0.158922,0.157873,0.056252,1.544730,0.501983,0.187073,0.209242,-0.133771,-7.536798,0.103540,-0.011648,-0.052893,
39.500000,52.498925,0.022691,0.919646,-1.517946,0.051661,0.576695,0.535253,81.072055,-0.755167,0.208369,42.390573,0.250000,43.046848,0.033499,0.962583,-1.498053,38.000000,18.000000,0.051982,1.590644,0.000000,0.011671,0.884760,-0.584484,-0.116333,-0.041228,0.018581,0.019684,0.010808,0.042937,0.586379,1.057685,0.181605,0.009383,-0.014528,-0.000323,-0.011722,-0.007354,-0.037223,0.525296,1.645605,0.384502,0.145928,0.144524,0.052751,1.545231,0.441636,0.166354,0.748980,0.161845,-6.745658,-0.051273,0.348030,0.155164,
40.000000,53.373978,-0.009538,0.945467,-1.517755,0.050386,0.183621,0.183747,81.079883,-0.935416,0.137522,42.390573,0.250000,43.796908,0.001704,0.994922,-1.498092,38.000000,18.000000,0.051982,1.590644,0.000000,0.011671,0.889724,-0.584229,-0.137662,-0.046945,0.020872,0.019456,0.011242,0.049455,0.564590,1.067745,0.191146,0.009383,-0.014528,-0.000323,-0.011722,-0.007354,-0.037223,0.527187,1.646202,0.389298,0.158533,0.157451,0.056031,1.572019,0.500490,0.186673,0.748980,0.161845,-6.745658,-0.051273,0.348030,0.155164,
40.500000,54.239356,-0.009080,0.945180,-1.487961,0.045876,0.046121,-0.124200,81.090172,-0.533891,0.100315,44.273590,0.250000,44.670874,-0.010056,0.997308,-1.496720,39.000000,19.000000,1.181724,0.210791,0.000000,0.011671,0.865839,-0.593525,-0.125634,-0.051237,0.009458,-0.008921,-0.000976,0.052128,0.554629,1.047166,0.065762,0.009759,-0.014037,-0.000422,-0.011666,-0.007170,-0.037224,0.524965,1.644675,0.394087,0.145583,0.144199,0.052573,1.572323,0.440566,0.166077,0.066350,-0.001491,-3.379955,-0.065674,-0.166422,0.090233,
41.000000,55.100664,-0.000509,0.938837,-1.487682,0.045385,0.004085,-0.045741,81.100316,-1.184174,0.002930,44.273590,0.250000,45.420605,-0.000955,0.997462,-1.497044,39.000000,19.000000,1.181724,0.210791,0.000000,0.011671,0.870357,-0.595305,-0.140391,-0.057467,0.011111,-0.009556,-0.000446,0.058625,0.527685,1.052488,0.060897,0.009759,-0.014037,-0.000422,-0.011666,-0.007170,-0.037224,0.526649,1.645319,0.398734,0.158181,0.157101,0.055829,1.598649,0.499214,0.186297,0.066350,-0.001491,-3.379955,-0.065674,-0.166422,0.090233,
41.500000,55.951522,0.014212,0.919922,-1.464526,0.049942,-0.243305,-0.282427,81.110830,-0.882021,-0.009854,45.787913,0.250000,46.261761,-0.014477,1.009560,-1.496977,40.000000,20.000000,0.547524,1.671277,0.000000,0.011671,0.874014,-0.587043,-0.131740,-0.092102,-0.011836,-0.032687,-0.028689,0.089639,0.452279,0.936624,-0.044178,0.009901,-0.013624,-0.000500,-0.012012,-0.006887,-0.037230,0.524427,1.644077,0.403490,0.145508,0.143993,0.052413,1.602709,0.439783,0.165818,0.128868,-0.369121,0.669004,-0.525785,0.122994,-0.269230,
42.000000,56.796052,0.030723,0.897161,-1.464008,0.051185,-0.094755,-0.085035,81.120596,-1.024693,0.793208,45.787913,0.250000,47.011557,0.001670,0.995461,-1.497541,40.000000,20.000000,0.547524,1.671277,0.000000,0.011671,0.876254,-0.589267,-0.144833,-0.100907,-0.010941,-0.033742,-0.029053,0.098299,0.404261,0.931099,-0.061035,0.009901,-0.013624,-0.000500,-0.012012,-0.006887,-0.037230,0.526063,1.644722,0.408077,0.158087,0.156874,0.055647,1.629178,0.498304,0.185948,0.128868,-0.369121,0.669004,-0.525785,0.122994,-0.269230,
42.500000,57.636801,0.046825,0.893153,-1.459402,0.047462,0.139081,-0.291807,81.130700,-0.817073,0.313406,47.201281,0.250000,47.778962,-0.011625,0.985579,-1.497304,41.000000,21.000000,0.030496,0.263117,0.000000,0.011671,0.864283,-0.571190,-0.132068,-0.100019,-0.040793,-0.038185,-0.058450,0.092426,0.382225,0.793044,-0.097243,0.009876,-0.013556,-0.000512,-0.011849,-0.006607,-0.037226,0.523892,1.643725,0.412810,0.145685,0.143878,0.052269,1.636546,0.439347,0.165577,0.039763,-0.345196,-0.275532,0.081010,0.010836,0.125791,
43.000000,58.476469,0.063856,0.893651,-1.458560,0.050813,0.030757,-0.096201,81.140923,-1.075320,0.176420,47.201281,0.250000,48.528912,0.003789,0.994970,-1.497746,41.000000,21.000000,0.030496,0.263117,0.000000,0.011671,0.869107,-0.573393,-0.144969,-0.108864,-0.041112,-0.039354,-0.060066,0.101319,0.330257,0.772744,-0.116865,0.009876,-0.013556,-0.000512,-0.011849,-0.006607,-0.037226,0.525509,1.644368,0.417389,0.158237,0.156738,0.055482,1.663666,0.497796,0.185625,0.039763,-0.345196,-0.275532,0.081010,0.010836,0.125791,
43.500000,59.314209,0.065564,0.907229,-1.453799,0.049460,0.437835,0.024003,81.151525,-0.876729,0.207223,48.703472,0.250000,49.294085,0.006225,0.972870,-1.497741,42.000000,22.000000,0.015955,0.557573,0.000000,0.011671,0.837858,-0.582420,-0.173368,-0.074048,-0.045579,-0.044109,-0.059338,0.065641,0.413642,0.713474,-0.153691,0.009915,-0.013501,-0.000523,-0.011355,-0.006675,-0.037211,0.523228,1.643526,0.421991,0.145951,0.143773,0.052137,1.672252,0.439140,0.165355,0.202795,-0.165236,1.060690,0.332238,0.138961,-0.025462,
44.000000,60.153768,0.063766,0.924900,-1.452578,0.048276,0.128840,0.004397,81.161574,-0.961208,0.089622,48.703472,0.250000,50.044052,0.002950,0.997891,-1.497686,42.000000,22.000000,0.015955,0.557573,0.000000,0.011671,0.842630,-0.583354,-0.189539,-0.081030,-0.045613,-0.045332,-0.060816,0.072991,0.375128,0.690864,-0.176284,0.009915,-0.013501,-0.000523,-0.011355,-0.006675,-0.037211,0.524933,1.644141,0.426640,0.158472,0.156610,0.055329,1.700178,0.497528,0.185326,0.202795,-0.165236,1.060690,0.332238,0.138961,-0.025462,
44.500000,61.006132,0.062434,0.963935,-1.480615,0.049038,0.932551,0.027469,81.171839,-2.103614,0.511151,49.794889,0.250000,50.661666,0.004752,0.950728,-1.498794,43.000000,23.000000,1.501302,1.729398,0.000000,0.011671,0.814959,-0.576606,-0.204922,0.003471,-0.055512,-0.018361,-0.057682,-0.013207,0.702509,0.639470,-0.056193,0.009755,-0.013987,-0.000433,-0.010465,-0.006702,-0.037191,0.522712,1.643358,0.431268,0.146301,0.143732,0.052012,1.708333,0.438990,0.165148,0.867932,-0.023147,2.978517,0.176777,-0.109891,-0.370286,
45.000000,61.868143,0.060998,1.011056,-1.479367,0.048022,0.317054,-0.000057,81.182062,-0.971417,0.120836,49.794889,0.250000,51.411960,0.002086,1.001557,-1.498517,43.000000,23.000000,1.501302,1.729398,0.000000,0.011671,0.818807,-0.577251,-0.221379,0.000597,-0.055793,-0.019232,-0.058912,-0.009499,0.703780,0.611834,-0.065844,0.009755,-0.013987,-0.000433,-0.010465,-0.006702,-0.037191,0.524414,1.643968,0.435909,0.158799,0.156551,0.055182,1.737012,0.497346,0.185047,0.867932,-0.023147,2.978517,0.176777,-0.109891,-0.370286,
45.500000,62.741725,0.069105,1.015409,-1.502733,0.049133,0.071752,-0.175215,81.191811,-0.876396,0.236186,51.271274,0.250000,52.059937,-0.005825,1.002079,-1.498847,44.000000,24.000000,0.774103,0.192912,0.000000,0.011671,0.841560,-0.557137,-0.240017,0.002406,-0.071678,0.003749,-0.074930,-0.013330,0.722959,0.504756,0.035420,0.009545,-0.014360,-0.000361,-0.010414,-0.006589,-0.037188,0.522256,1.643053,0.440592,0.146439,0.143667,0.051891,1.741565,0.438804,0.164953,0.041392,-0.241757,2.840709,0.022406,0.079766,0.089129,
46.000000,63.617132,0.079581,1.010642,-1.501343,0.048926,0.041480,-0.065466,81.202191,-0.996629,0.203671,51.271274,0.250000,52.810171,0.003170,1.000110,-1.498055,44.000000,24.000000,0.774103,0.192912,0.000000,0.011671,0.845288,-0.559035,-0.254418,-0.000470,-0.072646,0.003069,-0.076411,-0.010532,0.723683,0.468854,0.036888,0.009545,-0.014360,-0.000361,-0.010414,-0.006589,-0.037188,0.523894,1.643671,0.445179,0.158910,0.156466,0.055039,1.770484,0.497124,0.184782,0.041392,-0.241757,2.840709,0.022406,0.079766,0.089129,
46.500000,64.491072,0.052843,1.010235,-1.498746,0.045597,0.151640,0.617141,81.213875,-1.226900,0.055014,52.918897,0.250000,53.558614,0.034333,0.993186,-1.497612,45.000000,25.000000,0.007024,1.848147,0.000000,0.011671,0.838112,-0.612399,-0.326117,0.014877,-0.016255,0.000982,-0.018510,-0.017049,0.756291,0.606001,0.039110,0.009676,-0.014359,-0.000364,-0.010276,-0.007251,-0.037170,0.521392,1.642828,0.449622,0.146584,0.143535,0.051774,1.777046,0.438700,0.164767,-0.063002,0.215602,0.885455,0.316144,0.488560,-0.380626,
47.000000,65.365562,0.015445,1.012182,-1.498083,0.045986,0.092269,0.211947,81.223156,-1.001798,-0.141254,52.918897,0.250000,54.308631,-0.001841,0.997637,-1.497489,45.000000,25.000000,0.007024,1.848147,0.000000,0.011671,0.841621,-0.612265,-0.347873,0.012626,-0.013659,0.000432,-0.017286,-0.014545,0.763402,0.598726,0.039209,0.009676,-0.014359,-0.000364,-0.010276,-0.007251,-0.037170,0.523221,1.643387,0.454328,0.159034,0.156312,0.054905,1.806398,0.496960,0.184529,-0.063002,0.215602,0.885455,0.316144,0.488560,-0.380626,
47.500000,66.243021,0.036306,1.016481,-1.505119,0.051340,0.211061,-0.588408,81.230975,-0.967341,0.003341,54.300440,0.250000,55.016644,-0.034804,0.989752,-1.498125,46.000000,26.000000,0.209073,1.818805,0.000000,0.011671,0.837157,-0.563639,-0.323705,0.016222,-0.067886,0.006737,-0.071110,-0.026729,0.777835,0.405595,0.083799,0.009534,-0.014440,-0.000346,-0.010113,-0.006672,-0.037181,0.521389,1.642437,0.459202,0.146843,0.143430,0.051666,1.814473,0.438388,0.164591,-0.031769,-0.295902,-4.989480,0.115789,-0.394008,-0.510216,
48.000000,67.120973,0.072396,1.021550,-1.504445,0.049861,0.110827,-0.204554,81.242434,-0.788016,0.228595,54.300440,0.250000,55.766705,0.001091,0.996964,-1.497954,46.000000,26.000000,0.209073,1.818805,0.000000,0.011671,0.841185,-0.565016,-0.334209,0.014385,-0.068133,0.006278,-0.071305,-0.024586,0.785737,0.371760,0.086807,0.009534,-0.014440,-0.000346,-0.010113,-0.006672,-0.037181,0.522866,1.643078,0.463670,0.159267,0.156191,0.054780,1.844419,0.496602,0.184290,-0.031769,-0.295902,-4.989480,0.115789,-0.394008,-0.510216,
48.500000,67.991437,0.053055,1.010423,-1.487145,0.047794,-0.131633,0.545168,81.253257,-1.029297,0.062313,56.215827,0.250000,56.611835,0.031507,1.007393,-1.497883,47.000000,27.000000,1.008601,4.041924,0.000000,0.011671,0.846127,-0.613275,-0.377632,0.001178,-0.016096,-0.010855,-0.021548,-0.003030,0.759154,0.530917,-0.012175,0.009742,-0.014219,-0.000391,-0.010294,-0.007156,-0.037172,0.520413,1.642316,0.468077,0.147063,0.143275,0.051566,1.853042,0.438273,0.164424,-0.043099,0.394023,5.017335,-0.096530,0.218012,0.946977,
49.000000,68.858562,0.019075,0.995004,-1.486444,0.047759,-0.009695,0.199586,81.264076,-1.129969,0.290996,56.215827,0.250000,57.361702,-0.001322,0.995377,-1.497888,47.000000,27.000000,1.008601,4.041924,0.000000,0.011671,0.847479,-0.613193,-0.398587,-0.002278,-0.013606,-0.011568,-0.020398,0.000373,0.759103,0.523688,-0.018038,0.009742,-0.014219,-0.000391,-0.010294,-0.007156,-0.037172,0.522182,1.642881,0.472751,0.159459,0.156012,0.054666,1.883552,0.496418,0.184065,-0.043099,0.394023,5.017335,-0.096530,0.218012,0.946977,
49.500000,69.729034,0.005598,0.986290,-1.497569,0.046368,-0.004274,0.159354,81.274149,-0.983712,0.068073,57.348390,0.250000,58.059222,0.002269,0.995620,-1.498320,48.000000,28.000000,0.224762,0.110969,0.000000,0.011671,0.862524,-0.617438,-0.426917,-0.008438,0.005194,-0.000814,-0.003328,0.009330,0.749278,0.592920,0.032645,0.009662,-0.014381,-0.000360,-0.010348,-0.007284,-0.037170,0.520074,1.642161,0.477356,0.147456,0.143199,0.051474,1.893685,0.437944,0.164268,-0.011342,0.213674,-1.488890,-0.017941,-0.044218,-0.070650,
50.000000,70.599714,-0.003109,0.979064,-1.496570,0.048803,0.033981,0.056535,81.284555,-0.945790,0.281110,57.348390,0.250000,58.809302,-0.003961,0.992579,-1.497534,48.000000,28.000000,0.224762,0.110969,0.000000,0.011671,0.864683,-0.617481,-0.444490,-0.012237,0.008724,-0.001198,-0.000852,0.013515,0.744343,0.596580,0.031889,0.009662,-0.014381,-0.000360,-0.010348,-0.007284,-0.037170,0.521772,1.642741,0.481974,0.159824,0.155920,0.054559,1.924913,0.496057,0.183856,-0.011342,0.213674,-1.488890,-0.017941,-0.044218,-0.070650,
50.500000,71.474211,0.021158,0.981076,-1.507807,0.046249,0.193483,-0.555137,81.293661,-0.992858,0.274412,58.776127,0.250000,59.503161,-0.031944,0.984278,-1.497831,49.000000,29.000000,0.289293,0.751314,0.000000,0.011671,0.866461,-0.574033,-0.439060,-0.010290,-0.043651,0.009817,-0.053102,0.003202,0.772686,0.365544,0.091585,0.009500,-0.014519,-0.000330,-0.010245,-0.006807,-0.037185,0.519976,1.641962,0.486750,0.147844,0.143133,0.051386,1.935239,0.437611,0.164121,0.124016,-0.592411,1.471603,-0.069890,-0.034184,-0.221878,
51.000000,72.349696,0.053811,0.985147,-1.507169,0.047347,0.091800,-0.168575,81.304819,-0.992210,0.041829,58.776127,0.250000,60.253280,0.001645,0.992608,-1.497411,49.000000,29.000000,0.289293,0.751314,0.000000,0.011671,0.870587,-0.575904,-0.449239,-0.013997,-0.042468,0.009477,-0.052166,0.007462,0.766866,0.344187,0.096155,0.009500,-0.014519,-0.000330,-0.010245,-0.006807,-0.037185,0.521434,1.642592,0.491209,0.160186,0.155843,0.054457,1.967119,0.495703,0.183659,0.124016,-0.592411,1.471603,-0.069890,-0.034184,-0.221878,
51.500000,73.225616,-0.038046,1.041770,-1.502871,0.047794,1.351386,2.191791,81.345397,-0.781760,0.290512,60.424257,0.250000,61.017335,0.115390,0.927660,-1.497461,50.000000,30.000000,0.013303,9.533273,0.000000,0.011671,0.799007,-0.719297,-0.473229,0.135651,0.138958,0.005237,0.153436,-0.114110,1.429445,1.072997,0.084939,0.009788,-0.014520,-0.000336,-0.009211,-0.008543,-0.037098,0.518200,1.642270,0.495566,0.148084,0.143027,0.051305,1.976068,0.437544,0.163984,1.743821,1.856693,-5.506228,-0.040472,0.157512,-0.075559,
52.000000,74.114068,-0.173051,1.114764,-1.502709,0.048455,0.497175,0.802840,81.333312,-1.079368,-0.094063,60.424257,0.250000,61.767364,-0.012141,1.000925,-1.497986,50.000000,30.000000,0.013303,9.533273,0.000000,0.011671,0.801198,-0.721444,-0.508300,0.137229,0.149530,0.004527,0.160911,-0.113839,1.497888,1.145365,0.087111,0.009788,-0.014520,-0.000336,-0.009211,-0.008543,-0.037098,0.520526,1.642586,0.500159,0.160411,0.155722,0.054365,2.008350,0.495596,0.183474,1.743821,1.856693,-5.506228,-0.040472,0.157512,-0.075559,
52.500000,75.012238,-0.126925,1.118417,-1.514744,0.047117,-0.047685,-1.531813,81.335958,-1.158750,0.025767,61.826307,0.250000,62.478789,-0.105691,1.013960,-1.498736,51.000000,31.000000,0.059266,4.503969,0.000000,0.011671,0.820171,-0.606802,-0.630210,0.107646,0.018734,0.015937,0.021234,-0.104458,1.453579,0.634084,0.132049,0.009407,-0.014595,-0.000312,-0.009332,-0.007309,-0.037128,0.519628,1.641485,0.505462,0.147808,0.143038,0.051227,2.007430,0.436815,0.163854,-0.210375,-1.455262,4.146092,-0.173092,-0.128679,0.565583,
53.000000,75.908766,-0.031809,1.105853,-1.513752,0.048714,0.028005,-0.504690,81.346202,-1.271886,-0.043364,61.826307,0.250000,63.228968,-0.004875,1.000881,-1.497853,51.000000,31.000000,0.059266,4.503969,0.000000,0.011671,0.822068,-0.606890,-0.631820,0.109769,0.022580,0.015715,0.026934,-0.104973,1.508197,0.644554,0.139718,0.009407,-0.014595,-0.000312,-0.009332,-0.007309,-0.037128,0.520712,1.642157,0.509612,0.160109,0.155724,0.054268,2.039066,0.494904,0.183298,-0.210375,-1.455262,4.146092,-0.173092,-0.128679,0.565583,
53.500000,76.794408,0.015349,1.063853,-1.495248,0.049886,-0.727037,-0.677727,81.358438,-0.819776,0.122241,63.588943,0.250000,64.059242,-0.028638,1.039357,-1.497580,52.000000,32.000000,0.519499,2.109013,0.000000,0.011671,0.860515,-0.567294,-0.702255,0.020672,-0.033677,-0.002524,-0.043986,-0.024497,1.186170,0.403572,0.060035,0.009439,-0.014358,-0.000357,-0.009991,-0.006698,-0.037153,0.518778,1.641377,0.514233,0.147630,0.142893,0.051150,2.042415,0.436773,0.163730,-0.928847,-0.642099,-8.093030,-0.095066,-0.025641,-0.010387,
54.000000,77.669851,0.051300,1.013805,-1.495021,0.049537,-0.181994,-0.156547,81.364431,-1.036809,0.347288,63.588943,0.250000,64.809152,0.008385,0.992258,-1.497759,52.000000,32.000000,0.519499,2.109013,0.000000,0.011671,0.862433,-0.569578,-0.710375,0.017389,-0.033329,-0.003016,-0.042915,-0.021546,1.195930,0.386968,0.058415,0.009439,-0.014358,-0.000357,-0.009991,-0.006698,-0.037153,0.520259,1.641976,0.518638,0.159918,0.155558,0.054183,2.073709,0.494815,0.183130,-0.928847,-0.642099,-8.093030,-0.095066,-0.025641,-0.010387,
54.500000,78.532464,0.050016,0.941901,-1.477121,0.048952,-1.282653,0.110283,81.372071,-0.919742,0.086324,65.146215,0.250000,65.632606,0.013197,1.056282,-1.497374,53.000000,33.000000,0.419375,5.701898,0.000000,0.011671,0.924937,-0.579458,-0.871408,-0.113833,-0.003883,-0.020524,-0.036819,0.114381,0.600547,0.501878,-0.023541,0.009456,-0.014144,-0.000399,-0.010960,-0.006774,-0.037147,0.518312,1.641399,0.523133,0.147875,0.142745,0.051083,2.083249,0.436978,0.163613,-1.728495,0.342636,-6.653884,0.373112,-0.021489,-0.082434,
55.000000,79.381201,0.042196,0.858921,-1.476787,0.047987,-0.404805,0.056410,81.383306,-0.874218,0.255171,65.146215,0.250000,66.382474,0.005851,0.982072,-1.497915,53.000000,33.000000,0.419375,5.701898,0.000000,0.011671,0.927621,-0.580524,-0.888238,-0.123944,-0.002668,-0.021278,-0.036345,0.123151,0.541312,0.500375,-0.034251,0.009456,-0.014144,-0.000399,-0.010960,-0.006774,-0.037147,0.519945,1.641972,0.527705,0.160143,0.155392,0.054109,2.114949,0.494957,0.182974,-1.728495,0.342636,-6.653884,0.373112,-0.021489,-0.082434,
55.500000,79.964572,0.476242,0.149002,-0.418628,0.044840,-20.441529,-10.472806,82.714538,0.531142,-0.825608,66.644429,0.250000,66.966404,0.439564,0.290072,-0.490145,54.000000,34.000000,0.176128,0.693173,0.000000,0.011671,0.915243,-0.620930,-1.112158,-0.114949,-0.007148,-0.036872,-0.036678,0.141070,0.524248,0.607189,-0.102255,0.009600,-0.014010,-0.000428,-0.010849,-0.006960,-0.037133,0.503219,1.649355,0.542255,0.149032,0.141014,0.051288,2.131455,0.437040,0.163519,0.071366,0.333013,7.870148,0.105407,-0.088529,-0.203615,
56.000000,79.706811,1.006919,-0.923876,0.767212,0.091330,-11.347596,-5.528411,81.272767,1.066533,0.855117,66.644429,0.250000,66.799138,0.958495,-0.792166,0.758814,54.000000,34.000000,0.176128,0.693173,0.000000,0.011671,0.959331,-0.591927,-1.051802,-0.097929,-0.037248,-0.039382,-0.048423,0.131710,0.472038,0.594710,-0.120500,0.009600,-0.014010,-0.000428,-0.010849,-0.006960,-0.037133,0.526015,1.641440,0.540388,0.168573,0.151906,0.055164,2.161966,0.493833,0.183004,0.071366,0.333013,7.870148,0.105407,-0.088529,-0.203615,
56.500000,79.405160,1.234309,-1.408619,0.079308,0.049172,0.139874,0.411939,80.694661,1.523632,0.867110,66.541620,0.250000,66.613123,1.204530,-1.303678,0.058854,55.000000,35.000000,0.415656,0.088763,0.000000,0.011671,0.945690,-0.590407,-1.015799,-0.091769,-0.039565,-0.021422,-0.029779,0.104941,0.471863,0.548415,-0.060621,0.009544,-0.014240,-0.000388,-0.010722,-0.006919,-0.037146,0.531392,1.634005,0.540726,0.149140,0.140787,0.051972,2.118460,0.435381,0.163689,0.101551,-0.056461,3.356629,0.052842,-0.048019,0.039066,
57.000000,79.186394,1.150221,-1.296023,0.041188,0.047497,1.192782,0.776735,80.707457,1.445138,0.926631,66.541620,0.250000,66.596691,1.124038,-1.181799,0.020317,55.000000,35.000000,0.415656,0.088763,0.000000,0.011671,0.932179,-0.599132,-1.024971,-0.102937,-0.032665,-0.021520,-0.026183,0.114224,0.423625,0.530573,-0.071619,0.009544,-0.014240,-0.000388,-0.010722,-0.006919,-0.037146,0.532772,1.634676,0.545224,0.160612,0.153339,0.054928,2.145503,0.492489,0.183292,0.101551,-0.056461,3.356629,0.052842,-0.048019,0.039066,
