Time ,gndAlt,velLL X  ,velLL Y  ,velLL Z  ,r,Roll ,Pitch,Yaw  ,gps_velN,gps_velE,Baro Altitude,Baro Altitude RMS,Nav Alt,Nav velLL X,Nav velLL Y,Nav velLL Z,Baro Update Count,GPS Update Count,Baro Chi2,GPS Chi2,GPS2D Chi2,Ground Align Chi2,Roll Error,Pitch Error,Yaw Error,Vel N Error,Vel E Error,Vel D Error,velLL X Error,velLL Y Error,N Error (m),E Error (m),Alt Error (m),Acc Bias X Error,Acc Bias Y Error,Acc Bias Z Error,Gyro Bias X Error,Gyro Bias Y Error,Gyro Bias Z Error,Roll Stdev,Pitch Stdev,Yaw Stdev,VN Stdev,VE Stdev,VD Stdev,N Stdev,E Stdev,Alt Stdev,GPSResidual[GPS_N],GPSResidual[GPS_E],GPSResidual[GPS_ALT],GPSResidual[GPS_VN],GPSResidual[GPS_VE],GPSResidual[GPS_VD],
0.500000,0.101886,-0.001489,0.009473,0.002397,-0.010555,14.027753,2.250979,81.065854,0.321770,-0.108027,0.000000,0.250000,0.000000,0.000000,0.000000,0.000000,0.000000,0.000000,0.000000,0.000000,0.000000,0.000000,0.000000,0.000000,0.000000,0.000000,0.000000,0.000000,0.000000,0.000000,0.000000,0.000000,0.000000,0.000000,0.000000,0.000000,0.000000,0.000000,0.000000,0.000000,0.000000,0.000000,0.000000,0.000000,0.000000,0.000000,0.000000,0.000000,0.000000,0.000000,0.000000,0.000000,0.000000,0.000000,
1.000000,0.101886,-0.001422,0.009057,0.002292,0.047650,14.028408,2.248111,81.077484,0.111444,-0.225455,0.000000,0.250000,0.000000,0.000000,0.000000,0.000000,0.000000,0.000000,0.000000,0.000000,0.000000,0.000000,0.000000,0.000000,0.000000,0.000000,0.000000,0.000000,0.000000,0.000000,0.000000,0.000000,0.000000,0.000000,0.000000,0.000000,0.000000,0.000000,0.000000,0.000000,0.000000,0.000000,0.000000,0.000000,0.000000,0.000000,0.000000,0.000000,0.000000,0.000000,0.000000,0.000000,0.000000,0.000000,
1.500000,0.101886,-0.001430,0.009121,0.002308,0.053929,14.029014,2.244386,81.092417,0.292052,0.265584,0.000000,0.250000,0.000000,0.000000,0.000000,0.000000,0.000000,0.000000,0.000000,0.000000,0.000000,0.000000,0.000000,0.000000,0.000000,0.000000,0.000000,0.000000,0.001430,-0.009121,0.000000,0.000000,-0.000000,0.000000,0.000000,0.000000,0.000000,0.000000,0.000000,8.554585,2.726392,0.000000,0.000000,0.000000,0.000000,0.000000,0.000000,0.000000,0.000000,0.000000,0.000000,0.000000,0.000000,0.000000,
2.000000,0.101929,-0.001403,0.008965,0.002268,0.006621,14.029256,2.241677,81.103140,0.010529,0.005698,0.000000,0.250000,0.000021,0.002053,-0.008820,0.001263,0.000000,0.000000,0.000000,0.000000,0.000000,0.000000,-3.615658,-0.539215,-81.106686,0.011433,-0.008820,-0.001081,0.003457,-0.017785,0.019149,-0.001738,-0.002764,0.008556,0.061474,-0.013431,-0.008397,-0.009618,-0.039084,8.554631,2.726544,0.028770,0.212318,0.651904,0.121421,0.032977,0.101088,0.018858,0.000000,0.000000,0.000000,0.000000,0.000000,0.000000,
2.500000,0.101928,-0.001491,0.009534,0.002412,0.000375,14.029648,2.239196,81.113080,-0.152485,0.741910,0.103356,0.250000,0.000014,-0.002281,0.016250,0.002749,1.000000,0.000000,0.170226,0.000000,0.000000,0.020650,-3.469605,-0.519433,-81.119071,0.006864,0.016251,0.000463,-0.000791,0.006717,0.023316,0.002398,-0.003939,0.008842,0.061473,-0.013912,-0.008397,-0.009589,-0.038926,4.920218,1.957710,0.035713,0.091593,0.092726,0.082020,0.034808,0.035222,0.032503,0.000000,0.000000,0.000000,0.000000,0.000000,0.000000,
3.000000,0.101928,-0.001454,0.009307,0.002355,-0.014378,14.030025,2.236595,81.123483,0.033590,0.036323,0.103356,0.250000,-0.001261,-0.004007,0.029304,0.004865,1.000000,0.000000,0.170226,0.000000,0.000000,0.020650,-3.468268,-0.518538,-81.135774,0.005285,0.029305,0.002544,-0.002554,0.019997,0.026992,0.011609,-0.003844,0.008842,0.061473,-0.013912,-0.008397,-0.009589,-0.038926,4.920358,1.958050,0.051243,0.151220,0.153185,0.133226,0.094176,0.095374,0.085680,0.000000,0.000000,0.000000,0.000000,0.000000,0.000000,
3.500000,0.101928,-0.001472,0.009440,0.002389,0.014404,14.030451,2.233935,81.134142,-0.365421,-0.913027,-0.009672,0.250000,0.001681,0.000024,-0.000949,0.000148,2.000000,0.000000,0.002000,0.000000,0.000000,0.109695,-3.531641,-0.525808,-81.138400,0.009062,-0.000949,-0.002112,0.001496,-0.010389,0.034239,-0.006595,-0.007968,0.008693,0.060450,-0.014051,-0.008383,-0.009498,-0.038424,4.799637,1.930798,0.036067,0.054284,0.054332,0.047506,0.042443,0.042471,0.040480,0.000000,0.000000,0.000000,0.000000,0.000000,0.000000,
4.000000,0.101928,-0.001493,0.009583,0.002425,0.040425,14.030891,2.231341,81.144548,-0.001792,-0.015138,-0.009672,0.250000,0.001752,-0.000796,0.003719,0.001009,2.000000,0.000000,0.002000,0.000000,0.000000,0.109695,-3.530624,-0.524767,-81.154918,0.008833,0.003719,-0.001399,0.000697,-0.005864,0.039070,-0.006659,-0.009219,0.008693,0.060450,-0.014051,-0.008383,-0.009498,-0.038424,4.799788,1.931163,0.051473,0.075887,0.075967,0.063163,0.070878,0.070941,0.066467,0.000000,0.000000,0.000000,0.000000,0.000000,0.000000,
4.500000,0.101928,-0.001456,0.009359,0.002368,0.018000,14.031258,2.228817,81.154642,-0.203447,0.197060,-0.176323,0.250000,-0.003122,-0.000306,0.000274,0.003232,3.000000,0.000000,0.497879,0.000000,0.000000,0.018181,-3.549282,-0.524419,-81.165623,0.009099,0.000274,0.000881,0.001150,-0.009086,0.043852,-0.006414,-0.005525,0.008699,0.060753,-0.014007,-0.008378,-0.009458,-0.038205,4.787542,1.929114,0.042354,0.047222,0.047235,0.039016,0.051700,0.051707,0.048726,0.000000,0.000000,0.000000,0.000000,0.000000,0.000000,
5.000000,0.101928,-0.001478,0.009511,0.002406,0.039331,14.031752,2.226171,81.165294,0.000732,-0.009758,-0.176323,0.250000,-0.004927,-0.001276,0.005341,0.004642,3.000000,0.000000,0.497879,0.000000,0.000000,0.018181,-3.548215,-0.523307,-81.181930,0.008273,0.005342,0.002256,0.000203,-0.004170,0.048326,-0.004715,-0.004902,0.008699,0.060753,-0.014007,-0.008378,-0.009458,-0.038205,4.787699,1.929500,0.056192,0.063433,0.063454,0.049089,0.072496,0.072513,0.067754,0.000000,0.000000,0.000000,0.000000,0.000000,0.000000,
5.500000,0.101928,-0.001443,0.009293,0.002351,0.012105,14.032114,2.223682,81.175244,0.257070,0.133710,0.057187,0.250000,0.000236,-0.001002,0.003258,0.001022,4.000000,0.000000,0.052879,0.000000,0.000000,0.057708,-3.541465,-0.522624,-81.186652,0.008688,0.003258,-0.001401,0.000441,-0.006035,0.053284,-0.005109,-0.011246,0.008682,0.060567,-0.014091,-0.008352,-0.009391,-0.037810,4.784643,1.928899,0.041732,0.044599,0.044604,0.035150,0.059048,0.059051,0.055089,0.000000,0.000000,0.000000,0.000000,0.000000,0.000000,
6.000000,0.101929,-0.001463,0.009436,0.002387,0.028539,14.032491,2.221072,81.185677,0.133058,-0.595210,0.057187,0.250000,-0.000343,-0.001628,0.005087,0.001281,4.000000,0.000000,0.052879,0.000000,0.000000,0.057708,-3.540012,-0.521589,-81.202918,0.007409,0.005088,-0.000977,-0.000165,-0.004349,0.057338,-0.001807,-0.011847,0.008682,0.060567,-0.014091,-0.008352,-0.009391,-0.037810,4.784808,1.929303,0.055682,0.058978,0.058984,0.043240,0.075921,0.075928,0.070434,0.000000,0.000000,0.000000,0.000000,0.000000,0.000000,
6.500000,0.101928,-0.001485,0.009585,0.002425,0.042420,14.032886,2.218500,81.195970,0.001120,-0.165264,-0.028273,0.250000,-0.001506,-0.002228,0.010435,0.002690,5.000000,0.000000,0.012707,0.000000,0.000000,0.011649,-3.545572,-0.521486,-81.215768,0.007405,0.010436,0.000283,-0.000744,0.000850,0.062415,-0.001705,-0.011866,0.008666,0.060567,-0.014098,-0.008299,-0.009388,-0.037710,4.783327,1.928992,0.050050,0.043432,0.043433,0.033099,0.064522,0.064524,0.059729,0.000000,0.000000,0.000000,0.000000,0.000000,0.000000,
7.000000,0.101928,-0.001449,0.009369,0.002370,0.007544,14.033208,2.215948,81.206140,-0.005096,0.005711,-0.028273,0.250000,-0.002801,-0.003270,0.014539,0.003378,5.000000,0.000000,0.012707,0.000000,0.000000,0.011649,-3.544395,-0.520530,-81.232048,0.006150,0.014541,0.001024,-0.001821,0.005171,0.065943,0.004564,-0.011752,0.008666,0.060567,-0.014098,-0.008299,-0.009388,-0.037710,4.783497,1.929413,0.062343,0.056992,0.056993,0.040213,0.079100,0.079103,0.072763,0.000000,0.000000,0.000000,0.000000,0.000000,0.000000,
7.500000,0.101928,-0.001473,0.009530,0.002411,0.016517,14.033686,2.213300,81.216790,-0.447030,0.703127,-0.152152,0.250000,-0.008996,-0.001605,0.005475,0.003913,6.000000,0.000000,0.350772,0.000000,0.000000,0.085079,-3.564510,-0.521078,-81.238625,0.007536,0.005475,0.001628,-0.000133,-0.004056,0.072421,-0.004037,-0.006738,0.008637,0.060676,-0.014116,-0.008104,-0.009374,-0.037408,4.783136,1.929220,0.047236,0.042863,0.042862,0.031914,0.068420,0.068421,0.062928,0.000000,0.000000,0.000000,0.000000,0.000000,0.000000,
8.000000,0.101929,-0.001438,0.009319,0.002357,-0.023450,14.034057,2.210659,81.227338,0.359078,0.269543,-0.152152,0.250000,-0.010493,-0.002488,0.008334,0.004585,6.000000,0.000000,0.350772,0.000000,0.000000,0.085079,-3.563318,-0.520014,-81.254488,0.006812,0.008335,0.002261,-0.001049,-0.000985,0.076650,-0.002784,-0.006422,0.008637,0.060676,-0.014116,-0.008104,-0.009374,-0.037408,4.783311,1.929656,0.060006,0.056017,0.056015,0.038459,0.081609,0.081611,0.074447,0.000000,0.000000,0.000000,0.000000,0.000000,0.000000,
8.500000,0.101928,-0.001396,0.009054,0.002290,0.020746,14.034470,2.208149,81.237397,-0.034791,-0.008000,0.118973,0.250000,0.000620,-0.001481,0.004137,0.000693,7.000000,0.000000,0.238704,0.000000,0.000000,0.031840,-3.564327,-0.519733,-81.269817,0.007978,0.004138,-0.001671,-0.000085,-0.004917,0.082447,-0.007062,-0.018715,0.008608,0.060578,-0.014165,-0.007959,-0.009410,-0.037386,4.782910,1.929445,0.056678,0.042573,0.042571,0.031166,0.071104,0.071105,0.065015,0.000000,0.000000,0.000000,0.000000,0.000000,0.000000,
9.000000,0.101929,-0.001421,0.009230,0.002335,0.022148,14.034941,2.205588,81.247702,0.552319,0.537904,0.118973,0.250000,0.000964,-0.002059,0.004950,0.000764,7.000000,0.000000,0.238704,0.000000,0.000000,0.031840,-3.563197,-0.518682,-81.285844,0.007576,0.004951,-0.001644,-0.000638,-0.004280,0.086874,-0.007381,-0.020240,0.008608,0.060578,-0.014165,-0.007959,-0.009410,-0.037386,4.783091,1.929893,0.067894,0.055519,0.055515,0.037336,0.083446,0.083447,0.075526,0.000000,0.000000,0.000000,0.000000,0.000000,0.000000,
9.500000,0.101929,-0.001445,0.009399,0.002378,0.021160,14.035354,2.203061,81.257836,-0.021728,0.002365,-0.128001,0.250000,-0.006805,-0.000927,-0.000146,0.001747,8.000000,0.000000,0.251879,0.000000,0.000000,0.022666,-3.578227,-0.519036,-81.295744,0.008500,-0.000146,-0.000610,0.000518,-0.009546,0.092505,-0.010027,-0.013652,0.008598,0.060770,-0.014185,-0.007849,-0.009414,-0.037196,4.782485,1.929633,0.053594,0.042425,0.042422,0.030656,0.072912,0.072913,0.066310,0.000000,0.000000,0.000000,0.000000,0.000000,0.000000,
10.000000,0.101929,-0.001468,0.009560,0.002418,0.017707,14.035618,2.200383,81.268461,0.011588,-0.046691,-0.128001,0.250000,-0.007824,-0.001755,0.002006,0.002171,8.000000,0.000000,0.251879,0.000000,0.000000,0.022666,-3.577511,-0.518056,-81.311643,0.007413,0.002007,-0.000121,-0.000287,-0.007554,0.096527,-0.008142,-0.013813,0.008598,0.060770,-0.014185,-0.007849,-0.009414,-0.037196,4.782670,1.930091,0.065235,0.055264,0.055258,0.036556,0.084738,0.084738,0.076141,0.000000,0.000000,0.000000,0.000000,0.000000,0.000000,
10.500000,0.807834,-0.100521,0.798452,-1.418411,0.045856,-4.493930,-0.576964,80.910935,-0.897822,-0.235551,-0.192013,0.250000,0.617354,-0.088370,0.715831,-1.510361,9.000000,0.000000,0.651114,0.000000,0.000000,0.008229,-3.599350,-0.538341,-81.151718,0.725041,0.689166,-0.090119,0.012152,-0.082621,0.389710,0.268947,-0.029475,0.008603,0.060801,-0.014178,-0.007804,-0.009433,-0.037119,4.781130,1.929527,0.239811,0.067229,0.119718,0.123044,0.077176,0.089789,0.073678,0.000000,0.000000,0.000000,0.000000,0.000000,0.000000,
11.000000,1.567429,-0.048331,0.341274,-1.336100,0.045719,-3.899500,-0.416377,80.907818,-0.363419,-0.069173,-0.192013,0.250000,1.371072,-0.033894,0.243451,-1.502566,9.000000,0.000000,0.651114,0.000000,0.000000,0.008229,-3.560429,-0.540138,-81.176095,0.318073,0.237084,-0.165293,0.014437,-0.097824,0.647851,0.497003,-0.093567,0.008603,0.060801,-0.014178,-0.007804,-0.009433,-0.037119,4.781129,1.929967,0.232024,0.076495,0.100224,0.228082,0.098046,0.131435,0.138975,0.000000,0.000000,0.000000,0.000000,0.000000,0.000000,
11.500000,2.294411,-0.028304,0.097258,-1.409094,0.046931,-1.850427,-0.082310,80.901011,0.830509,-0.017640,1.227818,0.250000,2.040130,-0.015328,0.007926,-1.502811,10.000000,0.000000,0.887400,0.000000,0.000000,0.008229,-1.482851,-0.503022,-81.296649,0.088198,0.020274,-0.093204,0.012976,-0.089332,0.742304,0.606182,-0.062583,0.008008,0.022478,-0.007033,-0.007823,-0.009451,-0.037089,4.239157,1.929833,0.189065,0.088825,0.090966,0.280767,0.129020,0.161626,0.227301,0.000000,0.000000,0.000000,0.000000,0.000000,0.000000,
12.000000,2.997392,-0.026863,0.036412,-1.372496,0.049085,0.136408,0.024443,80.908846,-0.035785,-0.014936,1.227818,0.250000,2.791600,-0.012058,-0.074539,-1.499585,10.000000,0.000000,0.887400,0.000000,0.000000,0.008229,-1.487009,-0.507634,-81.314870,0.027484,-0.053686,-0.126734,0.014806,-0.110951,0.764497,0.590946,-0.117768,0.008008,0.022478,-0.007033,-0.007823,-0.009451,-0.037089,4.239309,1.930309,0.186013,0.099085,0.090224,0.359862,0.167769,0.198077,0.382509,0.000000,0.000000,0.000000,0.000000,0.000000,0.000000,
12.500000,3.706100,-0.027139,0.046472,-1.405668,0.049731,0.024670,-0.010896,80.918695,-0.032788,-0.047513,2.838886,0.250000,3.476369,-0.012564,-0.079230,-1.499774,11.000000,0.000000,0.032857,0.000000,0.000000,0.008229,-0.852195,-0.495256,-81.354538,0.036988,-0.059640,-0.093865,0.014575,-0.125702,0.779117,0.586402,-0.100062,0.007810,0.010791,-0.004864,-0.007826,-0.009457,-0.037080,2.387423,1.929103,0.134656,0.110079,0.096064,0.234954,0.212566,0.193391,0.299660,0.000000,0.000000,0.000000,0.000000,0.000000,0.000000,
13.000000,4.410600,-0.026335,0.058989,-1.382060,0.046841,0.278684,0.003056,80.929343,0.023864,-0.107313,2.838886,0.250000,4.226990,-0.009948,-0.086548,-1.498265,11.000000,0.000000,0.032857,0.000000,0.000000,0.008229,-0.852299,-0.498092,-81.370676,0.051396,-0.069696,-0.116050,0.016387,-0.145538,0.800530,0.552975,-0.152776,0.007810,0.010791,-0.004864,-0.007826,-0.009457,-0.037080,2.387832,1.929600,0.139998,0.121194,0.108017,0.276169,0.263842,0.233980,0.424219,0.000000,0.000000,0.000000,0.000000,0.000000,0.000000,
13.500000,5.166799,-0.023145,0.048518,-1.528548,0.048515,-0.377368,-0.056825,80.939195,-0.047090,-0.012536,4.049799,0.250000,4.735498,-0.009981,-0.119437,-1.502227,12.000000,0.000000,0.369095,0.000000,0.000000,0.008229,0.344259,-0.467402,-81.433337,0.041160,-0.104131,0.026195,0.013164,-0.167955,0.816501,0.559039,0.085631,0.007350,-0.011186,-0.000801,-0.007827,-0.009468,-0.037063,1.356627,1.929349,0.124357,0.134925,0.121358,0.161407,0.321442,0.270717,0.277805,0.000000,0.000000,0.000000,0.000000,0.000000,0.000000,
14.000000,5.936029,-0.020228,0.044808,-1.523245,0.047114,0.302384,-0.001912,80.949679,0.067522,0.033601,4.049799,0.250000,5.486883,-0.005292,-0.149337,-1.498943,12.000000,0.000000,0.369095,0.000000,0.000000,0.008229,0.344485,-0.470499,-81.448993,0.040437,-0.136279,0.024083,0.014936,-0.194145,0.834738,0.496360,0.097973,0.007350,-0.011186,-0.000801,-0.007827,-0.009468,-0.037063,1.357380,1.929866,0.130252,0.146837,0.134776,0.181231,0.385682,0.327068,0.360199,0.000000,0.000000,0.000000,0.000000,0.000000,0.000000,
14.500000,6.680312,-0.022936,0.097069,-1.449698,0.046449,0.788013,0.059960,80.961267,-0.305216,0.217111,5.816787,0.250000,6.374617,-0.003551,-0.118041,-1.497919,13.000000,0.000000,0.186126,0.000000,0.000000,0.008229,-0.077688,-0.491139,-81.448557,0.093728,-0.110500,-0.048245,0.019384,-0.215110,0.873476,0.417707,-0.053494,0.007614,-0.003445,-0.002226,-0.007829,-0.009464,-0.037069,0.945698,1.929977,0.130789,0.158214,0.148203,0.119555,0.455030,0.388968,0.251403,0.000000,0.000000,0.000000,0.000000,0.000000,0.000000,
15.000000,7.419699,-0.026856,0.152769,-1.440205,0.047227,0.513943,0.037258,80.971069,-0.023275,0.109765,5.816787,0.250000,7.124566,-0.005200,-0.084202,-1.497423,13.000000,0.000000,0.186126,0.000000,0.000000,0.008229,-0.074582,-0.493378,-81.464323,0.148389,-0.081532,-0.057326,0.021656,-0.236971,0.935201,0.370447,-0.080146,0.007614,-0.003445,-0.002226,-0.007829,-0.009464,-0.037069,0.946862,1.930513,0.137275,0.171253,0.162357,0.132725,0.530657,0.459812,0.310736,0.000000,0.000000,0.000000,0.000000,0.000000,0.000000,
15.500000,8.159980,-0.029082,0.188098,-1.430799,0.047091,0.372908,0.027001,80.981340,-0.074839,0.448137,7.261040,0.250000,7.875513,-0.004897,-0.070701,-1.497528,14.000000,0.000000,0.000014,0.000000,0.000000,0.008229,-0.072984,-0.496056,-81.480199,0.184276,-0.071366,-0.066776,0.024185,-0.258799,1.019137,0.332443,-0.112445,0.007617,-0.003406,-0.002233,-0.007829,-0.009464,-0.037069,0.769614,1.930608,0.141940,0.184716,0.176556,0.097089,0.612447,0.537791,0.231666,0.000000,0.000000,0.000000,0.000000,0.000000,0.000000,
16.000000,8.899680,-0.031056,0.217829,-1.421935,0.050447,0.361339,0.030092,80.991242,-0.048628,-0.258953,7.261040,0.250000,8.625526,-0.004123,-0.062941,-1.497759,14.000000,0.000000,0.000014,0.000000,0.000000,0.008229,-0.071057,-0.498658,-81.495879,0.214809,-0.066292,-0.075821,0.026933,-0.280770,1.119187,0.297840,-0.148339,0.007617,-0.003406,-0.002233,-0.007829,-0.009464,-0.037069,0.771103,1.931167,0.148103,0.198742,0.191429,0.106759,0.701091,0.623263,0.278307,0.000000,0.000000,0.000000,0.000000,0.000000,0.000000,
16.500000,9.648803,-0.032306,0.245005,-1.440448,0.045824,0.317463,0.012637,81.001637,-1.491284,0.054311,8.633419,0.250000,9.302668,-0.003678,-0.061061,-1.498435,15.000000,0.000000,0.111292,0.000000,0.000000,0.008229,0.049906,-0.485197,-81.516606,0.242371,-0.067377,-0.057975,0.028628,-0.306065,1.228072,0.264100,-0.105777,0.007352,-0.005591,-0.001833,-0.007829,-0.009465,-0.037068,0.685915,1.931153,0.153566,0.213504,0.206509,0.083874,0.796573,0.716228,0.217198,0.000000,0.000000,0.000000,0.000000,0.000000,0.000000,
17.000000,10.400541,-0.033858,0.272163,-1.433148,0.049709,0.356887,0.034163,81.011452,-0.189517,0.153016,8.633419,0.250000,10.052940,-0.002054,-0.056248,-1.498125,15.000000,0.000000,0.111292,0.000000,0.000000,0.008229,0.050881,-0.488160,-81.532260,0.271041,-0.065269,-0.065056,0.031804,-0.328411,1.356569,0.230528,-0.136783,0.007352,-0.005591,-0.001833,-0.007829,-0.009465,-0.037068,0.687656,1.931735,0.159490,0.228461,0.222150,0.091580,0.899417,0.816821,0.256172,0.000000,0.000000,0.000000,0.000000,0.000000,0.000000,
17.500000,11.148282,-0.037423,0.301864,-1.415419,0.046532,0.374436,0.056205,81.022261,-0.134539,0.240334,10.243242,0.250000,10.832318,-0.001683,-0.047272,-1.497361,16.000000,0.000000,0.023191,0.000000,0.000000,0.008229,0.014006,-0.499314,-81.546855,0.301355,-0.057387,-0.081983,0.035740,-0.349136,1.502906,0.200856,-0.204376,0.007492,-0.004891,-0.001961,-0.007828,-0.009464,-0.037068,0.642640,1.931568,0.165039,0.243749,0.237982,0.075696,1.009335,0.925136,0.206439,0.000000,0.000000,0.000000,0.000000,0.000000,0.000000,
18.000000,11.894839,-0.041539,0.330746,-1.407768,0.047272,0.349970,0.050851,81.032198,0.128833,-0.007101,10.243242,0.250000,11.582288,-0.002187,-0.040159,-1.497467,16.000000,0.000000,0.023191,0.000000,0.000000,0.008229,0.016129,-0.502127,-81.562685,0.330125,-0.050652,-0.089780,0.039352,-0.370905,1.661074,0.173735,-0.247572,0.007492,-0.004891,-0.001961,-0.007828,-0.009464,-0.037068,0.644575,1.932174,0.170837,0.259649,0.254429,0.082313,1.127027,1.041456,0.240557,0.000000,0.000000,0.000000,0.000000,0.000000,0.000000,
18.500000,12.669451,-0.039949,0.355038,-1.475658,0.047709,0.285801,-0.052886,81.042217,-0.363168,0.026337,11.240083,0.250000,12.094967,-0.001716,-0.049292,-1.499506,17.000000,0.000000,1.842357,0.000000,0.000000,0.008229,0.272238,-0.420890,-81.588990,0.354378,-0.064942,-0.024026,0.038233,-0.404331,1.801313,0.125673,-0.029481,0.006075,-0.009561,-0.001098,-0.007837,-0.009464,-0.037065,0.618986,1.931827,0.176540,0.276715,0.271381,0.070377,1.252733,1.165921,0.198400,0.000000,0.000000,0.000000,0.000000,0.000000,0.000000,
19.000000,13.452965,-0.038289,0.379734,-1.471331,0.047188,0.351335,0.029381,81.052825,-0.420377,-0.048642,11.240083,0.250000,12.845626,0.003983,-0.047466,-1.498871,17.000000,0.000000,1.842357,0.000000,0.000000,0.008229,0.272651,-0.424102,-81.604494,0.384117,-0.068690,-0.027606,0.042273,-0.427200,1.986174,0.091543,-0.042644,0.006075,-0.009561,-0.001098,-0.007837,-0.009464,-0.037065,0.621045,1.932463,0.182071,0.293499,0.288651,0.076145,1.386826,1.298857,0.229269,0.000000,0.000000,0.000000,0.000000,0.000000,0.000000,
19.500000,14.240605,-0.041718,0.408032,-1.474806,0.052294,0.365989,0.055553,81.063267,-0.447800,0.095073,12.924595,0.250000,13.569387,0.004177,-0.043172,-1.498202,18.000000,0.000000,0.026632,0.000000,0.000000,0.008229,0.297845,-0.416287,-81.621089,0.412810,-0.065377,-0.023508,0.045895,-0.451204,2.181397,0.054637,-0.028202,0.005890,-0.010001,-0.001016,-0.007838,-0.009464,-0.037065,0.605692,1.931990,0.187527,0.310785,0.306259,0.066681,1.528978,1.440217,0.192290,0.000000,0.000000,0.000000,0.000000,0.000000,0.000000,
20.000000,15.030832,-0.046410,0.436227,-1.471430,0.048349,0.362199,0.064711,81.073377,-0.503745,0.056041,12.924595,0.250000,14.319495,0.003834,-0.037595,-1.498026,18.000000,0.000000,0.026632,0.000000,0.000000,0.008229,0.299517,-0.419073,-81.636981,0.441109,-0.059481,-0.026806,0.050243,-0.473822,2.395145,0.023196,-0.041040,0.005890,-0.010001,-0.001016,-0.007838,-0.009464,-0.037065,0.607897,1.932644,0.193035,0.328480,0.324366,0.071940,1.679865,1.590455,0.220911,0.000000,0.000000,0.000000,0.000000,0.000000,0.000000,
20.500000,15.839860,-0.070523,1.132124,-1.438977,0.054171,14.400647,0.420039,81.117910,-1.227943,-0.200343,14.592464,0.250000,15.130400,-0.013983,0.608335,-1.490738,19.000000,0.000000,0.167648,0.000000,0.000000,0.008229,0.263021,-0.448728,-81.649437,1.099716,0.506039,-0.051975,0.056540,-0.523789,2.732648,0.090588,-0.125589,0.006373,-0.009106,-0.001186,-0.007834,-0.009465,-0.037065,0.597697,1.932339,0.198065,0.346341,0.342695,0.064030,1.839110,1.749464,0.187617,0.000000,0.000000,0.000000,0.000000,0.000000,0.000000,
21.000000,16.781910,-0.106673,2.484517,-1.431644,0.052682,16.113134,0.449851,81.136595,-2.349999,0.364176,14.592464,0.250000,15.877403,-0.045944,1.936733,-1.493380,19.000000,0.000000,0.167648,0.000000,0.000000,0.008229,0.250756,-0.447674,-81.665290,2.419101,1.662770,-0.061883,0.060729,-0.547784,3.607531,0.628106,-0.154345,0.006373,-0.009106,-0.001186,-0.007834,-0.009465,-0.037065,0.599824,1.933068,0.203363,0.364975,0.361631,0.069187,2.007487,1.917785,0.214589,0.000000,0.000000,0.000000,0.000000,0.000000,0.000000,
21.500000,17.914062,-0.140727,3.870964,-1.480717,0.052240,16.110387,0.367677,81.123225,-3.733407,0.329739,15.550622,0.250000,16.423676,-0.081147,3.301544,-1.497491,20.000000,0.000000,1.921204,0.000000,0.000000,0.008229,0.392915,-0.350576,-2.180278,0.567074,0.098441,-0.016854,0.059580,-0.569420,3.261204,-0.157326,0.035188,0.004741,-0.011627,-0.000700,-0.007941,-0.009461,-0.037064,0.594010,1.932400,0.208677,0.384587,0.381224,0.063220,2.185102,2.095580,0.184017,0.000000,0.000000,0.000000,0.000000,0.000000,0.000000,
22.000000,19.216239,-0.167328,5.189466,-1.472666,0.052248,16.100768,0.353819,81.129949,-5.194770,0.640585,15.550622,0.250000,17.173498,-0.104885,4.601557,-1.497387,20.000000,0.000000,1.921204,0.000000,0.000000,0.008229,0.394662,-0.348383,-2.196275,0.594668,0.148546,-0.024751,0.062444,-0.587909,3.551841,-0.095300,0.024505,0.004741,-0.011627,-0.000700,-0.007941,-0.009461,-0.037064,0.596490,1.933071,0.213921,0.404180,0.401036,0.068702,2.372458,2.283021,0.210012,0.000000,0.000000,0.000000,0.000000,0.000000,0.000000,
22.500000,20.697302,-0.195606,6.444020,-1.524301,0.054086,15.742844,0.566598,81.201101,-6.437413,0.716595,16.995976,0.250000,17.782752,-0.100321,6.376353,-1.499110,21.000000,0.000000,0.828680,0.000000,2.062555,0.008229,0.798117,-0.592050,0.664187,0.050981,0.013116,0.025057,0.095284,-0.067667,0.618969,0.388277,0.172231,0.008882,-0.013973,-0.000429,-0.013492,-0.009599,-0.036986,0.539156,1.790606,0.218903,0.198671,0.160577,0.061653,0.865923,0.672956,0.181230,0.000000,0.000000,0.000000,0.000000,0.000000,0.000000,
23.000000,22.331242,-0.236341,7.591277,-1.521266,0.055377,15.695286,0.593753,81.219299,-7.583418,0.887652,16.995976,0.250000,18.533098,-0.138376,7.530478,-1.498335,21.000000,0.000000,0.828680,0.000000,2.062555,0.008229,0.803464,-0.591129,0.648468,0.044755,0.005333,0.022850,0.097964,-0.060800,0.643098,0.393028,0.183955,0.008882,-0.013973,-0.000429,-0.013492,-0.009599,-0.036986,0.540886,1.790758,0.224051,0.213880,0.174081,0.066280,0.946635,0.732870,0.206272,0.000000,0.000000,0.000000,0.000000,0.000000,0.000000,
23.500000,24.053328,-0.209112,7.337817,-1.491504,0.054174,-19.021335,-1.226488,80.899763,-7.409239,1.094794,18.735796,0.250000,19.313585,-0.095379,7.344275,-1.490434,22.000000,0.000000,0.041528,0.000000,0.261846,0.008229,0.754140,-0.655936,0.160467,0.041600,0.089242,0.007129,0.113733,0.006458,0.802222,0.684897,0.161686,0.009999,-0.013888,-0.000476,-0.013277,-0.009715,-0.036950,0.539518,1.780489,0.230864,0.219989,0.152539,0.059779,0.904930,0.526766,0.178982,0.000000,0.000000,0.000000,0.000000,0.000000,0.000000,
24.000000,25.566608,-0.159682,4.995861,-1.484408,0.062812,-25.327378,-0.524480,80.605889,-4.899529,0.506494,18.735796,0.250000,20.057395,-0.039420,5.026552,-1.487390,22.000000,0.000000,0.041528,0.000000,0.261846,0.008229,0.806235,-0.661358,0.156968,0.029972,0.103479,-0.002930,0.120262,0.030691,0.820024,0.733234,0.162377,0.009999,-0.013888,-0.000476,-0.013277,-0.009715,-0.036950,0.547259,1.778770,0.235047,0.235342,0.166331,0.062392,0.998444,0.579221,0.202798,0.000000,0.000000,0.000000,0.000000,0.000000,0.000000,
24.500000,26.778460,-0.141707,2.542798,-1.489381,0.057992,-25.804763,-0.139265,80.432968,-2.519841,0.286302,20.141856,0.250000,20.783877,-0.023808,2.580648,-1.494889,23.000000,0.000000,0.023800,0.000000,1.824287,0.008229,0.849109,-0.736864,-1.014901,0.031764,0.160743,-0.005665,0.117899,0.037849,0.984990,1.275906,0.180591,0.011388,-0.014354,-0.000431,-0.013375,-0.009428,-0.036967,0.545314,1.770689,0.239583,0.250215,0.154828,0.057710,1.099526,0.472994,0.176172,0.000000,0.000000,0.000000,0.000000,0.000000,0.000000,
25.000000,27.725849,-0.138843,0.893895,-1.513734,0.048203,-7.929132,0.041518,80.379708,-0.874662,0.043807,20.141856,0.250000,21.538903,-0.015327,0.897287,-1.517512,23.000000,0.000000,0.023800,0.000000,1.824287,0.008229,0.898084,-0.744931,-1.025401,0.033295,0.135895,-0.004686,0.123517,0.003392,1.000524,1.349006,0.177578,0.011388,-0.014354,-0.000431,-0.013375,-0.009428,-0.036967,0.548393,1.770461,0.244433,0.266874,0.168999,0.062456,1.211502,0.527402,0.198824,0.000000,0.000000,0.000000,0.000000,0.000000,0.000000,
25.500000,28.563120,-0.133861,0.707768,-1.471993,0.047605,1.119013,-0.096103,80.396342,-0.544714,0.306015,21.941620,0.250000,22.401570,-0.031923,0.734024,-1.504902,24.000000,0.000000,0.688524,0.000000,0.535543,0.008229,0.871653,-0.895288,-0.912710,-0.008674,0.116896,-0.033047,0.101938,0.026256,0.781929,1.314739,0.058592,0.014286,-0.014078,-0.000583,-0.013828,-0.009055,-0.037014,0.543395,1.758995,0.249533,0.253706,0.157969,0.058432,1.231271,0.452559,0.174283,0.000000,0.000000,0.000000,0.000000,0.000000,0.000000,
26.000000,29.395337,-0.127847,0.823074,-1.465301,0.046667,1.114185,-0.005539,80.408820,-0.815356,-0.078241,21.941620,0.250000,23.153855,-0.021683,0.854996,-1.499985,24.000000,0.000000,0.688524,0.000000,0.535543,0.008229,0.867015,-0.898074,-0.927378,-0.013338,0.124006,-0.034731,0.106164,0.031923,0.776795,1.375116,0.041384,0.014286,-0.014078,-0.000583,-0.013828,-0.009055,-0.037014,0.545132,1.759267,0.254518,0.269601,0.172012,0.062388,1.345205,0.510951,0.197215,0.000000,0.000000,0.000000,0.000000,0.000000,0.000000,
26.500000,30.227045,-0.078089,0.832562,-1.444439,0.048114,-0.428414,-0.897764,80.413013,-0.856681,0.054861,23.424039,0.250000,23.960288,-0.075939,0.935419,-1.498119,25.000000,0.000000,0.167410,0.000000,1.001968,0.008229,0.949044,-1.089855,-1.479516,-0.097698,0.044620,-0.053762,0.002150,0.102857,0.473685,1.255506,-0.039048,0.018796,-0.014609,-0.000632,-0.014635,-0.007697,-0.037157,0.540903,1.744491,0.260219,0.245099,0.159258,0.058187,1.318682,0.446941,0.173728,0.000000,0.000000,0.000000,0.000000,0.000000,0.000000,
27.000000,31.050529,-0.026188,0.796745,-1.441378,0.048030,-0.156616,-0.271383,80.419703,-0.861468,-0.193606,23.424039,0.250000,24.710468,-0.023720,0.909744,-1.497571,25.000000,0.000000,0.167410,0.000000,1.001968,0.008229,0.954369,-1.092319,-1.485171,-0.106943,0.044946,-0.056386,0.002468,0.112999,0.422803,1.278044,-0.066833,0.018796,-0.014609,-0.000632,-0.014635,-0.007697,-0.037157,0.542402,1.744895,0.264673,0.259847,0.173183,0.062376,1.427591,0.508586,0.196819,0.000000,0.000000,0.000000,0.000000,0.000000,0.000000,
27.500000,31.874653,0.027018,0.780892,-1.454818,0.052818,-0.073137,-0.821288,80.431296,-0.766130,0.152184,24.676899,0.250000,25.395727,-0.054124,0.917482,-1.498481,26.000000,0.000000,0.285606,0.000000,0.844250,0.008229,0.990416,-1.072006,-1.771471,-0.144239,-0.027891,-0.043869,-0.081142,0.136590,0.227894,1.036633,-0.025392,0.019247,-0.015097,-0.000542,-0.014745,-0.006735,-0.037248,0.537878,1.729229,0.270030,0.229005,0.158565,0.058114,1.365492,0.446983,0.173593,0.000000,0.000000,0.000000,0.000000,0.000000,0.000000,
28.000000,32.696699,0.073374,0.773632,-1.451751,0.048093,0.032229,-0.256375,80.441603,-0.584815,0.182077,24.676899,0.250000,26.145946,-0.011343,0.921721,-1.497526,26.000000,0.000000,0.285606,0.000000,0.844250,0.008229,0.993512,-1.074322,-1.777826,-0.155130,-0.030355,-0.046028,-0.084717,0.148089,0.153364,1.022228,-0.048118,0.019247,-0.015097,-0.000542,-0.014745,-0.006735,-0.037248,0.539322,1.729751,0.274535,0.242561,0.172260,0.062258,1.464823,0.510343,0.196727,0.000000,0.000000,0.000000,0.000000,0.000000,0.000000,
28.500000,33.526338,0.080062,0.772017,-1.475190,0.048541,0.062087,0.013721,80.452082,-0.630318,0.231225,26.032741,0.250000,26.797843,0.006504,0.930402,-1.498266,27.000000,0.000000,0.596713,0.000000,0.143377,0.008229,0.984129,-0.910056,-1.701948,-0.163204,-0.019138,-0.023181,-0.073558,0.158385,0.059474,1.025101,0.035819,0.016140,-0.014965,-0.000450,-0.014706,-0.006917,-0.037236,0.534820,1.714205,0.279255,0.210185,0.156513,0.057839,1.381800,0.448468,0.173515,0.000000,0.000000,0.000000,0.000000,0.000000,0.000000,
29.000000,34.357795,0.079063,0.769443,-1.473557,0.046512,0.021752,-0.012847,80.462421,-0.832523,0.348655,26.032741,0.250000,27.548082,0.001617,0.939918,-1.497879,27.000000,0.000000,0.596713,0.000000,0.143377,0.008229,0.989768,-0.911318,-1.718451,-0.175743,-0.020408,-0.024473,-0.077446,0.170475,-0.025004,1.015407,0.023654,0.016140,-0.014965,-0.000450,-0.014706,-0.006917,-0.037236,0.536609,1.714737,0.284199,0.222763,0.169968,0.061774,1.469444,0.512211,0.196541,0.000000,0.000000,0.000000,0.000000,0.000000,0.000000,
29.500000,35.194242,0.110889,0.717833,-1.494518,0.051451,-0.844987,-0.584914,80.476500,-0.797980,-0.026703,27.439387,0.250000,28.206162,-0.017287,0.983565,-1.498675,28.000000,0.000000,0.609459,0.000000,1.177870,0.008229,1.050610,-0.780428,-2.033490,-0.275969,-0.047365,-0.004425,-0.128177,0.265732,-0.439413,0.973644,0.111035,0.014353,-0.015016,-0.000361,-0.015818,-0.006366,-0.037295,0.533083,1.699429,0.289461,0.192633,0.153885,0.057333,1.384140,0.449431,0.173296,0.000000,0.000000,0.000000,0.000000,0.000000,0.000000,
30.000000,36.023624,0.144540,0.663194,-1.492752,0.048434,-0.279081,-0.201845,80.483647,-0.883886,0.111255,27.439387,0.250000,28.956412,0.011275,0.944955,-1.497963,28.000000,0.000000,0.609459,0.000000,1.177870,0.008229,1.054987,-0.782552,-2.042590,-0.292765,-0.051577,-0.005510,-0.133265,0.281761,-0.581311,0.948995,0.108293,0.014353,-0.015016,-0.000361,-0.015818,-0.006366,-0.037295,0.534688,1.700043,0.294095,0.204575,0.167150,0.061140,1.460120,0.512708,0.196101,0.000000,0.000000,0.000000,0.000000,0.000000,0.000000,
30.500000,36.839193,0.217043,0.702829,-1.464358,0.051882,0.985231,-1.270988,80.487188,-0.259354,0.114185,29.371860,0.250000,29.814578,-0.059415,0.898713,-1.497214,29.000000,0.000000,0.785348,0.000000,3.193049,0.008229,1.026257,-0.968372,-2.676424,-0.234780,-0.196393,-0.033092,-0.276458,0.195884,-0.471721,0.481636,-0.013343,0.019020,-0.015609,-0.000427,-0.014395,-0.004814,-0.037307,0.532363,1.685382,0.299756,0.178896,0.151264,0.056928,1.390910,0.449578,0.172932,0.000000,0.000000,0.000000,0.000000,0.000000,0.000000,
31.000000,37.656821,0.290773,0.751891,-1.462722,0.048753,0.253070,-0.456339,80.506455,-0.695816,0.391972,29.371860,0.250000,30.564425,0.003594,0.962048,-1.497245,29.000000,0.000000,0.785348,0.000000,3.193049,0.008229,1.031767,-0.969153,-2.677908,-0.246237,-0.203697,-0.034693,-0.287179,0.210157,-0.591544,0.381886,-0.030542,0.019020,-0.015609,-0.000427,-0.014395,-0.004814,-0.037307,0.533382,1.686161,0.303980,0.190538,0.164404,0.060856,1.456901,0.511994,0.195564,0.000000,0.000000,0.000000,0.000000,0.000000,0.000000,
31.500000,38.484914,0.287849,0.835612,-1.477602,0.049684,1.553388,0.268362,80.526548,-0.776938,0.421489,30.559862,0.250000,31.254700,0.035110,0.899038,-1.498263,30.000000,0.000000,0.168545,0.000000,3.173123,0.008229,0.925915,-0.846787,-2.401730,-0.098048,-0.202154,-0.020849,-0.252739,0.063426,-0.061730,0.301439,0.016984,0.016442,-0.015430,-0.000392,-0.012485,-0.005189,-0.037237,0.530255,1.672718,0.308417,0.167402,0.149301,0.056652,1.387282,0.449857,0.172591,0.000000,0.000000,0.000000,0.000000,0.000000,0.000000,
32.000000,39.327360,0.273149,0.914434,-1.476262,0.050730,0.427767,-0.006857,80.532354,-0.832537,0.467118,30.559862,0.250000,32.004886,0.008892,0.985308,-1.497939,30.000000,0.000000,0.168545,0.000000,3.173123,0.008229,0.930952,-0.845111,-2.422047,-0.105874,-0.208086,-0.021887,-0.264257,0.070874,-0.112453,0.199252,0.006042,0.016442,-0.015430,-0.000392,-0.012485,-0.005189,-0.037237,0.532188,1.673318,0.313383,0.179025,0.162356,0.060422,1.443796,0.511463,0.195053,0.000000,0.000000,0.000000,0.000000,0.000000,0.000000,
32.500000,40.167448,0.185318,0.907156,-1.458168,0.047658,-0.227907,1.631660,80.544173,-0.874675,0.333576,32.313658,0.250000,32.821587,0.082967,1.003023,-1.497001,31.000000,0.000000,0.302179,0.000000,2.668308,0.008229,0.936993,-0.977914,-1.714778,-0.103512,-0.058693,-0.039047,-0.102351,0.095867,-0.088908,0.718701,-0.078287,0.017112,-0.015169,-0.000461,-0.012690,-0.006941,-0.037229,0.529267,1.660517,0.317753,0.158387,0.147690,0.056292,1.375517,0.449133,0.172216,0.000000,0.000000,0.000000,0.000000,0.000000,0.000000,
33.000000,41.004890,0.095835,0.884762,-1.457165,0.048183,-0.084632,0.389396,80.558177,-0.830070,0.469442,32.313658,0.250000,33.571521,-0.012663,0.987204,-1.497425,31.000000,0.000000,0.302179,0.000000,2.668308,0.008229,0.939894,-0.977948,-1.750948,-0.113677,-0.061182,-0.040505,-0.108497,0.102442,-0.143108,0.688948,-0.098409,0.017112,-0.015169,-0.000461,-0.012690,-0.006941,-0.037229,0.531305,1.661086,0.322834,0.170175,0.160707,0.060025,1.423121,0.509941,0.194499,0.000000,0.000000,0.000000,0.000000,0.000000,0.000000,
33.500000,41.856790,0.035849,0.851023,-1.500267,0.051981,-0.434623,0.886783,80.566442,-0.611154,0.433620,33.255208,0.250000,34.145796,0.045814,1.006561,-1.499268,32.000000,0.000000,1.995741,0.000000,3.914417,0.008229,0.940056,-0.716763,-1.289986,-0.146260,0.055976,0.000772,0.009965,0.155537,-0.363443,1.191205,0.072861,0.011469,-0.014745,-0.000350,-0.013204,-0.008055,-0.037255,0.528935,1.648849,0.327477,0.153036,0.146587,0.055794,1.375210,0.446660,0.171800,0.000000,0.000000,0.000000,0.000000,0.000000,0.000000,
34.000000,42.709795,-0.011598,0.820060,-1.498681,0.051896,-0.121118,0.227801,80.579764,-0.792459,0.111541,33.255208,0.250000,34.896237,-0.000967,0.983988,-1.498256,32.000000,0.000000,1.995741,0.000000,3.914417,0.008229,0.942647,-0.716249,-1.316752,-0.155787,0.059168,0.000226,0.010630,0.163928,-0.438772,1.220153,0.072850,0.011469,-0.014745,-0.000350,-0.013204,-0.008055,-0.037255,0.530809,1.649487,0.332479,0.165072,0.159597,0.059272,1.416123,0.506818,0.193801,0.000000,0.000000,0.000000,0.000000,0.000000,0.000000,
34.500000,43.555100,-0.003816,0.858041,-1.478898,0.047453,0.889719,-0.255736,80.587543,-0.894986,0.037312,35.224401,0.250000,35.720420,-0.021358,0.943160,-1.496894,33.000000,0.000000,0.371500,0.000000,1.037727,0.008229,0.894352,-0.801019,-1.541727,-0.084081,0.022293,-0.018176,-0.017542,0.085118,-0.194592,1.072230,-0.008423,0.013223,-0.014814,-0.000403,-0.012154,-0.007817,-0.037185,0.528939,1.638329,0.337459,0.150023,0.145924,0.055184,1.386436,0.444368,0.171213,0.000000,0.000000,0.000000,0.000000,0.000000,0.000000,
35.000000,44.404370,0.011556,0.901278,-1.478537,0.046415,0.259525,-0.074005,80.599975,-0.775366,0.198607,35.224401,0.250000,36.470311,-0.004330,0.992955,-1.497525,33.000000,0.000000,0.371500,0.000000,1.037727,0.008229,0.899396,-0.803373,-1.555123,-0.088673,0.026032,-0.019092,-0.015886,0.091677,-0.237494,1.084540,-0.018005,0.013223,-0.014814,-0.000403,-0.012154,-0.007817,-0.037185,0.530508,1.639053,0.342143,0.162287,0.158947,0.058666,1.422661,0.504145,0.192917,0.000000,0.000000,0.000000,0.000000,0.000000,0.000000,
35.500000,45.259275,0.035174,0.924411,-1.486321,0.047149,0.421815,-0.391158,80.608381,-0.765113,0.083538,36.521188,0.250000,37.187682,-0.017137,0.978137,-1.498362,34.000000,0.000000,0.069057,0.000000,0.487052,0.008229,0.877884,-0.733204,-1.670991,-0.057381,-0.013995,-0.012179,-0.052311,0.053726,-0.125494,0.918772,0.007572,0.012369,-0.014816,-0.000382,-0.011702,-0.007415,-0.037153,0.528857,1.629773,0.347039,0.148162,0.145721,0.054702,1.398711,0.443372,0.170575,0.000000,0.000000,0.000000,0.000000,0.000000,0.000000,
36.000000,46.117031,0.056149,0.939416,-1.484781,0.045812,0.119305,-0.093178,80.620163,-0.910280,0.124533,36.521188,0.250000,37.937732,0.004158,0.997504,-1.497483,34.000000,0.000000,0.069057,0.000000,0.487052,0.008229,0.883370,-0.735776,-1.682465,-0.060500,-0.012854,-0.012887,-0.051991,0.058088,-0.154673,0.912253,0.001062,0.012369,-0.014816,-0.000382,-0.011702,-0.007415,-0.037153,0.530373,1.630508,0.351647,0.160612,0.158746,0.058123,1.430995,0.503025,0.192016,0.000000,0.000000,0.000000,0.000000,0.000000,0.000000,
36.500000,46.985626,0.092270,0.961943,-1.510832,0.047863,0.501083,-0.623073,80.627337,-1.069322,0.265700,37.790717,0.250000,38.579748,-0.015052,0.976069,-1.498946,35.000000,0.000000,0.786337,0.000000,0.763740,0.008229,0.857954,-0.569490,-1.774757,-0.026951,-0.072710,0.011832,-0.107322,0.014126,-0.049434,0.645189,0.112044,0.010017,-0.014858,-0.000309,-0.011217,-0.006834,-0.037122,0.528970,1.622965,0.356636,0.147200,0.145671,0.054252,1.414308,0.442907,0.169937,0.000000,0.000000,0.000000,0.000000,0.000000,0.000000,
37.000000,47.859365,0.126002,0.982704,-1.509364,0.046220,0.174063,-0.167375,80.640314,-0.982667,0.015365,37.790717,0.250000,39.329990,0.016904,0.999318,-1.497796,35.000000,0.000000,0.786337,0.000000,0.763740,0.008229,0.862929,-0.571498,-1.783948,-0.028169,-0.074128,0.011430,-0.109098,0.016614,-0.062900,0.608673,0.117621,0.010017,-0.014858,-0.000309,-0.011217,-0.006834,-0.037122,0.530383,1.623721,0.361142,0.159795,0.158694,0.057597,1.443699,0.502527,0.191119,0.000000,0.000000,0.000000,0.000000,0.000000,0.000000,
37.500000,48.735447,0.057428,1.033939,-1.508203,0.050417,1.001774,1.353844,80.665546,-1.106615,0.164728,39.472402,0.250000,40.083291,0.076370,0.957883,-1.498041,36.000000,0.000000,0.000435,0.000000,2.982932,0.008229,0.806419,-0.672206,-1.792177,0.084092,0.033592,0.009989,0.018942,-0.076056,0.365112,0.970931,0.119187,0.010213,-0.014905,-0.000311,-0.010133,-0.008321,-0.037115,0.527952,1.618116,0.365467,0.146643,0.145560,0.053862,1.432351,0.442597,0.169307,0.000000,0.000000,0.000000,0.000000,0.000000,0.000000,
38.000000,49.621096,-0.020663,1.082893,-1.507752,0.046925,0.345182,0.417306,80.665369,-1.148458,0.137515,39.472402,0.250000,40.833392,0.000603,1.005455,-1.498113,36.000000,0.000000,0.000435,0.000000,2.982932,0.008229,0.810491,-0.672253,-1.821307,0.085065,0.039261,0.009533,0.021266,-0.077439,0.407566,0.989428,0.123803,0.010213,-0.014905,-0.000311,-0.010133,-0.008321,-0.037115,0.530050,1.618654,0.370355,0.159335,0.158568,0.057183,1.459741,0.502168,0.190270,0.000000,0.000000,0.000000,0.000000,0.000000,0.000000,
38.500000,50.511017,-0.034435,1.094958,-1.508163,0.048372,0.235800,0.039310,80.674118,-1.070412,-0.004889,40.954080,0.250000,41.578127,-0.004702,0.999993,-1.497562,37.000000,0.000000,0.002025,0.000000,0.279899,0.008229,0.803780,-0.664160,-1.795443,0.103748,0.044795,0.010373,0.029733,-0.094965,0.501148,1.046682,0.134027,0.010117,-0.014913,-0.000307,-0.009935,-0.008313,-0.037114,0.528327,1.614170,0.375179,0.145720,0.144961,0.053558,1.449719,0.440905,0.168738,0.000000,0.000000,0.000000,0.000000,0.000000,0.000000,
39.000000,51.402130,-0.035601,1.101269,-1.508251,0.050744,0.149670,0.028406,80.684246,-1.282582,-0.285920,40.954080,0.250000,42.328130,-0.001372,1.003228,-1.497870,37.000000,0.000000,0.002025,0.000000,0.279899,0.008229,0.807745,-0.665518,-1.811598,0.107814,0.049118,0.010101,0.034229,-0.098040,0.554288,1.070343,0.138899,0.010117,-0.014913,-0.000307,-0.009935,-0.008313,-0.037114,0.529990,1.614850,0.379887,0.158432,0.157930,0.056845,1.475453,0.500118,0.189522,0.000000,0.000000,0.000000,0.000000,0.000000,0.000000,
39.500000,52.297232,0.047956,1.127319,-1.516589,0.051773,0.652107,-1.871558,80.680851,-1.047762,-0.370944,42.364920,0.250000,43.040760,-0.094095,0.975559,-1.498134,38.000000,0.000000,0.096416,0.000000,5.305531,0.008229,0.782782,-0.496910,-1.741580,0.128844,-0.132114,0.018287,-0.142051,-0.151760,0.708916,0.333145,0.184212,0.009154,-0.014905,-0.000288,-0.009504,-0.006388,-0.037060,0.529330,1.611412,0.385654,0.145330,0.144651,0.053307,1.472035,0.439975,0.168245,0.000000,0.000000,0.000000,0.000000,0.000000,0.000000,
40.000000,53.195203,0.159879,1.159130,-1.516247,0.050259,0.308227,-0.616461,80.701443,-0.992489,0.554601,42.364920,0.250000,43.790869,0.015946,1.003186,-1.498046,38.000000,0.000000,0.096416,0.000000,5.305531,0.008229,0.786286,-0.496766,-1.740427,0.136359,-0.136277,0.017985,-0.143933,-0.155944,0.775617,0.266212,0.193028,0.009154,-0.014905,-0.000288,-0.009504,-0.006388,-0.037060,0.530082,1.612265,0.389545,0.158043,0.157599,0.056565,1.497173,0.499004,0.188880,0.000000,0.000000,0.000000,0.000000,0.000000,0.000000,
40.500000,54.086841,0.140570,1.116806,-1.501566,0.050971,-0.910432,0.783521,80.706460,-1.051511,0.026103,44.089411,0.250000,44.601839,0.061761,1.057876,-1.497482,39.000000,0.000000,0.268416,0.000000,3.912343,0.008229,0.842138,-0.598144,-2.008755,0.055538,-0.052615,0.003850,-0.078809,-0.058929,0.455412,0.464457,0.135319,0.009862,-0.014746,-0.000330,-0.010474,-0.007323,-0.037066,0.527784,1.610044,0.393737,0.145082,0.144308,0.053103,1.495022,0.438894,0.167823,0.000000,0.000000,0.000000,0.000000,0.000000,0.000000,
41.000000,54.969456,0.089998,1.054971,-1.501015,0.045637,-0.227916,0.293851,80.721840,-0.606329,0.340883,44.089411,0.250000,45.351822,0.010105,0.995266,-1.497297,39.000000,0.000000,0.268416,0.000000,3.912343,0.008229,0.844476,-0.599108,-2.031813,0.053176,-0.054388,0.003471,-0.079894,-0.059704,0.482732,0.437831,0.136906,0.009862,-0.014746,-0.000330,-0.010474,-0.007323,-0.037066,0.529468,1.610697,0.398527,0.157769,0.157215,0.056339,1.519973,0.497729,0.188342,0.000000,0.000000,0.000000,0.000000,0.000000,0.000000,
41.500000,55.837628,0.038988,1.066429,-1.470504,0.050688,0.574691,0.891483,80.734635,-1.259758,-0.348782,45.831429,0.250000,46.230654,0.042511,0.966042,-1.496981,40.000000,0.000000,1.194555,0.000000,1.435810,0.008229,0.799378,-0.707271,-2.149326,0.106806,0.021446,-0.026664,0.003523,-0.100387,0.745422,0.727964,-0.002063,0.010839,-0.014390,-0.000422,-0.010036,-0.008170,-0.037061,0.527250,1.609257,0.403066,0.145200,0.144050,0.052934,1.527769,0.438230,0.167476,0.000000,0.000000,0.000000,0.000000,0.000000,0.000000,
42.000000,56.707057,-0.012657,1.095701,-1.470158,0.046618,0.280514,0.283354,80.740364,-1.274704,0.275907,45.831429,0.250000,46.980417,-0.006012,0.994895,-1.497617,40.000000,0.000000,1.194555,0.000000,1.435810,0.008229,0.802720,-0.707164,-2.173835,0.106766,0.027104,-0.027606,0.006645,-0.100806,0.798998,0.740339,-0.015876,0.010839,-0.014390,-0.000422,-0.010036,-0.008170,-0.037061,0.529153,1.609831,0.407862,0.157845,0.156930,0.056150,1.553882,0.496941,0.187902,0.000000,0.000000,0.000000,0.000000,0.000000,0.000000,
42.500000,57.585892,-0.026382,1.089455,-1.488774,0.048474,-0.132616,0.121663,80.750343,-1.016446,0.128691,46.891722,0.250000,47.647034,-0.003753,1.009123,-1.497871,41.000000,0.000000,0.503503,0.000000,0.066916,0.008229,0.837301,-0.696087,-2.215889,0.090133,0.047606,-0.009312,0.022629,-0.080332,0.783550,0.815302,0.060541,0.010511,-0.014677,-0.000361,-0.010263,-0.008306,-0.037060,0.527129,1.608717,0.412569,0.145533,0.143966,0.052784,1.561508,0.437973,0.167190,0.000000,0.000000,0.000000,0.000000,0.000000,0.000000,
43.000000,58.464878,-0.033295,1.073560,-1.488252,0.048529,0.014010,0.064706,80.760552,-1.236333,-0.126087,46.891722,0.250000,48.397188,-0.005477,0.993571,-1.497860,41.000000,0.000000,0.503503,0.000000,0.066916,0.008229,0.838885,-0.697110,-2.232636,0.090308,0.052628,-0.009913,0.027817,-0.079988,0.828885,0.840521,0.055486,0.010511,-0.014677,-0.000361,-0.010263,-0.008306,-0.037060,0.528778,1.609365,0.417240,0.158132,0.156826,0.055975,1.588700,0.496641,0.187530,0.000000,0.000000,0.000000,0.000000,0.000000,0.000000,
43.500000,59.334420,0.025376,1.034192,-1.471359,0.049111,-0.674202,-1.325055,80.778127,-0.941083,0.128441,48.718087,0.250000,49.215984,-0.073289,1.030635,-1.497564,42.000000,0.000000,0.348701,0.000000,2.969682,0.008229,0.873277,-0.600482,-2.076517,-0.006767,-0.058928,-0.026416,-0.098665,-0.003558,0.507376,0.458249,-0.024853,0.010388,-0.014347,-0.000416,-0.011036,-0.006872,-0.037112,0.527161,1.608341,0.422514,0.145894,0.143820,0.052644,1.598608,0.437835,0.166940,0.000000,0.000000,0.000000,0.000000,0.000000,0.000000,
44.000000,60.193469,0.104215,0.987229,-1.470541,0.046798,-0.174554,-0.428833,80.782123,-0.687217,0.194069,48.718087,0.250000,49.965907,0.005698,0.987927,-1.497613,42.000000,0.000000,0.348701,0.000000,2.969682,0.008229,0.875376,-0.601519,-2.079105,-0.009328,-0.061265,-0.027214,-0.098517,0.000698,0.503689,0.428269,-0.038509,0.010388,-0.014347,-0.000416,-0.011036,-0.006872,-0.037112,0.528426,1.609036,0.426712,0.158447,0.156662,0.055817,1.627049,0.496442,0.187202,0.000000,0.000000,0.000000,0.000000,0.000000,0.000000,
44.500000,61.045196,0.090775,0.944787,-1.465357,0.051312,-0.629920,0.552336,80.786490,-1.596587,1.401152,50.154608,0.250000,50.735727,0.040534,1.018162,-1.497895,43.000000,0.000000,0.029227,0.000000,0.933084,0.008229,0.914727,-0.636352,-2.198718,-0.070993,-0.000681,-0.032705,-0.050241,0.073375,0.273110,0.651690,-0.074258,0.010369,-0.014252,-0.000431,-0.011685,-0.007362,-0.037096,0.526018,1.608371,0.431041,0.146540,0.143688,0.052519,1.640317,0.437537,0.166718,0.000000,0.000000,0.000000,0.000000,0.000000,0.000000,
45.000000,61.890370,0.055028,0.900937,-1.464434,0.048853,-0.185214,0.213750,80.798836,-0.912098,0.697670,50.154608,0.250000,51.485709,0.004911,0.982696,-1.497815,43.000000,0.000000,0.029227,0.000000,0.933084,0.008229,0.916788,-0.636795,-2.219828,-0.081340,0.000608,-0.033674,-0.050117,0.081759,0.235208,0.651813,-0.091099,0.010369,-0.014252,-0.000431,-0.011685,-0.007362,-0.037096,0.527710,1.608994,0.435753,0.159045,0.156502,0.055673,1.670426,0.496080,0.186909,0.000000,0.000000,0.000000,0.000000,0.000000,0.000000,
45.500000,62.740247,0.043517,0.865124,-1.486255,0.047850,-0.490529,0.095861,80.809509,-0.689032,0.383558,51.357651,0.250000,52.138523,0.004016,1.003567,-1.498667,44.000000,0.000000,0.699521,0.000000,0.753011,0.008229,0.967172,-0.635686,-2.276181,-0.134830,0.022025,-0.012526,-0.039501,0.138443,-0.008779,0.753566,-0.002647,0.010265,-0.014614,-0.000362,-0.012104,-0.007450,-0.037095,0.525576,1.608357,0.440409,0.147426,0.143617,0.052403,1.685800,0.437402,0.166517,0.000000,0.000000,0.000000,0.000000,0.000000,0.000000,
46.000000,63.587224,0.038713,0.829122,-1.485052,0.048335,-0.167778,0.025550,80.820472,-1.147014,-0.078652,51.357651,0.250000,52.888741,0.000452,0.978908,-1.497771,44.000000,0.000000,0.699521,0.000000,0.753011,0.008229,0.969441,-0.636239,-2.293307,-0.146547,0.024566,-0.013033,-0.038261,0.149786,-0.078908,0.765339,-0.009289,0.010265,-0.014614,-0.000362,-0.012104,-0.007450,-0.037095,0.527202,1.608994,0.445053,0.159883,0.156412,0.055538,1.717699,0.495908,0.186641,0.000000,0.000000,0.000000,0.000000,0.000000,0.000000,
46.500000,64.438179,0.029968,0.828753,-1.501978,0.050687,0.255425,0.172285,80.830961,-0.943926,0.057929,52.823467,0.250000,53.564876,0.008209,0.962618,-1.498507,45.000000,0.000000,0.405870,0.000000,0.126170,0.008229,0.969285,-0.649873,-2.326367,-0.128590,0.038031,0.003297,-0.021758,0.133866,-0.042979,0.818361,0.064269,0.010303,-0.014911,-0.000310,-0.011836,-0.007596,-0.037083,0.524926,1.608330,0.449623,0.148321,0.143531,0.052291,1.733385,0.437320,0.166331,0.000000,0.000000,0.000000,0.000000,0.000000,0.000000,
47.000000,65.292131,0.019094,0.836616,-1.500867,0.045589,0.062502,0.074328,80.841444,-0.640782,0.299703,52.823467,0.250000,54.315044,-0.000456,0.981850,-1.497725,45.000000,0.000000,0.405870,0.000000,0.126170,0.008229,0.974064,-0.650249,-2.344166,-0.139319,0.043224,0.003013,-0.019550,0.145234,-0.109712,0.838881,0.065597,0.010303,-0.014911,-0.000310,-0.011836,-0.007596,-0.037083,0.526571,1.608955,0.454264,0.160734,0.156307,0.055407,1.766899,0.495783,0.186391,0.000000,0.000000,0.000000,0.000000,0.000000,0.000000,
47.500000,66.154947,0.013284,0.854153,-1.521890,0.052215,0.497177,0.076028,80.851520,-0.894746,0.111084,54.204457,0.250000,54.974589,0.000897,0.957104,-1.498405,46.000000,0.000000,0.610851,0.000000,0.445306,0.008229,0.962242,-0.656620,-2.374586,-0.097103,0.043149,0.023277,-0.012387,0.102951,0.018570,0.858566,0.165246,0.010373,-0.015264,-0.000248,-0.011321,-0.007622,-0.037074,0.524335,1.608135,0.458868,0.148891,0.143449,0.052182,1.778557,0.437276,0.166155,0.000000,0.000000,0.000000,0.000000,0.000000,0.000000,
48.000000,67.023411,0.008343,0.875143,-1.521772,0.047889,0.136326,0.044167,80.861358,-1.291873,-0.007956,54.204457,0.250000,55.724819,-0.001404,0.987587,-1.498318,46.000000,0.000000,0.610851,0.000000,0.445306,0.008229,0.967004,-0.657859,-2.391073,-0.105342,0.048747,0.023330,-0.009748,0.112444,-0.031777,0.881762,0.176647,0.010373,-0.015264,-0.000248,-0.011321,-0.007622,-0.037074,0.525957,1.608760,0.463483,0.161269,0.156208,0.055280,1.812936,0.495696,0.186153,0.000000,0.000000,0.000000,0.000000,0.000000,0.000000,
48.500000,67.889887,0.023270,0.910262,-1.510974,0.052057,0.830480,-0.349291,80.868571,-0.894209,0.174012,55.980713,0.250000,56.519224,-0.020129,0.949044,-1.497495,47.000000,0.000000,0.148325,0.000000,1.129265,0.008229,0.909598,-0.631886,-2.415095,-0.039869,0.003524,0.013270,-0.043398,0.038782,0.218261,0.709161,0.139781,0.010332,-0.015080,-0.000279,-0.010579,-0.007273,-0.037079,0.523933,1.607732,0.468204,0.148968,0.143303,0.052079,1.819684,0.437235,0.165988,0.000000,0.000000,0.000000,0.000000,0.000000,0.000000,
49.000000,68.760876,0.043511,0.950774,-1.511348,0.047194,0.260526,-0.096830,80.881476,-0.896013,0.088819,55.980713,0.250000,57.269168,0.001624,0.995905,-1.498066,47.000000,0.000000,0.148325,0.000000,1.129265,0.008229,0.913568,-0.634028,-2.427227,-0.043828,0.007500,0.013159,-0.041887,0.045131,0.197650,0.712157,0.146143,0.010332,-0.015080,-0.000279,-0.010579,-0.007273,-0.037079,0.525364,1.608400,0.472722,0.161320,0.156045,0.055162,1.854158,0.495588,0.185926,0.000000,0.000000,0.000000,0.000000,0.000000,0.000000,
49.500000,69.622817,0.077042,0.946950,-1.483017,0.046231,-0.079426,-0.665986,80.891332,-0.859134,0.304458,57.727152,0.250000,58.137742,-0.029810,1.005838,-1.496723,48.000000,0.000000,1.059504,0.000000,0.808979,0.008229,0.896059,-0.582885,-2.478743,-0.068104,-0.052184,-0.013864,-0.106852,0.058888,0.075991,0.453441,0.023418,0.010101,-0.014598,-0.000359,-0.010622,-0.006703,-0.037100,0.523422,1.607354,0.477508,0.148594,0.143137,0.051985,1.854979,0.437088,0.165828,0.000000,0.000000,0.000000,0.000000,0.000000,0.000000,
50.000000,70.479265,0.115515,0.932851,-1.483346,0.052342,-0.038395,-0.208895,80.901020,-0.762334,0.209743,57.727152,0.250000,58.887509,0.007607,0.997858,-1.497525,48.000000,0.000000,1.059504,0.000000,0.808979,0.008229,0.898833,-0.584689,-2.487569,-0.072898,-0.053406,-0.014374,-0.107908,0.065007,0.041050,0.427187,0.016111,0.010101,-0.014598,-0.000359,-0.010622,-0.006703,-0.037100,0.524807,1.608016,0.481941,0.160919,0.155861,0.055055,1.888792,0.495364,0.185712,0.000000,0.000000,0.000000,0.000000,0.000000,0.000000,
50.500000,71.344730,0.088034,0.913870,-1.511658,0.047576,-0.204537,0.714304,80.909887,-0.801495,0.837253,58.684106,0.250000,59.513328,0.045483,1.004008,-1.498207,49.000000,0.000000,1.163076,0.000000,0.806962,0.008229,0.940498,-0.635773,-2.481975,-0.085719,0.013512,0.013224,-0.042551,0.090138,-0.012839,0.689731,0.143507,0.010249,-0.015069,-0.000278,-0.010796,-0.007272,-0.037084,0.522358,1.607318,0.486320,0.148503,0.143109,0.051897,1.891511,0.436835,0.165679,0.000000,0.000000,0.000000,0.000000,0.000000,0.000000,
51.000000,72.211544,0.044081,0.894525,-1.511374,0.049317,-0.057790,0.248102,80.920744,-0.884786,0.180374,58.684106,0.250000,60.263588,0.001831,0.991904,-1.498031,49.000000,0.000000,1.163076,0.000000,0.806962,0.008229,0.941770,-0.636003,-2.505168,-0.094807,0.015855,0.013102,-0.042250,0.097378,-0.057811,0.697261,0.149833,0.010249,-0.015069,-0.000278,-0.010796,-0.007272,-0.037084,0.524091,1.607890,0.490988,0.160810,0.155815,0.054951,1.924943,0.495085,0.185512,0.000000,0.000000,0.000000,0.000000,0.000000,0.000000,
51.500000,73.069736,0.021650,0.926444,-1.487930,0.047603,0.883652,0.321347,80.932412,-1.149483,-0.044593,60.664496,0.250000,61.111067,0.011945,0.948217,-1.496776,50.000000,0.000000,0.719194,0.000000,1.119661,0.008229,0.873761,-0.658882,-2.534013,-0.016259,0.034714,-0.009069,-0.009705,0.021773,0.247371,0.775047,0.050156,0.010319,-0.014746,-0.000337,-0.010073,-0.007528,-0.037063,0.521853,1.607128,0.495554,0.148344,0.142966,0.051813,1.929380,0.436770,0.165538,0.000000,0.000000,0.000000,0.000000,0.000000,0.000000,
52.000000,73.932196,0.003443,0.971593,-1.488330,0.049210,0.301962,0.103672,80.939893,-0.957009,0.178812,60.664496,0.250000,61.860917,-0.003731,0.998247,-1.497613,50.000000,0.000000,0.719194,0.000000,1.119661,0.008229,0.877419,-0.657937,-2.553029,-0.020011,0.040796,-0.009406,-0.007174,0.026654,0.238547,0.794205,0.045280,0.010319,-0.014746,-0.000337,-0.010073,-0.007528,-0.037063,0.523568,1.607701,0.500179,0.160641,0.155657,0.054857,1.962507,0.494957,0.185323,0.000000,0.000000,0.000000,0.000000,0.000000,0.000000,
52.500000,74.806409,0.004392,0.998574,-1.509342,0.048798,0.561400,-0.081298,80.948605,-0.973637,0.166472,61.742914,0.250000,62.518457,-0.009621,0.974773,-1.498233,51.000000,0.000000,0.651069,0.000000,0.737602,0.008229,0.866500,-0.653444,-2.596902,0.028128,0.026198,0.010903,-0.014013,-0.023802,0.458733,0.720519,0.140632,0.010337,-0.015045,-0.000283,-0.009647,-0.007468,-0.037053,0.521529,1.606941,0.504798,0.148020,0.142932,0.051736,1.961941,0.436786,0.165406,0.000000,0.000000,0.000000,0.000000,0.000000,0.000000,
53.000000,75.686707,0.008884,1.022899,-1.508429,0.045492,0.199249,-0.005926,80.959644,-0.593651,0.265836,61.742914,0.250000,63.268640,-0.002298,1.001435,-1.497621,51.000000,0.000000,0.651069,0.000000,0.737602,0.008229,0.870779,-0.655534,-2.611790,0.027373,0.030558,0.010701,-0.011183,-0.021464,0.472886,0.734933,0.145789,0.010337,-0.015045,-0.000283,-0.009647,-0.007468,-0.037053,0.523060,1.607561,0.509351,0.160304,0.155609,0.054765,1.994284,0.494945,0.185145,0.000000,0.000000,0.000000,0.000000,0.000000,0.000000,
53.500000,76.560951,0.005559,0.989380,-1.493352,0.050386,-0.666428,0.072949,80.969311,-1.458573,0.059777,63.585477,0.250000,64.084946,0.000827,1.038859,-1.497492,52.000000,0.000000,0.337031,0.000000,1.084425,0.008229,0.904435,-0.655553,-2.601444,-0.039983,0.049207,-0.004330,-0.004732,0.049480,0.208238,0.852482,0.078827,0.010311,-0.014837,-0.000321,-0.010191,-0.007449,-0.037065,0.520933,1.606792,0.513898,0.147495,0.142825,0.051660,1.992091,0.436768,0.165280,0.000000,0.000000,0.000000,0.000000,0.000000,0.000000,
54.000000,77.427020,0.000345,0.941576,-1.493326,0.047127,-0.201503,0.051192,80.979964,-0.979597,0.288006,63.585477,0.250000,64.834831,-0.001502,0.995657,-1.497880,52.000000,0.000000,0.337031,0.000000,1.084425,0.008229,0.906522,-0.656970,-2.617811,-0.045151,0.051275,-0.004648,-0.001847,0.054082,0.187165,0.877697,0.076325,0.010311,-0.014837,-0.000321,-0.010191,-0.007449,-0.037065,0.522508,1.607396,0.518469,0.159768,0.155488,0.054677,2.023405,0.494875,0.184975,0.000000,0.000000,0.000000,0.000000,0.000000,0.000000,
54.500000,78.285522,0.026048,0.953593,-1.480639,0.049697,0.553754,-0.587662,80.987429,-0.967800,0.259342,65.116898,0.250000,65.638535,-0.032566,0.964873,-1.497491,53.000000,0.000000,0.220714,0.000000,0.922088,0.008229,0.869219,-0.617899,-2.647146,-0.014352,-0.011001,-0.017051,-0.058614,0.011280,0.324961,0.645933,0.015218,0.010300,-0.014658,-0.000352,-0.009819,-0.006931,-0.037068,0.520803,1.606739,0.523207,0.147427,0.142738,0.051590,2.028852,0.436804,0.165161,0.000000,0.000000,0.000000,0.000000,0.000000,0.000000,
55.000000,79.145341,0.060603,0.980337,-1.480134,0.045880,0.217101,-0.178872,81.001078,-0.942511,0.371284,65.116898,0.250000,66.388432,0.002845,0.995963,-1.497368,53.000000,0.000000,0.220714,0.000000,0.922088,0.008229,0.872901,-0.619817,-2.657128,-0.016219,-0.008857,-0.017448,-0.057758,0.015626,0.317652,0.641175,0.006352,0.010300,-0.014658,-0.000352,-0.009819,-0.006931,-0.037068,0.522116,1.607402,0.527649,0.159695,0.155388,0.054598,2.059989,0.494866,0.184816,0.000000,0.000000,0.000000,0.000000,0.000000,0.000000,
55.500000,79.748887,0.482443,0.269117,-0.463468,0.041251,-20.261403,-9.672690,82.110848,0.027333,1.140063,66.403319,0.250000,66.872028,0.494077,0.259427,-0.507979,54.000000,0.000000,0.137435,0.000000,1.569712,0.008229,0.856007,-0.699073,-2.797486,0.057030,0.024766,-0.009382,0.011634,-0.009690,0.562731,0.976007,0.043157,0.010370,-0.014806,-0.000328,-0.009391,-0.007750,-0.037045,0.508425,1.613480,0.540956,0.147291,0.141091,0.051719,2.062460,0.436479,0.165058,0.000000,0.000000,0.000000,0.000000,0.000000,0.000000,
56.000000,79.528846,0.961493,-0.772188,0.722421,0.089226,-10.868953,-4.977171,80.776497,0.844216,0.901674,66.403319,0.250000,66.711853,0.966266,-0.798589,0.743992,54.000000,0.000000,0.137435,0.000000,1.569712,0.008229,0.897730,-0.675515,-2.745126,0.088704,-0.039026,-0.008959,0.004773,-0.026401,0.600100,0.970774,0.039416,0.010370,-0.014806,-0.000328,-0.009391,-0.007750,-0.037045,0.529523,1.606040,0.539695,0.166313,0.151934,0.055432,2.090459,0.493436,0.184795,0.000000,0.000000,0.000000,0.000000,0.000000,0.000000,
56.500000,79.291176,1.186621,-1.253362,0.012689,0.052752,-0.014230,-0.060748,80.309070,1.410391,0.950442,66.368425,0.250000,66.520823,1.152222,-1.277845,0.028002,55.000000,0.000000,0.846759,0.000000,2.326192,0.008229,0.954162,-0.811542,-3.127328,0.066313,-0.118743,0.015290,-0.034399,-0.024483,0.487740,0.804015,0.148472,0.013368,-0.015890,-0.000224,-0.009480,-0.007247,-0.037293,0.533169,1.600053,0.540803,0.147130,0.140950,0.052326,2.039122,0.436987,0.165171,0.000000,0.000000,0.000000,0.000000,0.000000,0.000000,
57.000000,79.115643,1.137133,-1.153030,-0.000603,0.045791,1.178124,0.557531,80.326690,1.298206,0.785951,66.368425,0.250000,66.511420,1.106721,-1.176450,0.015157,55.000000,0.000000,0.846759,0.000000,2.326192,0.008229,0.940895,-0.820005,-3.132581,0.062699,-0.109453,0.015408,-0.030412,-0.023420,0.520514,0.746960,0.155876,0.013368,-0.015890,-0.000224,-0.009480,-0.007247,-0.037293,0.534255,1.600806,0.545239,0.158851,0.153467,0.055315,2.062632,0.494318,0.185012,0.000000,0.000000,0.000000,0.000000,0.000000,0.000000,
